     2.11           OBSERVATION DATA    G (GPS)             RINEX VERSION / TYPE
teqc  2017Sep15     UNAVCO Archive Ops  20170920 11:45:51UTCPGM / RUN BY / DATE
Solaris x86 5.10|AMD64|cc SC5.8 -xarch=amd64|=+|=+          COMMENT
BIT 2 OF LLI FLAGS DATA COLLECTED UNDER A/S CONDITION       COMMENT
HOLP                                                        MARKER NAME
49903M001                                                   MARKER NUMBER
Ken Hudnut          U.S. Geological Survey                  OBSERVER / AGENCY
618-01104           TPS NET-G3A         4.7 Oct,18,2016 p2  REC # / TYPE / VERS
383-1915            TPSCR.G3        SCIS                    ANT # / TYPE
 -2500946.0962 -4670472.9515  3539500.5469                  APPROX POSITION XYZ
        0.1310        0.0000        0.0000                  ANTENNA: DELTA H/E/N
     1     1                                                WAVELENGTH FACT L1/2
     7    L1    L2    C1    P2    P1    S1    S2            # / TYPES OF OBSERV
    30.0000                                                 INTERVAL
    18                                                      LEAP SECONDS
input file: holp201709190000a.tps                           COMMENT
Forced Modulo Decimation to 30 seconds                      COMMENT
RINEX file created by UNAVCO GPS Archive.                   COMMENT
For more information contact archive-gps@unavco.org         COMMENT
Monument ID: 19503                                          COMMENT
UNAVCO 4-char name:   HOLP                                  COMMENT
4-char name from Log or data file: HOLP                     COMMENT
Monument location: 33.924539753 -118.168170699 -6.7077      COMMENT
Visit ID: 118107                                            COMMENT
doi:10.7283/T50R9MNS                                        COMMENT
End of DB comments                                          COMMENT
 SNR is mapped to RINEX snr flag value [0-9]                COMMENT
  L1 & L2: min(max(int(snr_dBHz/6), 0), 9)                  COMMENT
pseudorange smoothing corrections not applied               COMMENT
rx serial #: 618-01104                                      COMMENT
  2017     9    19     0     0    0.0000000     GPS         TIME OF FIRST OBS
                                                            END OF HEADER
 17  9 19  0  0  0.0000000  0  9G04G24G27G10G14G21G18G32G08
 118007961.880 7  91954253.00045  22456169.352    22456167.259    22456168.756
        46.000          32.0004
 123801861.705 7  96468983.14744  23558708.831    23558710.263    23558708.201
        42.000          28.0004
 114091997.196 8  88902856.53546  21710982.966    21710982.252    21710982.680
        48.000          38.0004
 109157397.751 8  85057730.38647  20771951.455    20771950.805    20771951.250
        52.000          45.0004
 113206486.942 7  88212840.81246  21542467.333    21542465.174    21542466.692
        47.000          36.0004
 117234586.950 7  91351619.24245  22308992.235    22308989.816    22308991.630
        47.000          34.0004
 114733762.968 8  89402941.61546  21833101.045    21833097.269    21833099.958
        48.000          36.0004
 109015801.086 8  84947389.45147  20745005.847    20745005.420    20745005.790
        53.000          45.0004
 119611494.883 6  93203752.73145  22761305.284    22761306.533    22761305.060
        41.000          30.0004
 17  9 19  0  0 30.0000000  0  9G04G24G27G10G14G21G18G32G08
 118076058.868 7  92007315.56045  22469127.441    22469126.115    22469127.093
        45.000          32.0004
 123827381.281 6  96488868.52844  23563565.303    23563566.189    23563564.805
        41.000          28.0004
 114133241.290 8  88934994.76946  21718831.237    21718830.588    21718830.914
        48.000          38.0004
 109167640.870 8  85065712.02747  20773900.573    20773900.139    20773900.153
        52.000          44.0004
 113138221.973 7  88159647.35246  21529476.829    21529474.667    21529476.139
        46.000          36.0004
 117297824.860 7  91400895.50545  22321026.297    22321023.238    22321025.218
        46.000          33.0004
 114773183.464 8  89433658.87946  21840602.465    21840598.566    21840601.507
        48.000          36.0004
 108973818.288 8  84914675.59547  20737016.508    20737016.366    20737016.698
        52.000          45.0004
 119586486.228 7  93184265.46045  22756547.038    22756547.610    22756546.110
        43.000          30.0004
 17  9 19  0  1  0.0000000  0  9G04G24G27G10G14G21G18G32G08
 118144489.685 7  92060638.23745  22482149.533    22482147.677    22482149.033
        45.000          32.0004
 123853444.889 6  96509177.83144  23568525.086    23568525.635    23568524.942
        41.000          28.0004
 114174993.015 8  88967528.56046  21726776.407    21726775.812    21726776.002
        49.000          38.0004
 109178060.395 8  85073831.13847  20775883.168    20775882.823    20775882.620
        52.000          45.0004
 113070353.221 7  88106762.63346  21516562.350    21516559.495    21516561.178
        47.000          36.0004
 117361405.538 7  91450438.85445  22333125.058    22333122.539    22333124.143
        46.000          33.0004
 114812691.470 8  89464444.32846  21848120.510    21848116.844    21848119.623
        48.000          36.0004
 108932321.315 8  84882340.30547  20729120.078    20729119.864    20729120.080
        53.000          45.0004
 119562030.093 7  93165208.72445  22751892.964    22751893.252    22751892.831
        44.000          30.0004
 17  9 19  0  1 30.0000000  0  9G04G24G27G10G14G21G18G32G08
 118213252.133 7  92114219.33345  22495234.366    22495232.672    22495233.742
        44.000          31.0004
 123880051.854 7  96529910.52044  23573588.873    23573588.768    23573588.256
        42.000          28.0004
 114217251.016 7  89000456.85146  21734817.932    21734817.345    21734817.055
        47.000          37.0004
 109188656.759 8  85082088.03447  20777899.842    20777899.174    20777899.463
        53.000          45.0004
 113002882.698 8  88054188.22446  21503723.175    21503720.401    21503721.984
        48.000          36.0004
 117425329.322 7  91500249.57245  22345289.710    22345286.513    22345288.317
        46.000          33.0004
 114852288.337 8  89495299.03146  21855655.549    21855652.000    21855654.974
        49.000          37.0004
 108891311.361 8  84850384.50447  20721316.328    20721315.851    20721316.164
        53.000          45.0004
 119538127.436 7  93146583.27245  22747344.424    22747345.087    22747344.244
        43.000          30.0004
 17  9 19  0  2  0.0000000  0  9G04G24G27G10G14G21G18G32G08
 118282343.676 7  92168056.87445  22508381.828    22508380.447    22508381.349
        46.000          31.0004
 123907201.863 7  96551066.37544  23578754.992    23578755.194    23578754.475
        44.000          27.0004
 114260013.446 7  89033778.20746  21742954.898    21742954.926    21742954.513
        46.000          38.0004
 109199429.831 8  85090482.63447  20779949.810    20779949.313    20779949.584
        53.000          45.0004
 112935811.856 7  88001925.25746  21490959.639    21490957.160    21490958.998
        46.000          36.0004
 117489595.312 7  91550326.93245  22357518.986    22357516.061    22357517.872
        46.000          32.0004
 114891974.010 8  89526222.92546  21863207.468    21863203.958    21863206.628
        49.000          36.0004
 108850789.000 8  84818808.64847  20713604.884    20713604.711    20713604.925
        52.000          45.0004
 119514778.876 7  93128389.57945  22742902.202    22742901.752    22742901.685
        44.000          31.0004
 17  9 19  0  2 30.0000000  0  9G04G24G27G10G14G21G18G32G08
 118351761.723 7  92222148.82245  22521591.707    22521589.809    22521590.984
        45.000          31.0004
 123934894.829 7  96572645.32744  23584024.866    23584025.017    23584024.118
        42.000          27.0004
 114303278.337 8  89067491.08446  21751188.477    21751187.660    21751187.710
        48.000          37.0004
 109210379.432 8  85099014.78847  20782033.635    20782032.940    20782033.208
        51.000          45.0004
 112869142.103 7  87949974.82846  21478272.949    21478270.302    21478272.290
        47.000          37.0004
 117554203.171 7  91600670.67745  22369813.563    22369810.562    22369812.213
        46.000          32.0004
 114931748.841 8  89557216.28246  21870776.565    21870772.676    21870775.390
        48.000          36.0004
 108810754.751 8  84787613.14047  20705986.421    20705986.486    20705986.408
        52.000          45.0004
 119491984.863 7  93110628.00745  22738564.762    22738564.540    22738564.246
        45.000          32.0004
 17  9 19  0  3  0.0000000  0  9G04G24G27G10G14G21G18G32G08
 118421502.504 7  92276492.25745  22534862.750    22534860.988    22534861.434
        44.000          30.0004
 123963129.544 6  96594646.41444  23589397.145    23589398.279    23589396.610
        41.000          27.0004
 114347042.657 7  89101593.13146  21759516.435    21759516.010    21759516.143
        46.000          38.0004
 109221504.343 8  85107683.55047  20784150.556    20784149.914    20784150.139
        52.000          44.0004
 112802873.710 7  87898337.14146  21465662.359    21465659.560    21465661.786
        47.000          36.0004
 117619152.012 7  91651280.13745  22382173.135    22382170.198    22382172.046
        46.000          33.0004
 114971611.966 8  89588278.45346  21878361.510    21878358.437    21878360.849
        48.000          36.0004
 108771208.071 8  84756797.55847  20698460.969    20698460.771    20698460.849
        53.000          45.0004
 119469745.452 7  93093298.58945  22734332.282    22734332.468    22734332.301
        44.000          32.0004
 17  9 19  0  3 30.0000000  0  9G04G24G27G10G14G21G18G32G08
 118491564.244 7  92331085.77845  22548195.675    22548193.673    22548194.483
        43.000          31.0004
 123991906.496 6  96617069.99444  23594873.456    23594874.298    23594872.664
        41.000          27.0004
 114391305.544 8  89136083.66546  21767938.984    21767938.752    21767938.688
        48.000          37.0004
 109232805.482 8  85116489.63147  20786301.340    20786300.319    20786300.877
        53.000          45.0004
 112737008.919 8  87847013.95246  21453128.986    21453126.204    21453128.340
        48.000          37.0004
 117684441.509 7  91702155.03345  22394597.830    22394594.409    22394596.276
        45.000          32.0004
 115011564.468 8  89619410.26346  21885964.444    21885961.457    21885963.761
        48.000          36.0004
 108732150.550 8  84726363.13747  20691028.901    20691028.409    20691028.726
        52.000          45.0004
 119448061.769 7  93076402.20845  22730205.626    22730206.161    22730205.630
        42.000          31.0004
 17  9 19  0  4  0.0000000  0  9G04G24G27G10G14G21G18G32G08
 118561943.807 7  92385926.96645  22561587.937    22561586.229    22561587.170
        43.000          30.0004
 124021224.823 7  96639915.42444  23600452.778    23600453.481    23600452.299
        42.000          27.0004
 114436064.408 8  89170960.67646  21776456.405    21776456.286    21776456.075
        48.000          37.0004
 109244282.319 8  85125432.61247  20788484.869    20788484.294    20788484.707
        53.000          45.0004
 112671548.398 7  87796005.77046  21440672.218    21440669.190    21440671.622
        47.000          37.0004
 117750070.942 7  91753294.82045  22407086.008    22407083.414    22407084.770
        45.000          33.0004
 115051606.246 8  89650611.63246  21893584.715    21893581.039    21893583.849
        49.000          36.0004
 108693582.084 8  84696309.79547  20683689.334    20683689.023    20683689.195
        52.000          45.0004
 119426933.941 7  93059938.96645  22726185.713    22726186.130    22726185.173
        43.000          31.0004
 17  9 19  0  4 30.0000000  0  9G04G24G27G10G14G21G18G32G08
 118632638.776 7  92441013.92045  22575040.992    22575039.464    22575040.214
        43.000          30.0004
 124051084.034 7  96663182.35844  23606134.929    23606135.335    23606134.623
        43.000          27.0004
 114481317.541 7  89206222.84046  21785067.750    21785067.875    21785067.220
        47.000          37.0004
 109255934.689 8  85134512.38447  20790702.491    20790701.584    20790702.102
        51.000          44.0004
 112606493.874 7  87745313.95246  21428293.180    21428289.665    21428292.284
        47.000          37.0004
 117816039.947 7  91804699.20745  22419639.783    22419636.957    22419638.657
        47.000          33.0004
 115091737.657 7  89681882.85146  21901221.170    21901217.747    21901220.408
        47.000          36.0004
 108655503.454 8  84666638.14147  20676443.144    20676442.947    20676443.048
        52.000          45.0004
 119406362.766 7  93043909.46645  22722271.735    22722271.671    22722270.631
        45.000          31.0004
 17  9 19  0  5  0.0000000  0  9G04G24G27G10G14G21G18G32G08
 118703645.430 7  92496343.74145  22588552.871    22588551.725    22588552.502
        44.000          30.0004
 124081482.921 7  96686869.81144  23611920.193    23611919.627    23611919.851
        42.000          27.0004
 114527061.805 7  89241867.70146  21793772.741    21793772.599    21793772.205
        46.000          37.0004
 109267761.530 8  85143728.09747  20792952.798    20792952.371    20792952.601
        52.000          44.0004
 112541845.788 7  87694938.84246  21415990.832    21415987.791    21415990.190
        47.000          37.0004
 117882347.058 7  91856367.04545  22432257.615    22432255.020    22432256.578
        45.000          33.0004
 115131957.738 8  89713223.16345  21908875.038    21908871.238    21908873.737
        48.000          35.0004
 108617913.973 8  84637347.65347  20669289.953    20669289.972    20669289.971
        53.000          45.0004
 119386347.631 7  93028313.25145  22718462.238    22718462.656    22718462.207
        44.000          31.0004
 17  9 19  0  5 30.0000000  0  9G04G24G27G10G14G21G18G32G08
 118774961.128 7  92551914.38145  22602124.583    22602122.540    22602123.804
        44.000          30.0004
 124112421.338 7  96710977.68044  23617806.987    23617806.728    23617806.519
        42.000          27.0004
 114573295.332 7  89277893.80246  21802570.796    21802570.350    21802570.255
        47.000          37.0004
 109279762.847 8  85153079.77247  20795236.950    20795236.139    20795236.697
        52.000          44.0004
 112477605.241 8  87644881.28746  21403766.067    21403763.311    21403765.418
        48.000          37.0004
 117948991.955 7  91908298.09845  22444939.030    22444937.232    22444938.628
        45.000          33.0004
 115172267.115 8  89744633.06646  21916545.556    21916541.794    21916544.707
        48.000          36.0004
 108580814.218 8  84608438.76547  20662230.187    20662230.286    20662230.194
        52.000          45.0004
 119366889.066 7  93013150.73245  22714759.480    22714759.558    22714759.585
        45.000          31.0004
 17  9 19  0  6  0.0000000  0  9G04G24G27G10G14G21G18G32G08
 118846583.795 7  92607724.21945  22615753.407    22615752.309    22615753.097
        45.000          30.0004
 124143899.116 6  96735505.82144  23623796.944    23623796.930    23623796.340
        41.000          27.0004
 114620016.611 8  89314299.97046  21811461.997    21811461.552    21811461.188
        48.000          37.0004
 109291939.140 8  85162567.79547  20797553.694    20797552.966    20797553.446
        52.000          45.0004
 112413773.994 8  87595142.67546  21391619.133    21391616.447    21391618.393
        49.000          37.0004
 118015974.362 7  91960492.14245  22457685.743    22457683.428    22457685.014
        45.000          33.0004
 115212666.158 8  89776112.83046  21924232.991    21924229.501    21924232.370
        48.000          36.0004
 108544205.224 8  84579912.29247  20655263.879    20655263.642    20655263.899
        53.000          46.0004
 119347988.008 7  92998422.62445  22711163.107    22711162.962    22711162.367
        44.000          31.0004
 17  9 19  0  6 30.0000000  0  9G04G24G27G10G14G21G18G32G08
 118918510.152 7  92663770.69345  22629440.922    22629438.951    22629440.438
        45.000          30.0004
 124175915.282 7  96760453.45444  23629889.912    23629889.785    23629888.685
        42.000          27.0004
 114667222.934 8  89351084.09646  21820444.918    21820444.658    21820444.350
        48.000          37.0004
 109304289.661 8  85172191.57347  20799903.662    20799903.206    20799903.636
        51.000          44.0004
 112350352.658 7  87545723.47046  21379550.246    21379547.946    21379549.289
        46.000          37.0004
 118083293.314 7  92012948.42845  22470496.330    22470493.993    22470495.236
        46.000          32.0004
 115253154.757 8  89807662.38146  21931938.122    21931934.649    21931936.941
        48.000          36.0004
 108508086.695 8  84551767.99847  20648390.883    20648390.532    20648390.800
        53.000          45.0004
 119329644.113 7  92984128.66945  22707671.795    22707672.064    22707671.590
        43.000          31.0004
 17  9 19  0  7  0.0000000  0  9G04G24G27G10G14G21G18G32G08
 118990737.259 7  92720051.53445  22643184.847    22643183.802    22643184.529
        45.000          30.0004
 124208468.940 6  96785819.93844  23636084.975    23636084.358    23636083.632
        41.000          28.0004
 114714912.159 7  89388244.50846  21829519.575    21829519.619    21829519.290
        47.000          37.0004
 109316814.277 8  85181951.00547  20802287.196    20802286.887    20802287.136
        53.000          45.0004
 112287342.649 7  87496624.78946  21367559.922    21367557.569    21367558.969
        47.000          37.0004
 118150948.075 7  92065666.38945  22483370.691    22483368.219    22483369.496
        45.000          32.0004
 115293732.877 7  89839281.68445  21939659.596    21939656.373    21939658.461
        47.000          35.0004
 108472459.022 8  84524006.18747  20641611.345    20641610.809    20641611.161
        53.000          46.0004
 119311858.070 7  92970269.42045  22704287.168    22704287.765    22704286.775
        44.000          31.0004
 17  9 19  0  7 30.0000000  0  9G04G24G27G10G14G21G18G32G08
 119063262.457 7  92776564.63445  22656986.368    22656985.266    22656985.430
        45.000          30.0004
 124241559.674 6  96811604.92944  23642380.945    23642381.089    23642381.146
        40.000          27.0004
 114763082.087 7  89425779.49846  21838685.807    21838685.931    21838685.305
        47.000          37.0004
 109329512.801 8  85191845.95047  20804704.054    20804703.369    20804703.688
        53.000          45.0004
 112224744.776 7  87447847.24646  21355647.809    21355645.305    21355647.063
        47.000          37.0004
 118218938.281 7  92118645.72645  22496308.747    22496306.373    22496307.892
        44.000          32.0004
 115334401.064 7  89870971.15946  21947398.645    21947395.428    21947397.690
        47.000          36.0004
 108437322.421 8  84496627.02347  20634924.928    20634924.626    20634924.873
        52.000          46.0004
 119294630.009 7  92956844.95245  22701009.064    22701009.046    22701008.654
        43.000          31.0004
 17  9 19  0  8  0.0000000  0  9G04G24G27G10G14G21G18G32G08
 119136082.591 7  92833307.56545  22670844.225    22670842.216    22670842.764
        43.000          30.0004
 124275186.156 7  96837807.38144  23648779.899    23648780.016    23648780.040
        42.000          28.0004
 114811730.147 7  89463687.05646  21847943.197    21847943.692    21847942.781
        47.000          37.0004
 109342384.673 8  85201875.97247  20807153.233    20807152.738    20807153.037
        52.000          45.0004
 112162560.328 7  87399391.84946  21343814.800    21343812.241    21343813.863
        46.000          37.0004
 118287262.482 7  92171885.31945  22509310.357    22509307.585    22509309.040
        45.000          32.0004
 115375158.922 7  89902730.51046  21955154.677    21955151.335    21955153.888
        46.000          36.0004
 108402676.841 8  84469630.48047  20628331.852    20628331.663    20628331.785
        52.000          46.0004
 119277959.747 7  92943855.12945  22697837.205    22697836.892    22697836.831
        44.000          31.0004
 17  9 19  0  8 30.0000000  0  9G04G24G27G10G14G21G18G32G08
 119209195.379 7  92890278.54445  22684756.317    22684754.858    22684755.389
        44.000          30.0004
 124309348.487 6  96864427.37044  23655279.559    23655281.294    23655280.069
        39.000          27.0004
 114860854.716 7  89501965.91846  21857291.695    21857291.547    21857290.856
        46.000          37.0004
 109355430.365 8  85212041.44947  20809635.887    20809635.085    20809635.492
        53.000          44.0004
 112100790.551 8  87351259.57746  21332060.562    21332057.596    21332059.643
        48.000          37.0004
 118355920.484 7  92225385.03345  22522375.952    22522372.874    22522374.740
        46.000          32.0004
 115416007.122 8  89934560.26745  21962927.752    21962924.232    21962927.062
        49.000          35.0004
 108368523.098 8  84443017.18147  20621832.648    20621832.357    20621832.521
        52.000          46.0004
 119261848.217 7  92931300.68645  22694770.765    22694770.842    22694770.952
        45.000          31.0004
 17  9 19  0  9  0.0000000  0  9G04G24G27G10G14G21G18G32G08
 119282597.920 7  92947475.29345  22698724.344    22698723.268    22698723.490
        42.000          30.0004
 124344045.899 6  96891464.32744  23661883.283    23661883.799    23661882.629
        41.000          27.0004
 114910453.494 7  89540614.28846  21866729.794    21866730.049    21866729.306
        47.000          37.0004
 109368649.675 8  85222342.20547  20812151.438    20812150.798    20812151.354
        51.000          45.0004
 112039436.558 7  87303451.29446  21320384.988    21320382.453    21320384.306
        46.000          37.0004
 118424911.856 7  92279144.50645  22535504.308    22535501.598    22535503.205
        45.000          32.0004
 115456946.186 7  89966460.82045  21970718.226    21970714.809    21970717.380
        47.000          35.0004
 108334861.360 8  84416787.26447  20615427.144    20615426.703    20615426.958
        53.000          45.0004
 119246295.378 7  92919181.58445  22691811.145    22691811.273    22691810.971
        45.000          31.0004
 17  9 19  0  9 30.0000000  0  9G04G24G27G10G14G21G18G32G08
 119356287.060 7  93004895.35945  22712747.297    22712745.566    22712746.365
        45.000          30.0004
 124379276.723 7  96918916.91644  23668588.100    23668587.369    23668587.679
        44.000          27.0004
 114960523.667 7  89579629.99346  21876258.029    21876257.888    21876257.523
        47.000          37.0004
 109382041.918 8  85232777.71647  20814700.052    20814699.230    20814699.935
        52.000          44.0004
 111978498.948 8  87255967.46246  21308788.994    21308786.443    21308788.141
        48.000          38.0004
 118494235.094 7  92333162.57645  22548696.051    22548693.445    22548694.745
        44.000          32.0004
 115497975.553 8  89998431.74345  21978525.872    21978522.335    21978525.000
        48.000          35.0004
 108301691.301 8  84390940.47647  20609114.792    20609114.556    20609114.786
        52.000          46.0004
 119231301.040 7  92907497.68145  22688958.004    22688957.860    22688957.360
        43.000          31.0004
 17  9 19  0 10  0.0000000  0  9G04G24G27G10G14G21G18G32G08
 119430259.531 7  93062536.21445  22726823.753    22726822.052    22726823.244
        43.000          30.0004
 124415040.647 7  96946784.90644  23675393.865    23675393.071    23675393.419
        43.000          28.0004
 115011062.810 8  89619011.12246  21885875.558    21885875.201    21885875.259
        48.000          37.0004
 109395606.731 8  85243347.70047  20817281.343    20817280.458    20817280.961
        52.000          45.0004
 111917978.389 8  87208808.61446  21297271.974    21297269.723    21297271.177
        48.000          38.0004
 118563889.760 7  92387438.90245  22561951.229    22561948.172    22561949.741
        45.000          31.0004
 115539095.443 8  90030473.21445  21986350.729    21986346.956    21986349.825
        49.000          35.0004
 108269012.922 8  84365476.81747  20602896.450    20602896.150    20602896.323
        52.000          46.0004
 119216865.337 7  92896249.08645  22686210.175    22686211.127    22686209.907
        43.000          31.0004
 17  9 19  0 10 30.0000000  0  9G04G24G27G10G14G21G18G32G08
 119504513.285 7  93120396.23845  22740953.995    22740951.592    22740953.061
        44.000          30.0004
 124451337.489 7  96975068.14544  23682300.656    23682300.613    23682300.381
        43.000          28.0004
 115062069.289 7  89658756.40946  21895581.846    21895581.666    21895581.391
        47.000          37.0004
 109409344.718 8  85254052.62547  20819895.438    20819894.630    20819895.150
        53.000          44.0004
 111857876.637 7  87161976.10146  21285835.170    21285832.742    21285834.272
        47.000          38.0004
 118633875.174 7  92441972.95345  22575268.181    22575265.968    22575267.727
        45.000          31.0004
 115580306.412 8  90062585.65445  21994192.991    21994189.304    21994191.936
        48.000          35.0004
 108236827.079 9  84340396.95247  20596771.645    20596771.435    20596771.633
        54.000          46.0004
 119202988.633 7  92885436.05845  22683570.147    22683570.776    22683569.349
        44.000          31.0004
 17  9 19  0 11  0.0000000  0  9G04G24G27G10G14G21G18G32G08
 119579045.324 7  93178473.11244  22755137.281    22755134.707    22755136.188
        44.000          29.0004
 124488165.838 7  97003765.54744  23689309.485    23689309.176    23689308.880
        44.000          28.0004
 115113540.507 7  89698863.82646  21905376.104    21905375.993    21905375.595
        47.000          37.0004
 109423255.463 8  85264892.16147  20822542.294    20822541.775    20822542.323
        52.000          44.0004
 111798194.653 8  87115470.68546  21274478.168    21274475.724    21274477.441
        49.000          38.0004
 118704190.631 7  92496764.18245  22588649.279    22588646.482    22588648.085
        44.000          31.0004
 115621608.446 8  90094769.03745  22002052.611    22002048.851    22002051.450
        49.000          35.0004
 108205133.637 8  84315700.77747  20590740.570    20590740.315    20590740.548
        52.000          46.0004
 119189671.160 7  92875058.78645  22681035.580    22681036.526    22681035.126
        43.000          31.0004
 17  9 19  0 11 30.0000000  0  9G04G24G27G10G14G21G18G32G08
 119653852.256 7  93236764.19644  22769372.255    22769369.890    22769371.643
        44.000          29.0004
 124525524.881 7  97032876.48544  23696418.071    23696418.428    23696417.717
        42.000          27.0004
 115165473.813 7  89739331.32146  21915258.672    21915258.472    21915258.365
        45.000          36.0004
 109437338.472 8  85275865.93347  20825222.489    20825221.740    20825222.003
        53.000          44.0004
 111738932.857 8  87069292.67646  21263200.895    21263198.390    21263200.234
        48.000          38.0004
 118774835.134 7  92551811.81445  22602092.668    22602089.852    22602091.479
        44.000          30.0004
 115663001.613 8  90127023.44945  22009929.373    22009925.514    22009928.398
        48.000          35.0004
 108173932.390 8  84291388.12847  20584803.464    20584803.004    20584803.197
        53.000          46.0004
 119176912.286 7  92865116.80045  22678607.162    22678608.188    22678606.907
        44.000          30.0004
 17  9 19  0 12  0.0000000  0  9G04G24G27G10G14G21G18G32G08
 119728931.625 7  93295267.56745  22783658.850    22783657.647    22783658.514
        44.000          30.0004
 124563413.461 6  97062400.04244  23703627.252    23703628.045    23703627.182
        40.000          27.0004
 115217867.094 7  89780157.23446  21925228.907    21925228.358    21925228.336
        47.000          36.0004
 109451593.861 8  85286974.02347  20827935.258    20827934.422    20827934.915
        50.000          45.0004
 111680092.568 8  87023443.12246  21252004.264    21252001.366    21252003.534
        48.000          38.0004
 118845807.435 7  92607114.86845  22615597.915    22615595.248    22615597.116
        44.000          30.0004
 115704486.409 7  90159349.24845  22017823.745    22017819.984    22017822.736
        46.000          35.0004
 108143223.674 8  84267459.27047  20578959.859    20578959.297    20578959.640
        53.000          46.0004
 119164712.998 7  92855610.84245  22676286.048    22676286.830    22676285.572
        43.000          31.0004
 17  9 19  0 12 30.0000000  0  9G04G24G27G10G14G21G18G32G08
 119804280.489 7  93353980.92244  22797997.292    22797995.999    22797996.515
        42.000          29.0004
 124601831.483 7  97092336.15744  23710939.066    23710938.777    23710937.911
        42.000          26.0004
 115270717.927 7  89821339.67146  21935285.848    21935285.581    21935285.440
        46.000          36.0004
 109466021.471 8  85298216.31247  20830680.482    20830679.935    20830680.318
        51.000          44.0004
 111621675.170 8  86977923.09746  21240887.840    21240884.805    21240887.006
        48.000          38.0004
 118917107.270 7  92662673.15044  22629165.738    22629163.322    22629164.520
        45.000          29.0004
 115746062.711 7  90191746.35846  22025735.121    22025732.192    22025734.410
        47.000          36.0004
 108113007.532 8  84243914.23747  20573209.552    20573209.480    20573209.626
        53.000          46.0004
 119153072.621 7  92846540.42245  22674070.904    22674071.715    22674070.563
        43.000          31.0004
 17  9 19  0 13  0.0000000  0 10G04G24G27G31G10G14G21G18G32G08
 119879896.360 7  93412902.33744  22812386.349    22812385.189    22812385.813
        42.000          29.0004
 124640777.668 7  97122683.84044  23718350.131    23718349.913    23718349.419
        43.000          27.0004
 115324024.272 7  89862877.06346  21945429.722    21945429.769    21945429.272
        46.000          36.0004
 131185766.768 6 102222664.03542  24963816.741    24963817.581    24963818.345
        38.000          14.0004
 109480621.579 8  85309593.01947  20833459.141    20833458.448    20833458.901
        49.000          44.0004
 111563681.263 8  86932733.04946  21229851.726    21229848.997    21229850.843
        48.000          38.0004
 118988734.036 7  92718486.15945  22642796.614    22642793.317    22642795.383
        45.000          30.0004
 115787731.092 7  90224215.21045  22033664.433    22033661.630    22033663.858
        47.000          35.0004
 108083284.406 8  84220753.36547  20567553.386    20567553.316    20567553.397
        50.000          46.0004
 119141991.629 7  92837905.87345  22671962.680    22671963.071    22671962.023
        45.000          31.0004
 17  9 19  0 13 30.0000000  0 10G04G24G27G31G10G14G21G18G32G08
 119955777.022 7  93472030.09044  22826826.344    22826825.433    22826825.502
        43.000          29.0004
 124680252.020 6  97153443.08644  23725860.443    23725861.572    23725861.116
        41.000          26.0004
 115377784.455 7  89904768.08046  21955660.075    21955660.014    21955659.307
        46.000          36.0004
 131082206.572 6 102141967.95542  24944110.077    24944111.087    24944111.224
        38.000          14.0004
 109495394.711 8  85321104.55347  20836270.166    20836269.711    20836269.960
        52.000          44.0004
 111506112.797 8  86887874.52746  21218896.833    21218893.962    21218896.127
        48.000          38.0004
 119060687.639 7  92774553.85844  22656488.853    22656485.685    22656487.522
        45.000          29.0004
 115829492.902 8  90256756.86845  22041611.991    22041608.223    22041610.835
        48.000          35.0004
 108054054.998 8  84197977.21047  20561991.303    20561991.040    20561991.242
        52.000          46.0004
 119131470.876 7  92829707.86945  22669960.496    22669960.827    22669960.116
        44.000          30.0004
 17  9 19  0 14  0.0000000  0 10G04G24G27G31G10G14G21G18G32G08
 120031918.077 6  93531360.73344  22841315.622    22841314.179    22841314.763
        41.000          29.0004
 124720252.162 6  97184612.01744  23733471.996    23733473.514    23733472.824
        40.000          26.0004
 115431994.540 7  89947009.68246  21965976.138    21965976.554    21965975.321
        47.000          36.0004
 130978504.076 6 102061161.02342  24924377.033    24924377.165    24924376.900
        38.000          15.0004
 109510339.279 8  85332749.67347  20839114.097    20839113.301    20839113.779
        52.000          45.0004
 111448969.142 8  86843347.02246  21208022.538    21208019.778    21208021.788
        48.000          38.0004
 119132965.876 7  92830874.52445  22670242.455    22670239.719    22670241.423
        43.000          30.0004
 115871346.520 7  90289370.07145  22049576.246    22049572.469    22049575.100
        47.000          35.0004
 108025317.877 8  84175584.65447  20556522.861    20556522.450    20556522.768
        52.000          46.0004
 119121508.911 7  92821945.29445  22668065.068    22668065.279    22668064.581
        44.000          31.0004
 17  9 19  0 14 30.0000000  0 10G04G24G27G31G10G14G21G18G32G08
 120108316.442 7  93590891.89044  22855853.813    22855852.639    22855852.700
        43.000          29.0004
 124760776.727 6  97216189.57344  23741184.092    23741184.619    23741184.111
        40.000          26.0004
 115486651.739 7  89989599.68146  21976376.833    21976377.445    21976376.104
        47.000          36.0004
 130874661.508 6 101980244.92742  24904615.618    24904615.669    24904616.616
        37.000          15.0004
 109525454.861 8  85344528.04547  20841990.099    20841989.727    20841990.088
        51.000          44.0004
 111392250.636 7  86799150.80146  21197229.893    21197226.901    21197228.901
        46.000          39.0004
 119205567.222 7  92887446.96045  22684058.773    22684055.225    22684057.424
        45.000          30.0004
 115913291.851 8  90322054.72445  22057558.095    22057554.600    22057556.859
        48.000          35.0004
 107997072.679 9  84153575.41447  20551147.766    20551147.295    20551147.811
        54.000          46.0004
 119112105.035 7  92814617.58645  22666275.347    22666275.706    22666274.842
        43.000          31.0004
 17  9 19  0 15  0.0000000  0 10G04G24G27G31G10G14G21G18G32G08
 120184969.878 7  93650621.80044  22870440.594    22870439.486    22870439.893
        43.000          29.0004
 124801825.494 7  97248175.61544  23748996.234    23748996.539    23748995.345
        42.000          26.0004
 115541754.346 7  90032536.74846  21986862.813    21986863.007    21986862.072
        46.000          36.0004
 130770682.582 6 101899222.59142  24884829.446    24884828.921    24884829.415
        38.000          16.0004
 109540742.095 8  85356440.17347  20844899.561    20844898.964    20844899.059
        52.000          44.0004
 111335959.235 8  86755287.39346  21186517.599    21186514.880    21186516.769
        49.000          38.0004
 119278491.483 7  92944271.01545  22697935.344    22697932.343    22697934.095
        44.000          30.0004
 115955329.838 7  90354811.57045  22065557.597    22065553.943    22065556.430
        47.000          34.0004
 107969320.136 8  84131950.06047  20545866.802    20545866.278    20545866.756
        53.000          46.0004
 119103259.674 7  92807725.08545  22664591.869    22664592.153    22664591.476
        43.000          30.0004
 17  9 19  0 15 30.0000000  0 10G04G24G27G31G10G14G21G18G32G08
 120261874.597 7  93710547.51344  22885075.201    22885074.195    22885074.641
        44.000          29.0004
 124843396.535 6  97280568.63644  23756906.961    23756907.242    23756906.598
        41.000          26.0004
 115597299.100 7  90075818.34746  21997432.787    21997432.710    21997432.308
        46.000          36.0004
 130666569.097 6 101818095.36142  24865016.774    24865017.265    24865016.833
        38.000          16.0004
 109556200.070 8  85368485.35247  20847840.826    20847840.675    20847840.542
        51.000          44.0004
 111280094.878 8  86711756.74146  21175887.123    21175884.391    21175886.323
        49.000          39.0004
 119351737.332 7  93001345.66345  22711873.646    22711870.951    22711872.159
        44.000          30.0004
 115997460.160 7  90387640.38845  22073575.135    22073571.036    22073573.895
        47.000          34.0004
 107942059.437 8  84110707.95947  20540679.423    20540678.655    20540679.239
        53.000          46.0004
 119094972.318 7  92801267.39245  22663015.184    22663015.295    22663014.425
        43.000          30.0004
 17  9 19  0 16  0.0000000  0 10G04G24G27G31G10G14G21G18G32G08
 120339028.339 7  93770667.26844  22899757.585    22899755.733    22899756.947
        44.000          29.0004
 124885489.418 7  97313368.28244  23764916.274    23764917.795    23764916.272
        42.000          26.0004
 115653283.987 7  90119442.90246  22008086.444    22008086.287    22008085.756
        46.000          36.0004
 130562323.719 6 101736865.34542  24845180.547    24845180.353    24845180.541
        39.000          17.0004
 109571829.146 8  85380663.85147  20850815.118    20850814.749    20850814.758
        52.000          44.0004
 111224658.836 8  86668559.84446  21165337.992    21165335.127    21165337.102
        48.000          39.0004
 119425304.304 7  93058670.53045  22725873.311    22725870.495    22725872.066
        44.000          30.0004
 116039683.311 8  90420541.54145  22081609.307    22081606.095    22081608.418
        48.000          34.0004
 107915290.964 8  84089849.41347  20535585.535    20535584.900    20535585.435
        53.000          46.0004
 119087243.174 7  92795244.67245  22661544.839    22661545.016    22661544.015
        44.000          31.0004
 17  9 19  0 16 30.0000000  0 10G04G24G27G31G10G14G21G18G32G08
 120416428.151 7  93830978.76944  22914485.739    22914484.562    22914485.350
        44.000          29.0004
 124928103.280 6  97346573.89144  23773026.110    23773026.695    23773025.346
        41.000          26.0004
 115709706.437 7  90163408.41646  22018823.002    22018823.117    22018822.834
        46.000          36.0004
 130457949.276 6 101655534.74543  24825319.909    24825318.219    24825318.579
        40.000          18.0004
 109587629.212 8  85392975.58447  20853821.805    20853821.175    20853821.612
        52.000          44.0004
 111169651.960 8  86625697.36346  21154870.246    21154867.691    21154869.571
        49.000          39.0004
 119499191.004 7  93116244.53945  22739933.357    22739930.342    22739932.362
        45.000          30.0004
 116081999.744 8  90453515.37045  22089662.231    22089658.786    22089661.431
        48.000          34.0004
 107889014.596 9  84069374.33447  20530585.263    20530584.685    20530585.135
        54.000          47.0004
 119080071.874 7  92789656.64645  22660179.899    22660179.997    22660179.164
        44.000          31.0004
 17  9 19  0 17  0.0000000  0 11G04G24G27G11G31G10G14G21G18G32G08
 120494070.657 7  93891479.38344  22929260.885    22929258.856    22929260.136
        43.000          28.0004
 124971236.278 6  97380184.03044  23781234.191    23781234.601    23781233.668
        41.000          26.0004
 115766563.615 7  90207712.69245  22029642.560    22029642.101    22029642.251
        46.000          35.0004
 130155346.654 6 101419750.47742  24767738.218    24767738.581    24767736.571
        37.000          13.0004
 130353448.052 6 101574105.31743  24805433.454    24805432.083    24805431.749
        39.000          18.0004
 109603599.858 8  85405420.24147  20856861.007    20856860.152    20856860.844
        51.000          44.0004
 111115074.624 8  86583169.58046  21144484.430    21144481.931    21144483.674
        48.000          38.0004
 119573396.537 7  93174066.99844  22754054.558    22754051.604    22754053.330
        45.000          29.0004
 116124409.236 7  90486561.72545  22097732.727    22097728.807    22097732.014
        46.000          34.0004
 107863229.942 9  84049282.41147  20525678.639    20525677.998    20525678.449
        54.000          46.0004
 119073458.305 7  92784503.20345  22658921.543    22658921.641    22658920.822
        44.000          31.0004
 17  9 19  0 17 30.0000000  0 11G04G24G27G11G31G10G14G21G18G32G08
 120571954.051 7  93952167.71644  22944080.762    22944079.929    22944080.232
        43.000          28.0004
 125014888.451 6  97414198.70444  23789540.350    23789541.570    23789540.572
        41.000          26.0004
 115823853.968 7  90252354.49745  22040545.066    22040543.910    22040544.721
        45.000          35.0004
 130048060.919 6 101336151.20642  24747321.768    24747318.837    24747321.668
        36.000          14.0004
 130248823.665 6 101492579.95342  24785522.702    24785522.152    24785521.028
        38.000          16.0004
 109619741.999 8  85417998.52847  20859932.881    20859931.937    20859932.574
        53.000          44.0004
 111060928.608 8  86540977.90546  21134180.863    21134178.222    21134179.873
        48.000          39.0004
 119647920.825 7  93232137.82744  22768235.855    22768233.231    22768234.924
        44.000          29.0004
 116166912.876 8  90519681.43445  22105820.460    22105817.195    22105819.443
        48.000          34.0004
 107837937.835 9  84029574.28847  20520865.513    20520865.020    20520865.590
        54.000          46.0004
 119067402.574 7  92779784.44145  22657769.251    22657768.925    22657768.687
        44.000          31.0004
 17  9 19  0 18  0.0000000  0 11G04G24G27G11G31G10G14G21G18G32G08
 120650075.016 7  94013041.14644  22958946.199    22958945.787    22958945.713
        43.000          27.0004
 125059058.502 7  97448616.90844  23797946.026    23797946.506    23797945.834
        43.000          27.0004
 115881574.690 8  90297331.66046  22051528.990    22051528.167    22051528.517
        48.000          36.0004
 129940954.044 6 101252691.30242  24726940.214    24726937.677    24726939.876
        37.000          14.0004
 130144078.679 6 101410960.59642  24765590.607    24765590.052    24765588.817
        38.000          15.0004
 109636055.261 8  85430710.16247  20863036.786    20863036.513    20863036.322
        51.000          44.0004
 111007214.286 8  86499122.60646  21123958.809    21123956.543    21123958.215
        48.000          38.0004
 119722762.365 7  93290455.86444  22782477.714    22782475.314    22782476.952
        43.000          29.0004
 116209510.927 7  90552874.69845  22113926.461    22113923.635    22113925.702
        47.000          34.0004
 107813137.900 9  84010249.67647  20516146.257    20516145.842    20516146.521
        54.000          47.0004
 119061904.560 7  92775500.26145  22656723.294    22656722.859    22656722.697
        42.000          31.0004
 17  9 19  0 18 30.0000000  0 11G04G24G27G11G31G10G14G21G18G32G08
 120728430.290 7  94074097.15944  22973857.472    22973856.735    22973856.129
        43.000          27.0004
 125103744.389 6  97483437.07744  23806448.604    23806449.583    23806448.749
        41.000          27.0004
 115939722.672 7  90342641.74745  22062593.986    22062593.522    22062593.642
        46.000          35.0004
 129834028.456 6 101169372.66342  24706593.321    24706590.952    24706592.325
        37.000          15.0004
 130039214.915 6 101329248.66842  24745636.258    24745634.385    24745634.820
        37.000          14.0004
 109652539.073 8  85443554.69147  20866173.568    20866173.289    20866173.106
        51.000          44.0004
 110953932.637 8  86457604.44846  21113819.993    21113817.635    21113819.213
        48.000          39.0004
 119797919.898 7  93349020.13944  22796779.884    22796777.015    22796778.891
        43.000          28.0004
 116252202.999 7  90586141.23845  22122050.992    22122047.343    22122050.237
        47.000          34.0004
 107788829.442 8  83991308.03247  20511520.869    20511520.038    20511520.931
        53.000          46.0004
 119056963.323 7  92771649.94845  22655782.310    22655782.583    22655782.038
        43.000          30.0004
 17  9 19  0 19  0.0000000  0 11G04G24G27G11G31G10G14G21G18G32G08
 120807016.735 7  94135333.31744  22988811.721    22988810.978    22988810.944
        43.000          27.0004
 125148945.042 7  97518658.36844  23815050.576    23815050.522    23815049.779
        42.000          26.0004
 115998295.168 7  90388282.62945  22073740.350    22073739.382    22073739.817
        47.000          35.0004
 129727286.237 6 101086196.93342  24686281.037    24686277.937    24686280.027
        37.000          16.0004
 129934234.632 5 101247445.89942  24725658.241    24725656.056    24725655.905
        32.000          14.0004
 109669193.189 8  85456531.91747  20869343.005    20869342.380    20869342.611
        51.000          44.0004
 110901083.274 8  86416423.15046  21103763.196    21103760.452    21103762.338
        49.000          38.0004
 119873392.383 7  93407829.81344  22811142.290    22811139.239    22811141.066
        44.000          28.0004
 116294989.052 7  90619481.00645  22130192.369    22130189.304    22130191.623
        46.000          33.0004
 107765012.095 9  83972749.06847  20506988.518    20506987.685    20506988.524
        54.000          46.0004
 119052578.770 7  92768233.40045  22654948.367    22654948.011    22654947.582
        44.000          30.0004
 17  9 19  0 19 30.0000000  0 11G04G24G27G11G31G10G14G21G18G32G08
 120885830.843 7  94196746.86544  23003810.486    23003808.597    23003809.547
        43.000          27.0004
 125194658.849 7  97554279.51144  23823749.672    23823750.356    23823748.940
        43.000          25.0004
 116057289.178 7  90434251.95745  22084965.966    22084965.817    22084965.641
        45.000          35.0004
 129620730.124 6 101003166.22642  24666003.289    24666001.025    24666002.725
        37.000          16.0004
 129829140.233 5 101165554.31641  24705655.859    24705657.756    24705655.962
        31.000          10.0004
 109686017.099 8  85469641.45247  20872543.995    20872543.717    20872543.853
        52.000          44.0004
 110848666.906 8  86375579.24246  21093788.792    21093785.862    21093788.026
        49.000          39.0004
 119949178.045 6  93466883.53044  22825562.761    22825560.759    22825561.927
        41.000          28.0004
 116337868.960 7  90652893.90145  22138352.363    22138349.077    22138351.162
        45.000          34.0004
 107741685.296 8  83954572.34547  20502549.280    20502548.801    20502549.232
        53.000          46.0004
 119048749.615 7  92765249.62845  22654218.980    22654219.784    22654218.815
        43.000          30.0004
 17  9 19  0 20  0.0000000  0 11G04G24G27G11G31G10G14G21G18G32G08
 120964870.928 7  94258336.50944  23018851.768    23018849.514    23018850.708
        45.000          28.0004
 125240885.882 6  97590300.55444  23832546.699    23832547.242    23832546.399
        41.000          25.0004
 116116703.153 7  90480548.53945  22096272.156    22096272.095    22096271.196
        46.000          35.0004
 129514363.399 6 100920283.07742  24645761.136    24645759.159    24645762.086
        36.000          16.0004
 129723935.659 5 101083576.90741  24685638.245    24685639.768    24685637.204
        34.000           7.0004
 109703011.863 8  85482884.12047  20875778.054    20875777.858    20875778.021
        51.000          45.0004
 110796685.195 7  86335074.03246  21083897.076    21083893.902    21083896.280
        47.000          39.0004
 120025277.318 7  93526181.62744  22840044.426    22840041.932    22840043.122
        43.000          28.0004
 116380844.123 8  90686381.03145  22146530.174    22146527.006    22146529.537
        48.000          34.0004
 107718849.852 8  83936778.50447  20498203.451    20498203.317    20498203.446
        51.000          46.0004
 119045476.539 7  92762699.17345  22653596.752    22653596.714    22653596.120
        43.000          31.0004
 17  9 19  0 20 30.0000000  0 11G04G24G27G11G31G10G14G21G18G32G08
 121044134.402 7  94320100.23644  23033934.485    23033933.294    23033934.147
        43.000          28.0004
 125287625.041 7  97626720.67844  23841441.638    23841441.309    23841441.429
        42.000          25.0004
 116176534.954 7  90527170.70845  22107657.180    22107657.618    22107656.637
        45.000          35.0004
 129408189.577 6 100837550.24842  24625558.286    24625555.575    24625557.556
        36.000          15.0004
 129618624.188 6 101001516.18942  24665600.608    24665599.240    24665600.257
        37.000          12.0004
 109720177.882 8  85496260.23347  20879045.019    20879044.428    20879044.715
        52.000          44.0004
 110745139.461 8  86294908.54546  21074088.196    21074085.237    21074087.400
        49.000          39.0004
 120101689.635 7  93585723.65344  22854585.127    22854582.862    22854583.836
        43.000          27.0004
 116423915.346 7  90719943.01545  22154726.558    22154723.164    22154725.298
        47.000          33.0004
 107696506.043 8  83919367.75247  20493951.880    20493951.386    20493951.691
        53.000          46.0004
 119042759.607 7  92760582.07845  22653079.841    22653080.190    22653079.489
        44.000          31.0004
 17  9 19  0 21  0.0000000  0 11G04G24G27G11G31G10G14G21G18G32G08
 121123617.305 7  94382034.92744  23049059.886    23049058.830    23049059.485
        43.000          28.0004
 125334873.747 7  97663537.84444  23850432.392    23850432.210    23850431.994
        43.000          26.0004
 116236780.763 7  90574115.46745  22119122.183    22119121.839    22119121.552
        46.000          35.0004
 129302210.074 6 100754968.85542  24605391.578    24605388.476    24605390.244
        37.000          16.0004
 129513207.034 6 100919373.04342  24645543.294    24645539.286    24645541.388
        39.000          16.0004
 109737513.963 8  85509768.86347  20882343.640    20882343.365    20882343.540
        51.000          44.0004
 110694029.257 8  86255082.42746  21064362.073    21064358.950    21064361.404
        48.000          39.0004
 120178412.624 7  93645507.75344  22869185.083    22869182.524    22869183.956
        43.000          28.0004
 116467081.730 7  90753579.13245  22162940.785    22162937.411    22162939.815
        47.000          33.0004
 107674652.438 9  83902338.97447  20489793.533    20489792.870    20489793.359
        54.000          46.0004
 119040597.911 7  92758897.63345  22652668.353    22652668.902    22652667.878
        43.000          31.0004
 17  9 19  0 21 30.0000000  0 11G04G24G27G11G31G10G14G21G18G32G08
 121203316.870 6  94444138.45444  23064225.663    23064225.367    23064225.742
        41.000          28.0004
 125382631.240 7  97700751.46244  23859519.187    23859519.964    23859518.864
        42.000          26.0004
 116297438.176 7  90621380.95645  22130665.015    22130664.937    22130664.495
        44.000          35.0004
 129196427.894 6 100672541.19942  24585261.718    24585258.410    24585260.875
        38.000          16.0004
 129407687.643 6 100837150.23342  24625462.356    24625459.902    24625461.912
        40.000          17.0004
 109755020.260 8  85523410.12647  20885675.188    20885674.654    20885674.946
        51.000          44.0004
 110643355.466 8  86215596.37546  21054719.290    21054716.275    21054718.596
        49.000          39.0004
 120255445.626 7  93705533.43044  22883843.883    22883841.523    22883842.791
        44.000          28.0004
 116510343.652 7  90787289.70945  22171173.445    22171169.753    22171172.494
        45.000          33.0004
 107653289.007 8  83885692.14947  20485728.079    20485727.640    20485728.046
        53.000          46.0004
 119038990.654 7  92757645.21445  22652362.809    22652362.818    22652362.022
        44.000          31.0004
 17  9 19  0 22  0.0000000  0 11G04G24G27G11G31G10G14G21G18G32G08
 121283230.590 7  94506408.82444  23079433.106    23079432.602    23079432.280
        43.000          28.0004
 125430896.386 7  97738360.66144  23868704.001    23868704.644    23868703.222
        42.000          26.0004
 116358504.820 7  90668965.32445  22142285.061    22142285.348    22142284.802
        46.000          35.0004
 129090846.096 6 100590269.69842  24565170.329    24565167.316    24565169.907
        39.000          16.0004
 129302068.182 6 100754849.46443  24605362.111    24605361.738    24605362.783
        38.000          21.0004
 109772697.052 8  85537184.24547  20889039.154    20889038.431    20889038.890
        52.000          44.0004
 110593118.878 8  86176450.99846  21045159.753    21045156.629    21045158.990
        48.000          39.0004
 120332787.341 7  93765799.65144  22898561.984    22898559.100    22898560.764
        44.000          28.0004
 116553701.976 7  90821075.41545  22179423.397    22179420.557    22179422.742
        47.000          33.0004
 107632415.750 8  83869427.28647  20481755.817    20481755.652    20481755.826
        53.000          46.0004
 119037937.809 7  92756824.80545  22652162.801    22652162.470    22652161.799
        45.000          31.0004
 17  9 19  0 22 30.0000000  0 11G04G24G27G11G31G10G14G21G18G32G08
 121363354.743 7  94568843.18144  23094679.806    23094679.520    23094679.028
        42.000          28.0004
 125479667.446 7  97776364.07244  23877984.940    23877985.512    23877984.942
        42.000          26.0004
 116419977.340 7  90716865.97545  22153983.290    22153983.274    22153982.832
        46.000          35.0004
 128985466.756 6 100508155.93742  24545116.294    24545114.250    24545116.871
        38.000          17.0004
 129196351.104 6 100672472.62443  24585244.462    24585244.352    24585244.118
        39.000          19.0004
 109790543.660 8  85551090.68547  20892434.914    20892434.717    20892434.828
        52.000          44.0004
 110543319.206 8  86137646.07746  21035683.383    21035680.066    21035682.609
        50.000          40.0004
 120410436.348 7  93826305.33044  22913337.523    22913335.150    22913336.786
        43.000          28.0004
 116597156.162 8  90854935.81445  22187693.161    22187690.104    22187692.419
        48.000          33.0004
 107612031.720 8  83853543.63647  20477876.672    20477876.637    20477876.768
        53.000          47.0004
 119037438.009 7  92756435.33645  22652066.893    22652067.690    22652066.621
        44.000          31.0004
 17  9 19  0 23  0.0000000  0 11G04G24G27G11G31G10G14G21G18G32G08
 121443686.914 6  94631439.63344  23109966.904    23109966.011    23109965.344
        41.000          27.0004
 125528943.574 6  97814761.03944  23887361.360    23887362.663    23887361.981
        39.000          25.0004
 116481853.657 7  90765081.26545  22165757.854    22165757.867    22165757.277
        45.000          35.0004
 128880293.290 6 100426202.60342  24525102.812    24525100.260    24525102.516
        39.000          17.0004
 129090539.996 6 100590022.49443  24565110.999    24565108.775    24565109.898
        41.000          20.0004
 109808560.613 8  85565129.86047  20895863.574    20895863.241    20895863.287
        52.000          44.0004
 110493957.959 8  86099182.78846  21026289.840    21026287.047    21026289.246
        49.000          40.0004
 120488392.157 7  93887050.06044  22928172.794    22928169.759    22928171.403
        43.000          28.0004
 116640707.157 7  90888871.63745  22195981.142    22195977.587    22195980.013
        47.000          33.0004
 107592137.138 8  83838041.37547  20474091.016    20474090.830    20474091.107
        53.000          46.0004
 119037491.463 7  92756476.97945  22652077.077    22652077.903    22652076.875
        44.000          30.0004
 17  9 19  0 23 30.0000000  0 11G04G24G27G11G31G10G14G21G18G32G08
 121524223.945 6  94694195.72144  23125291.992    23125291.531    23125291.589
        41.000          27.0004
 125578722.847 6  97853550.08543  23896834.735    23896835.339    23896833.919
        39.000          23.0004
 116544130.887 7  90813608.93445  22177609.212    22177608.922    22177608.528
        46.000          35.0004
 128775327.825 6 100344411.35142  24505128.896    24505126.024    24505129.034
        38.000          17.0004
 128984637.103 6 100507500.83443  24544956.624    24544956.758    24544956.450
        40.000          20.0004
 109826747.743 8  85579301.64747  20899324.480    20899324.054    20899324.345
        53.000          44.0004
 110445035.414 8  86061061.34346  21016980.592    21016977.121    21016979.489
        48.000          39.0004
 120566653.585 7  93948032.93944  22943065.074    22943062.181    22943063.873
        43.000          28.0004
 116684354.883 8  90922882.83945  22204286.763    22204283.318    22204285.580
        48.000          33.0004
 107572731.516 8  83822920.11747  20470398.410    20470398.079    20470398.464
        53.000          46.0004
 119038097.921 7  92756949.52945  22652192.222    22652193.127    22652191.772
        44.000          30.0004
 17  9 19  0 24  0.0000000  0 11G04G24G27G11G31G10G14G21G18G32G08
 121604962.974 6  94757109.20844  23140656.416    23140655.390    23140655.567
        41.000          27.0004
 125629004.511 6  97892730.59343  23906402.675    23906404.172    23906402.078
        41.000          23.0004
 116606806.265 7  90862446.86645  22189535.864    22189535.312    22189535.100
        45.000          35.0004
 128670573.521 6 100262784.65043  24485194.675    24485192.446    24485194.613
        39.000          18.0004
 128878645.221 6 100424909.82543  24524786.491    24524787.267    24524786.185
        40.000          19.0004
 109845104.976 8  85593605.97847  20902817.669    20902817.411    20902817.549
        50.000          44.0004
 110396552.254 8  86023282.27746  21007754.241    21007751.176    21007753.430
        50.000          39.0004
 120645219.325 7  94009252.94444  22958015.126    22958013.226    22958014.359
        43.000          28.0004
 116728099.564 7  90956969.58945  22212610.652    22212607.349    22212609.869
        47.000          33.0004
 107553814.447 8  83808179.55047  20466798.496    20466798.256    20466798.541
        52.000          47.0004
 119039256.193 7  92757852.07745  22652413.278    22652413.688    22652412.341
        45.000          30.0004
 17  9 19  0 24 30.0000000  0 11G04G24G27G11G31G10G14G21G18G32G08
 121685901.062 6  94820177.80944  23156059.383    23156057.370    23156058.143
        41.000          27.0004
 125679786.591 7  97932301.03044  23916067.122    23916067.802    23916066.442
        42.000          24.0004
 116669877.090 7  90911592.93645  22201537.941    22201537.329    22201537.275
        45.000          34.0004
 128566032.869 6 100181324.44243  24465300.204    24465299.029    24465300.635
        38.000          18.0004
 128772567.008 6 100342251.54043  24504600.892    24504601.075    24504600.838
        40.000          20.0004
 109863632.335 8  85608042.88047  20906343.032    20906342.928    20906342.874
        50.000          44.0004
 110348509.096 8  85985846.06946  20998611.901    20998608.784    20998611.091
        48.000          40.0004
 120724088.345 7  94070709.27544  22973023.793    22973021.755    22973022.784
        43.000          28.0004
 116771941.767 7  90991132.33845  22220954.212    22220950.058    22220953.026
        46.000          33.0004
 107535385.610 8  83793819.42647  20463291.480    20463291.408    20463291.678
        53.000          47.0004
 119040966.000 7  92759184.37645  22652738.161    22652738.890    22652738.189
        45.000          30.0004
 17  9 19  0 25  0.0000000  0 11G04G24G27G11G31G10G14G21G18G32G08
 121767035.286 7  94883399.25444  23171497.820    23171496.906    23171497.283
        42.000          26.0004
 125731068.233 7  97972260.76344  23925825.565    23925825.619    23925824.567
        42.000          25.0004
 116733340.810 7  90961045.15845  22213614.909    22213614.257    22213614.144
        46.000          35.0004
 128461708.667 6 100100032.88443  24445448.741    24445446.692    24445447.481
        38.000          18.0004
 128666405.445 6 100259528.29843  24484399.409    24484398.222    24484399.154
        41.000          20.0004
 109882329.953 8  85622612.44947  20909901.492    20909900.894    20909901.327
        52.000          44.0004
 110300906.379 8  85948753.05946  20989553.532    20989550.430    20989552.743
        49.000          40.0004
 120803259.644 7  94132401.14744  22988089.929    22988087.436    22988088.765
        43.000          28.0004
 116815881.725 7  91025371.25045  22229315.093    22229312.066    22229314.362
        46.000          33.0004
 107517444.684 8  83779839.49447  20459877.531    20459877.441    20459877.585
        52.000          47.0004
 119043226.668 7  92760945.92845  22653168.651    22653169.018    22653168.417
        44.000          31.0004
 17  9 19  0 25 30.0000000  0 11G04G24G27G11G31G10G14G21G18G32G08
 121848362.421 7  94946771.01044  23186973.907    23186972.872    23186973.356
        42.000          26.0004
 125782847.412 6  98012608.16544  23935677.961    23935678.361    23935678.439
        41.000          25.0004
 116797194.156 7  91010800.99245  22225765.494    22225765.232    22225765.208
        46.000          34.0004
 128357603.545 6 100018912.04943  24425638.341    24425636.132    24425637.130
        38.000          18.0004
 128560162.732 6 100176741.86243  24464182.410    24464181.164    24464181.418
        41.000          19.0004
 109901197.388 8  85637314.33947  20913491.979    20913491.213    20913491.575
        51.000          44.0004
 110253744.119 8  85912003.26446  20980578.770    20980575.599    20980577.897
        49.000          40.0004
 120882731.796 7  94194327.44644  23003212.442    23003210.338    23003211.848
        43.000          28.0004
 116859919.426 7  91059686.32145  22237695.402    22237692.266    22237694.457
        46.000          33.0004
 107499990.864 8  83766239.12147  20456555.966    20456556.041    20456556.156
        53.000          47.0004
 119046037.131 7  92763135.87445  22653703.951    22653703.829    22653703.158
        44.000          30.0004
 17  9 19  0 26  0.0000000  0 11G04G24G27G11G31G10G14G21G18G32G08
 121929880.283 6  95010291.36644  23202485.846    23202484.722    23202485.324
        40.000          26.0004
 125835123.010 7  98053342.37644  23945626.770    23945626.117    23945626.336
        43.000          26.0004
 116861435.184 7  91060858.91145  22237990.178    22237989.762    22237989.722
        46.000          34.0004
 128253720.473 6  99937964.23343  24405869.124    24405867.051    24405869.006
        38.000          18.0004
 128453842.422 6 100093894.97243  24443948.851    24443948.891    24443949.585
        39.000          19.0004
 109920235.416 8  85652149.16247  20917114.472    20917114.040    20917114.277
        51.000          44.0004
 110207023.897 8  85875597.91246  20971688.042    20971685.195    20971687.288
        49.000          40.0004
 120962504.106 7  94256487.65444  23018392.700    23018390.574    23018392.075
        42.000          27.0004
 116904055.904 7  91094078.37645  22246094.274    22246090.902    22246093.399
        47.000          32.0004
 107483024.469 8  83753018.56047  20453327.533    20453327.410    20453327.494
        53.000          46.0004
 119049397.347 7  92765754.21845  22654342.387    22654343.199    22654342.367
        45.000          30.0004
 17  9 19  0 26 30.0000000  0 11G04G24G27G11G31G10G14G21G18G32G08
 122011585.006 7  95073957.35344  23218034.823    23218032.824    23218033.710
        43.000          26.0004
 125887892.901 7  98094461.77044  23955669.585    23955668.524    23955668.551
        44.000          26.0004
 116926060.329 7  91111216.14445  22250288.299    22250287.888    22250287.649
        47.000          34.0004
 128150061.796 6  99857191.25443  24386144.112    24386141.590    24386143.687
        38.000          19.0004
 128347446.647 6 100010989.33643  24423701.083    24423703.057    24423702.420
        37.000          18.0004
 109939443.230 8  85667116.29447  20920769.954    20920769.230    20920769.624
        52.000          44.0004
 110160745.409 8  85839536.76746  20962881.610    20962878.720    20962880.872
        49.000          40.0004
 121042574.401 7  94318880.03744  23033629.846    23033627.576    23033628.857
        42.000          26.0004
 116948290.829 7  91128547.14545  22254511.503    22254508.603    22254510.640
        46.000          32.0004
 107466544.273 9  83740176.86047  20450191.316    20450191.329    20450191.481
        54.000          47.0004
 119053306.521 7  92768800.31345  22655086.503    22655086.808    22655085.816
        43.000          30.0004
 17  9 19  0 27  0.0000000  0 11G04G24G27G11G31G10G14G21G18G32G08
 122093474.352 7  95137767.19544  23233617.881    23233616.381    23233616.751
        42.000          26.0004
 125941156.727 6  98135966.03844  23965805.026    23965804.787    23965804.517
        41.000          26.0004
 116991067.538 7  91161871.08245  22262658.379    22262658.526    22262657.605
        44.000          34.0004
 128046631.166 6  99776595.99243  24366461.485    24366459.420    24366461.008
        38.000          18.0004
 128240978.968 5  99928027.64742  24403441.916    24403442.567    24403441.644
        35.000          16.0004
 109958821.580 8  85682216.31147  20924457.549    20924456.772    20924457.324
        52.000          44.0004
 110114909.584 8  85803820.55246  20954159.311    20954156.548    20954158.572
        49.000          40.0004
 121122942.254 7  94381504.29044  23048922.661    23048920.933    23048922.342
        42.000          26.0004
 116992625.133 7  91163093.33745  22262948.783    22262945.370    22262947.545
        47.000          33.0004
 107450550.519 9  83727714.19947  20447148.117    20447147.784    20447148.064
        54.000          47.0004
 119057763.918 7  92772273.60145  22655933.713    22655935.250    22655933.639
        42.000          30.0004
 17  9 19  0 27 30.0000000  0 11G04G24G27G11G31G10G14G21G18G32G08
 122175545.069 7  95201718.36644  23249235.961    23249233.959    23249234.941
        44.000          26.0004
 125994912.357 6  98177853.54344  23976033.149    23976035.025    23976032.493
        41.000          25.0004
 117056453.574 7  91212821.21845  22275100.343    22275101.397    22275099.964
        45.000          33.0004
 127943430.921 6  99696180.23743  24346824.031    24346821.530    24346822.582
        39.000          18.0004
 128134441.717 5  99845011.73042  24383168.036    24383169.270    24383167.080
        35.000          15.0004
 109978370.113 8  85697448.93047  20928177.282    20928176.739    20928177.118
        52.000          44.0004
 110069516.419 8  85768449.27146  20945521.395    20945518.393    20945520.520
        49.000          40.0004
 121203606.334 7  94444359.37644  23064272.471    23064270.865    23064271.776
        42.000          25.0004
 117037058.757 7  91197716.92045  22271404.284    22271400.811    22271403.163
        47.000          33.0004
 107435042.327 8  83715629.90247  20444197.161    20444196.647    20444197.015
        53.000          47.0004
 119062768.735 7  92776173.44844  22656886.977    22656887.959    22656886.122
        43.000          29.0004
 17  9 19  0 28  0.0000000  0 11G04G24G27G11G31G10G14G21G18G32G08
 122257793.970 7  95265808.40144  23264886.821    23264885.391    23264885.853
        42.000          26.0004
 126049158.111 6  98220122.94944  23986355.036    23986357.443    23986355.070
        40.000          25.0004
 117122215.603 7  91264064.31545  22287615.198    22287614.950    22287614.413
        46.000          33.0004
 127840463.397 6  99615945.82743  24327229.000    24327227.698    24327228.402
        39.000          19.0004
 128027837.748 5  99761943.83342  24362879.473    24362882.267    24362880.239
        33.000          14.0004
 109998088.745 8  85712814.10047  20931929.478    20931929.135    20931929.277
        52.000          44.0004
 110024566.521 8  85733423.38946  20936967.712    20936964.658    20936966.778
        48.000          40.0004
 121284565.704 6  94507444.54144  23079679.218    23079677.239    23079677.908
        40.000          25.0004
 117081591.852 7  91232418.02245  22279878.605    22279875.036    22279877.416
        46.000          33.0004
 107420019.122 8  83703923.51947  20441338.207    20441337.706    20441338.284
        53.000          47.0004
 119068319.697 7  92780498.85845  22657944.206    22657944.426    22657943.153
        43.000          30.0004
 17  9 19  0 28 30.0000000  0 11G04G24G27G11G31G10G14G21G18G32G08
 122340218.546 7  95330035.31044  23280571.523    23280570.738    23280570.600
        42.000          26.0004
 126103893.069 6  98262773.54644  23996770.910    23996772.249    23996770.709
        40.000          24.0004
 117188351.131 7  91315598.45645  22300200.491    22300200.488    22300199.840
        45.000          33.0004
 127737731.645 6  99535895.18143  24307679.628    24307678.389    24307679.675
        37.000          18.0004
 127921169.724 6  99678826.02942  24342581.548    24342583.698    24342582.147
        36.000          17.0004
 110017977.848 8  85728312.09347  20935714.572    20935713.767    20935714.066
        51.000          43.0004
 109980060.584 8  85698743.45546  20928498.135    20928495.449    20928497.519
        49.000          40.0004
 121365818.662 7  94570758.49244  23095141.095    23095139.432    23095139.783
        42.000          24.0004
 117126224.954 7  91267197.05945  22288372.092    22288368.218    22288371.153
        47.000          32.0004
 107405480.712 8  83692594.89947  20438571.676    20438570.993    20438571.764
        53.000          47.0004
 119074416.966 7  92785249.95845  22659104.137    22659104.615    22659103.649
        44.000          30.0004
 17  9 19  0 29  0.0000000  0 11G04G24G27G11G31G10G14G21G18G32G08
 122422816.066 7  95394396.98144  23296289.153    23296288.230    23296288.751
        42.000          26.0004
 126159114.912 6  98305803.56544  24007279.488    24007279.530    24007278.890
        41.000          24.0004
 117254857.361 7  91367421.45245  22312856.263    22312856.003    22312855.840
        45.000          34.0004
 127635238.972 6  99456030.81343  24288175.898    24288173.872    24288175.815
        38.000          19.0004
 127814440.977 6  99595660.86843  24322273.322    24322273.860    24322273.167
        39.000          19.0004
 110038037.528 8  85743943.01047  20939531.352    20939531.266    20939531.391
        52.000          44.0004
 109935999.001 8  85664409.77146  20920113.591    20920110.750    20920112.932
        49.000          40.0004
 121447364.048 6  94634300.30244  23110658.126    23110657.184    23110657.504
        41.000          25.0004
 117170958.779 7  91302054.57245  22296884.759    22296880.941    22296883.838
        46.000          33.0004
 107391426.625 9  83681643.67547  20435897.373    20435896.667    20435897.201
        54.000          47.0004
 119081059.363 7  92790425.84445  22660367.871    22660368.410    22660367.660
        45.000          30.0004
 17  9 19  0 29 30.0000000  0 11G04G24G27G11G31G10G14G21G18G32G08
 122505582.596 6  95458890.35344  23312039.421    23312038.754    23312038.447
        41.000          26.0004
 126214822.538 6  98349212.09243  24017880.374    24017879.967    24017880.515
        41.000          23.0004
 117321730.855 7  91419530.63045  22325582.221    22325581.548    22325581.475
        46.000          34.0004
 127532987.235 6  99376354.16343  24268719.150    24268716.216    24268718.545
        39.000          19.0004
 127707653.800 6  99512450.20143  24301953.698    24301952.398    24301952.429
        40.000          21.0004
 110058267.149 8  85759706.35147  20943381.375    20943381.029    20943381.038
        52.000          44.0004
 109892381.513 8  85630422.13646  20911813.746    20911810.378    20911812.857
        48.000          40.0004
 121529200.320 6  94698068.76944  23126231.184    23126230.042    23126230.375
        40.000          25.0004
 117215792.924 7  91336990.24345  22305415.935    22305412.543    22305414.936
        46.000          32.0004
 107377855.654 9  83671068.90047  20433314.618    20433314.227    20433314.568
        54.000          47.0004
 119088245.575 7  92796025.47245  22661735.332    22661735.838    22661735.068
        43.000          30.0004
 17  9 19  0 30  0.0000000  0 11G04G24G27G11G31G10G14G21G18G32G08
 122588515.334 7  95523513.23344  23327819.837    23327820.357    23327819.623
        42.000          25.0004
 126271013.655 6  98392997.36244  24028573.971    24028573.097    24028573.538
        41.000          24.0004
 117388968.786 7  91471923.79745  22338376.909    22338376.704    22338376.386
        45.000          33.0004
 127430979.099 6  99296867.34143  24249307.142    24249304.944    24249306.892
        39.000          20.0004
 127600810.784 7  99429196.04243  24281622.891    24281621.047    24281620.900
        42.000          22.0004
 110078666.848 8  85775602.22047  20947263.247    20947262.901    20947263.140
        50.000          44.0004
 109849208.396 7  85596780.76446  20903598.054    20903594.875    20903597.180
        47.000          39.0004
 121611326.613 6  94762063.24344  23141859.415    23141858.422    23141858.592
        40.000          25.0004
 117260728.210 7  91372004.73045  22313966.669    22313963.312    22313965.801
        47.000          31.0004
 107364767.303 8  83660870.19147  20430824.116    20430823.461    20430823.995
        53.000          46.0004
 119095974.846 7  92802048.26345  22663206.783    22663206.601    22663206.207
        45.000          30.0004
 17  9 19  0 30 30.0000000  0 11G04G24G27G11G31G10G14G21G18G32G08
 122671611.845 6  95588263.71544  23343632.548    23343632.920    23343632.235
        40.000          25.0004
 126327687.287 6  98437158.62044  24039358.563    24039358.719    24039358.414
        40.000          24.0004
 117456568.645 7  91524598.98045  22351240.766    22351240.698    22351240.085
        44.000          33.0004
 127329217.884 6  99217572.91543  24229942.893    24229940.646    24229942.618
        38.000          19.0004
 127493914.962 7  99345900.72843  24261280.198    24261279.411    24261279.765
        42.000          23.0004
 110099236.964 8  85791630.87847  20951177.541    20951177.114    20951177.295
        53.000          43.0004
 109806480.423 7  85563486.25346  20895467.149    20895463.887    20895466.316
        47.000          40.0004
 121693741.598 6  94826282.64844  23157542.428    23157541.511    23157541.728
        41.000          25.0004
 117305764.266 7  91407097.76245  22322537.132    22322533.297    22322535.981
        44.000          31.0004
 107352161.275 8  83651047.32547  20428425.350    20428424.720    20428425.060
        53.000          47.0004
 119104246.524 7  92808493.71245  22664781.069    22664780.808    22664780.476
        45.000          31.0004
 17  9 19  0 31  0.0000000  0 11G04G24G27G11G31G10G14G21G18G32G08
 122754868.995 6  95653139.36744  23359476.185    23359476.284    23359475.762
        40.000          25.0004
 126384841.111 6  98481694.07543  24050234.186    24050234.932    24050234.221
        39.000          23.0004
 117524527.541 7  91577553.94245  22364172.817    22364172.810    22364172.162
        44.000          33.0004
 127227706.322 6  99138473.03843  24210625.315    24210622.974    24210624.519
        37.000          18.0004
 127386969.488 7  99262566.72444  24240928.935    24240928.083    24240928.547
        42.000          24.0004
 110119977.561 8  85807792.37347  20955124.369    20955123.672    20955124.054
        52.000          43.0004
 109764198.020 8  85530538.94246  20887420.988    20887417.700    20887420.272
        48.000          40.0004
 121776443.965 7  94890725.98444  23173281.185    23173278.713    23173279.866
        43.000          26.0004
 117350902.101 7  91442270.09445  22331126.412    22331123.395    22331125.266
        46.000          31.0004
 107340036.965 8  83641599.82047  20426117.602    20426117.503    20426117.742
        53.000          47.0004
 119113059.597 7  92815361.02945  22666457.294    22666457.931    22666457.201
        43.000          30.0004
 17  9 19  0 31 30.0000000  0 11G04G24G27G11G31G10G14G21G18G32G08
 122838283.491 6  95718137.63844  23375350.521    23375349.480    23375349.564
        41.000          25.0004
 126442474.151 6  98526602.93243  24061201.630    24061201.908    24061200.854
        40.000          23.0004
 117592842.326 7  91630786.20945  22377172.386    22377172.577    22377172.074
        44.000          33.0004
 127126446.965 6  99059569.68043  24191357.015    24191353.852    24191356.138
        39.000          18.0004
 127279976.787 7  99179195.89144  24220568.684    24220568.083    24220569.109
        43.000          24.0004
 110140888.414 8  85824086.54547  20959103.097    20959103.066    20959103.269
        51.000          43.0004
 109722361.168 8  85497938.81746  20879459.880    20879456.667    20879459.112
        49.000          41.0004
 121859432.122 7  94955392.03044  23189073.453    23189071.276    23189072.231
        42.000          26.0004
 117396141.691 7  91477521.69745  22339735.049    22339732.222    22339734.080
        45.000          32.0004
 107328393.481 9  83632526.98547  20423902.063    20423901.911    20423902.292
        54.000          47.0004
 119122412.787 7  92822649.21945  22668237.581    22668237.940    22668236.867
        45.000          30.0004
 17  9 19  0 32  0.0000000  0 11G04G24G27G11G31G10G14G21G18G32G08
 122921852.707 6  95783256.46344  23391252.757    23391251.971    23391252.550
        41.000          25.0004
 126500584.544 6  98571883.72643  24072259.181    24072260.245    24072258.631
        39.000          23.0004
 117661510.341 7  91684293.72145  22390240.008    22390239.455    22390239.445
        46.000          33.0004
 127025442.444 6  98980864.85543  24172136.496    24172133.196    24172135.610
        39.000          18.0004
 127172939.836 7  99095790.57544  24200201.337    24200199.750    24200200.614
        42.000          24.0004
 110161969.806 8  85840513.60047  20963114.797    20963114.811    20963114.646
        51.000          43.0004
 109680970.374 7  85465686.26346  20871583.259    20871580.131    20871582.659
        47.000          40.0004
 121942705.077 7  95020279.99644  23204919.795    23204917.230    23204918.653
        42.000          26.0004
 117441483.175 7  91512852.70245  22348363.901    22348359.811    22348362.763
        47.000          32.0004
 107317230.377 9  83623828.46547  20421778.121    20421777.620    20421778.077
        54.000          47.0004
 119132305.626 7  92830357.90745  22670119.774    22670119.903    22670119.203
        43.000          30.0004
 17  9 19  0 32 30.0000000  0 11G04G24G27G11G31G10G14G21G18G32G08
 123005573.477 7  95848493.38044  23407184.507    23407183.063    23407183.966
        42.000          25.0004
 126559170.060 6  98617534.76244  24083407.804    24083409.266    24083407.490
        40.000          24.0004
 117730528.531 7  91738074.10045  22403373.558    22403373.249    22403373.014
        44.000          33.0004
 126924695.614 6  98902360.84543  24152965.035    24152961.424    24152964.307
        40.000          18.0004
 127065861.607 6  99012353.11743  24179824.922    24179823.073    24179824.478
        41.000          22.0004
 110183221.654 8  85857073.48447  20967159.278    20967158.903    20967158.907
        51.000          43.0004
 109640025.572 8  85433781.24046  20863791.873    20863788.731    20863790.924
        49.000          40.0004
 122026261.073 7  95085388.51244  23220820.073    23220817.217    23220819.137
        42.000          25.0004
 117486927.487 7  91548263.86845  22357011.394    22357007.311    22357010.566
        46.000          31.0004
 107306546.874 9  83615503.66047  20419745.236    20419744.619    20419745.119
        55.000          47.0004
 119142737.016 7  92838486.25744  22672104.692    22672105.043    22672104.584
        44.000          29.0004
 17  9 19  0 33  0.0000000  0 11G04G24G27G11G31G10G14G21G18G32G08
 123089442.693 7  95913845.96144  23423144.464    23423142.807    23423143.806
        42.000          25.0004
 126618229.339 6  98663554.98344  24094647.040    24094647.643    24094646.174
        41.000          24.0004
 117799893.691 7  91792124.84345  22416573.385    22416572.989    22416572.558
        44.000          33.0004
 126824209.335 6  98824059.84343  24133842.653    24133839.933    24133842.780
        38.000          18.0004
 126958744.927 6  98928885.68943  24159439.735    24159439.209    24159440.267
        40.000          21.0004
 110204643.738 8  85873766.00947  20971235.967    20971235.073    20971235.812
        51.000          44.0004
 109599527.032 8  85402223.95146  20856085.107    20856082.150    20856084.190
        48.000          40.0004
 122110098.830 7  95150716.58044  23236774.761    23236771.088    23236773.378
        43.000          25.0004
 117532474.415 7  91583754.97245  22365678.853    22365675.329    22365677.665
        45.000          31.0004
 107296341.939 8  83607551.77147  20417803.112    20417802.741    20417803.080
        53.000          47.0004
 119153705.591 7  92847033.17444  22674192.564    22674192.263    22674191.799
        43.000          29.0004
 17  9 19  0 33 30.0000000  0 11G04G24G27G11G31G10G14G21G18G32G08
 123173457.906 7  95979312.32144  23439132.124    23439130.366    23439131.839
        42.000          25.0004
 126677760.684 6  98709943.04544  24105975.429    24105975.721    24105975.311
        41.000          24.0004
 117869603.602 7  91846444.21545  22429838.931    22429838.552    22429838.400
        45.000          33.0004
 126723986.933 6  98745964.48343  24114770.879    24114768.234    24114770.879
        36.000          18.0004
 126851592.972 6  98845390.77843  24139049.266    24139048.425    24139049.459
        39.000          20.0004
 110226236.781 8  85890591.76347  20975344.696    20975344.373    20975344.504
        51.000          43.0004
 109559475.656 8  85371015.09846  20848463.624    20848460.633    20848462.723
        48.000          41.0004
 122194217.668 7  95216263.67144  23252781.515    23252778.430    23252780.482
        43.000          25.0004
 117578124.978 7  91619326.80445  22374365.873    22374362.880    22374364.935
        46.000          32.0004
 107286615.622 9  83599972.83447  20415952.285    20415951.867    20415952.117
        54.000          47.0004
 119165210.851 7  92855998.29045  22676381.811    22676381.891    22676381.498
        45.000          30.0004
 17  9 19  0 34  0.0000000  0 11G04G24G27G11G31G10G14G21G18G32G08
 123257615.578 7  96044889.69244  23455146.264    23455145.087    23455145.541
        42.000          25.0004
 126737762.276 6  98756697.51843  24117393.035    24117392.678    24117393.092
        41.000          23.0004
 117939654.704 7  91901029.46145  22443169.376    22443168.870    22443168.603
        45.000          33.0004
 126624030.343 6  98668076.29942  24095749.373    24095746.964    24095748.678
        37.000          17.0004
 126744407.945 6  98761870.06843  24118651.538    24118651.562    24118653.087
        38.000          18.0004
 110248000.308 8  85907550.34747  20979486.168    20979485.822    20979486.128
        50.000          44.0004
 109519870.850 8  85340154.21946  20840926.993    20840924.150    20840926.347
        49.000          40.0004
 122278615.298 7  95282027.99544  23268841.806    23268838.773    23268840.746
        42.000          25.0004
 117623878.854 7  91654979.16045  22383072.393    22383069.143    22383071.421
        47.000          32.0004
 107277366.585 8  83592765.80347  20414192.075    20414191.778    20414192.290
        52.000          47.0004
 119177251.294 7  92865380.43245  22678673.201    22678672.955    22678672.704
        44.000          30.0004
 17  9 19  0 34 30.0000000  0 11G04G24G27G11G31G10G14G21G18G32G08
 123341913.665 7  96110576.47344  23471188.213    23471186.867    23471187.042
        42.000          25.0004
 126798232.709 6  98803817.32743  24128899.876    24128899.684    24128899.647
        39.000          23.0004
 118010044.865 7  91955878.89645  22456563.892    22456564.004    22456563.840
        44.000          33.0004
 126524342.557 6  98590397.55542  24076778.305    24076777.306    24076778.944
        36.000          17.0004
 126637193.800 6  98678326.66842  24098250.762    24098249.766    24098251.164
        39.000          16.0004
 110269935.123 8  85924642.40447  20983660.450    20983659.992    20983660.374
        53.000          43.0004
 109480713.575 8  85309642.07346  20833475.466    20833472.649    20833475.027
        49.000          40.0004
 122363291.028 6  95348009.03544  23284954.898    23284952.209    23284954.083
        41.000          25.0004
 117669737.224 7  91690712.94545  22391798.349    22391794.745    22391797.466
        44.000          30.0004
 107268594.869 9  83585930.70847  20412523.177    20412522.594    20412523.079
        54.000          47.0004
 119189826.443 7  92875179.22645  22681065.891    22681066.111    22681065.718
        44.000          30.0004
 17  9 19  0 35  0.0000000  0 11G04G24G27G11G31G10G14G21G18G32G08
 123426348.732 7  96176370.00144  23487255.678    23487254.276    23487255.076
        43.000          25.0004
 126859170.064 6  98851300.97743  24140495.340    24140496.812    24140495.333
        38.000          23.0004
 118080770.831 7  92010990.01545  22470022.666    22470022.433    22470022.313
        45.000          33.0004
 126424926.601 6  98512930.61142  24057860.987    24057858.675    24057860.032
        37.000          17.0004
 126529952.954 6  98594762.44842  24077843.896    24077842.408    24077845.002
        40.000          17.0004
 110292041.078 8  85941867.82247  20987866.891    20987866.656    20987866.508
        51.000          44.0004
 109442003.767 8  85279478.59846  20826109.502    20826106.439    20826108.756
        49.000          40.0004
 122448243.670 6  95414205.84244  23301120.883    23301118.350    23301119.556
        40.000          24.0004
 117715700.107 7  91726528.17545  22400545.392    22400541.238    22400544.168
        46.000          30.0004
 107260299.460 9  83579466.76047  20410944.358    20410944.026    20410944.401
        54.000          47.0004
 119202934.849 7  92885393.55245  22683560.559    22683560.796    22683560.197
        45.000          31.0004
 17  9 19  0 35 30.0000000  0 11G04G24G27G11G31G10G14G21G18G32G08
 123510917.979 6  96242268.07744  23503348.653    23503347.510    23503348.053
        41.000          25.0004
 126920572.911 6  98899147.34343  24152180.139    24152182.209    24152179.462
        37.000          23.0004
 118151829.786 7  92066360.59845  22483545.032    22483545.190    22483544.137
        44.000          33.0004
 126325785.487 6  98435677.83143  24038996.019    24038992.869    24038994.494
        39.000          18.0004
 126422688.608 7  98511179.93943  24057433.336    24057430.856    24057433.071
        42.000          19.0004
 110314318.340 8  85959226.72447  20992106.290    20992105.815    20992105.837
        52.000          44.0004
 109403741.928 8  85249664.19046  20818828.203    20818825.450    20818827.570
        48.000          41.0004
 122533471.802 6  95480617.32644  23317338.550    23317337.081    23317337.760
        41.000          24.0004
 117761768.070 7  91762425.27945  22409312.002    22409308.248    22409311.162
        47.000          31.0004
 107252479.706 9  83573373.45347  20409456.358    20409455.916    20409456.285
        54.000          47.0004
 119216575.914 7  92896022.94045  22686156.826    22686156.690    22686156.262
        44.000          30.0004
 17  9 19  0 36  0.0000000  0 11G04G24G27G11G31G10G14G21G18G32G08
 123595618.363 6  96308268.33744  23519466.601    23519465.752    23519465.893
        41.000          25.0004
 126982438.905 6  98947354.58143  24163951.793    24163954.942    24163951.401
        37.000          22.0004
 118223218.509 7  92121988.14345  22497129.006    22497129.956    22497128.993
        44.000          33.0004
 126226921.710 6  98358641.13743  24020183.742    24020179.755    24020182.310
        39.000          19.0004
 126315403.342 7  98427581.12343  24037017.483    24037014.877    24037017.042
        42.000          20.0004
 110336766.760 8  85976718.99247  20996378.076    20996377.612    20996377.757
        53.000          44.0004
 109365927.835 8  85220198.68046  20811632.735    20811629.574    20811631.801
        49.000          40.0004
 122618973.812 6  95547242.21644  23333609.531    23333607.130    23333608.429
        40.000          24.0004
 117807941.092 7  91798404.23645  22418098.235    22418095.088    22418097.292
        46.000          31.0004
 107245134.546 9  83567649.95947  20408058.660    20408058.267    20408058.641
        54.000          47.0004
 119230747.669 7  92907065.84645  22688853.308    22688853.184    22688852.804
        45.000          30.0004
 17  9 19  0 36 30.0000000  0 11G04G24G27G11G31G10G14G21G18G32G08
 123680446.250 6  96374367.93444  23535608.485    23535608.263    23535607.725
        41.000          25.0004
 127044765.450 6  98995920.68943  24175813.546    24175814.719    24175813.156
        39.000          23.0004
 118294933.679 7  92177870.06545  22510776.349    22510776.500    22510775.961
        44.000          32.0004
 126128337.601 6  98281822.35343  24001423.059    24001420.068    24001422.765
        38.000          19.0004
 126208099.866 6  98343968.11043  24016597.516    24016595.395    24016597.278
        41.000          21.0004
 110359386.100 8  85994344.44747  21000682.261    21000682.066    21000681.824
        52.000          44.0004
 109328561.033 8  85191081.70746  20804521.669    20804518.937    20804521.052
        49.000          41.0004
 122704747.657 6  95614078.92044  23349931.960    23349930.134    23349930.585
        41.000          24.0004
 117854219.053 7  91834464.95645  22426904.626    22426901.337    22426903.481
        46.000          31.0004
 107238262.864 9  83562295.40847  20406751.039    20406750.537    20406750.979
        54.000          47.0004
 119245448.938 7  92918521.34945  22691650.748    22691651.091    22691650.139
        45.000          30.0004
 17  9 19  0 37  0.0000000  0 11G04G24G27G11G31G10G14G21G18G32G08
 123765399.415 6  96440565.13844  23551774.475    23551774.153    23551773.896
        40.000          25.0004
 127107551.646 6  99044844.98943  24187762.859    24187761.496    24187761.549
        39.000          23.0004
 118366972.795 7  92234004.41445  22524485.313    22524485.296    22524484.809
        44.000          33.0004
 126030036.389 6  98205224.02043  23982717.303    23982714.127    23982716.019
        38.000          18.0004
 126100781.453 7  98260343.48143  23996174.953    23996173.420    23996174.707
        42.000          21.0004
 110382176.854 8  86012103.46947  21005019.033    21005018.890    21005018.956
        50.000          44.0004
 109291642.227 8  85162313.82346  20797496.516    20797493.495    20797495.695
        48.000          41.0004
 122790792.326 6  95681126.67344  23366305.336    23366304.037    23366303.932
        41.000          24.0004
 117900603.074 7  91870608.35045  22435732.156    22435727.497    22435730.872
        47.000          31.0004
 107231864.240 8  83557309.46947  20405533.706    20405532.930    20405533.410
        53.000          47.0004
 119260678.593 7  92930388.59245  22694548.626    22694549.097    22694548.120
        45.000          30.0004
 17  9 19  0 37 30.0000000  0 11G04G24G27G11G31G10G14G21G18G32G08
 123850474.508 6  96506857.37144  23567963.505    23567963.265    23567963.309
        40.000          24.0004
 127170795.640 6  99094126.00943  24199797.115    24199795.631    24199796.982
        39.000          23.0004
 118439332.394 7  92290388.48245  22538254.242    22538254.759    22538254.158
        44.000          32.0004
 125932020.460 6  98128848.00643  23964065.010    23964062.637    23964064.632
        38.000          18.0004
 125993450.546 7  98176709.09443  23975749.883    23975748.738    23975750.323
        42.000          23.0004
 110405138.779 8  86029995.87247  21009388.709    21009388.363    21009388.495
        52.000          43.0004
 109255171.247 8  85133894.89046  20790556.246    20790553.296    20790555.371
        48.000          40.0004
 122877105.933 6  95748383.99343  23382729.865    23382728.853    23382729.334
        40.000          23.0004
 117947092.964 7  91906834.25445  22444578.106    22444574.675    22444577.660
        47.000          31.0004
 107225937.450 9  83552691.19247  20404405.680    20404405.190    20404405.754
        54.000          47.0004
 119276435.281 7  92942666.51545  22697547.320    22697547.611    22697546.545
        46.000          30.0004
 17  9 19  0 38  0.0000000  0 11G04G24G27G11G31G10G14G21G18G32G08
 123935669.065 7  96573242.68944  23584176.964    23584175.581    23584175.373
        42.000          24.0004
 127234495.085 6  99143761.92443  24211917.814    24211917.870    24211918.279
        39.000          22.0004
 118512010.130 7  92347020.45045  22552084.205    22552085.024    22552083.969
        43.000          32.0004
 125834293.055 6  98052696.81443  23945467.593    23945465.218    23945468.044
        37.000          18.0004
 125886110.875 6  98093067.90743  23955323.175    23955323.371    23955323.323
        41.000          23.0004
 110428272.613 8  86048022.23347  21013790.962    21013790.435    21013790.766
        51.000          43.0004
 109219148.815 8  85105825.47446  20783701.781    20783698.387    20783700.903
        50.000          41.0004
 122963687.981 6  95815850.46644  23399206.179    23399204.956    23399205.240
        41.000          24.0004
 117993689.789 7  91943143.44545  22453445.011    22453442.164    22453443.964
        45.000          32.0004
 107220482.327 9  83548440.44647  20403367.497    20403367.045    20403367.643
        55.000          47.0004
 119292718.478 7  92955354.69745  22700646.259    22700645.917    22700645.317
        44.000          30.0004
 17  9 19  0 38 30.0000000  0 11G04G24G27G11G31G10G14G21G18G32G08
 124020979.886 7  96639718.59544  23600410.788    23600409.906    23600409.591
        42.000          24.0004
 127298648.513 6  99193751.60043  24224125.582    24224126.246    24224125.205
        39.000          22.0004
 118585002.777 7  92403897.79245  22565974.873    22565974.892    22565974.168
        44.000          32.0004
 125736856.797 6  97976772.47542  23926926.537    23926923.062    23926925.766
        38.000          17.0004
 125778765.112 7  98009421.99143  23934896.664    23934896.147    23934896.072
        42.000          23.0004
 110451578.216 8  86066182.43847  21018225.716    21018225.353    21018225.523
        52.000          43.0004
 109183574.264 8  85078105.06146  20776932.322    20776928.919    20776931.391
        49.000          41.0004
 123050536.571 6  95883524.63743  23415733.423    23415731.591    23415732.334
        41.000          23.0004
 118040393.599 7  91979535.97945  22462332.131    22462329.725    22462331.134
        45.000          31.0004
 107215497.749 9  83544556.36447  20402418.921    20402418.522    20402418.961
        54.000          47.0004
 119309526.568 7  92968451.88745  22703844.552    22703844.562    22703843.770
        42.000          30.0004
 17  9 19  0 39  0.0000000  0 11G04G24G27G11G31G10G14G21G18G32G08
 124106403.643 6  96706282.54044  23616666.245    23616665.488    23616665.535
        41.000          24.0004
 127363253.508 6  99244093.16243  24236420.666    24236420.753    24236419.966
        41.000          23.0004
 118658307.023 7  92461017.96045  22579924.290    22579924.437    22579923.792
        44.000          32.0004
 125639714.219 6  97901076.99642  23908440.354    23908437.398    23908440.732
        38.000          17.0004
 125671415.999 6  97925773.45443  23914468.532    23914468.215    23914467.658
        41.000          23.0004
 110475055.383 8  86084476.32747  21022693.484    21022693.052    21022693.303
        51.000          43.0004
 109148447.730 8  85050733.74946  20770247.616    20770244.409    20770247.026
        49.000          41.0004
 123137650.025 6  95951405.20043  23432309.931    23432308.641    23432309.527
        41.000          23.0004
 118087204.655 7  92016012.11145  22471240.587    22471237.124    22471239.692
        45.000          31.0004
 107210982.522 9  83541038.01447  20401559.838    20401559.234    20401559.766
        55.000          47.0004
 119326858.035 7  92981956.89945  22707142.760    22707142.604    22707142.026
        43.000          30.0004
 17  9 19  0 39 30.0000000  0 11G04G24G27G11G31G10G14G21G18G32G08
 124191938.188 6  96772932.78743  23632942.812    23632942.214    23632942.006
        40.000          23.0004
 127428308.743 7  99294785.55644  24248800.299    24248800.903    24248800.214
        42.000          24.0004
 118731920.524 7  92518379.09645  22593931.974    22593932.857    22593931.559
        44.000          32.0004
 125542868.716 6  97825612.96743  23890012.273    23890009.028    23890011.324
        38.000          18.0004
 125564066.986 6  97842124.96043  23894041.067    23894040.405    23894040.077
        41.000          22.0004
 110498704.918 8  86102904.53947  21027193.729    21027193.193    21027193.562
        50.000          43.0004
 109113770.194 8  85023712.30046  20763648.692    20763645.531    20763647.938
        48.000          41.0004
 123225027.343 6  96019491.36143  23448937.958    23448936.221    23448937.548
        40.000          23.0004
 118134123.763 7  92052572.45045  22480169.499    22480164.889    22480168.324
        46.000          31.0004
 107206936.402 8  83537885.20548  20400789.931    20400789.280    20400789.893
        53.000          48.0004
 119344711.967 7  92995869.03345  22710540.194    22710539.802    22710539.606
        44.000          30.0004
 17  9 19  0 40  0.0000000  0 11G04G24G27G11G31G10G14G21G18G32G08
 124277579.982 6  96839666.60343  23649240.379    23649239.157    23649239.338
        41.000          23.0004
 127493811.597 6  99345826.73144  24261264.231    24261264.840    24261264.680
        40.000          24.0004
 118805839.536 7  92575978.27845  22607998.206    22607999.975    22607997.749
        44.000          32.0004
 125446322.157 6  97750381.89143  23871638.987    23871636.328    23871638.710
        37.000          18.0004
 125456720.588 6  97758478.53943  23873612.179    23873612.512    23873611.794
        39.000          21.0004
 110522526.232 8  86121466.59147  21031726.725    21031726.396    21031726.411
        51.000          43.0004
 109079540.755 8  84997040.02946  20757134.785    20757131.830    20757134.064
        48.000          41.0004
 123312666.334 7  96087781.42443  23465616.058    23465613.369    23465614.807
        42.000          22.0004
 118181150.746 7  92089216.85245  22489118.131    22489113.758    22489116.757
        45.000          30.0004
 107203357.783 9  83535096.67348  20400109.029    20400108.328    20400108.878
        55.000          48.0004
 119363086.431 7  93010186.79245  22714035.953    22714036.417    22714035.956
        43.000          30.0004
 17  9 19  0 40 30.0000000  0 11G04G24G27G11G31G10G14G21G18G32G08
 124363326.799 6  96906482.25343  23665557.458    23665555.703    23665556.555
        41.000          23.0004
 127559760.910 7  99397215.79143  24273814.480    24273814.316    24273813.656
        42.000          23.0004
 118880061.961 7  92633813.89945  22622122.802    22622123.019    22622122.291
        44.000          31.0004
 125350078.391 6  97675386.78642  23853325.555    23853321.973    23853323.963
        37.000          17.0004
 125349380.473 6  97674837.03843  23853185.885    23853185.745    23853186.101
        40.000          22.0004
 110546520.392 8  86140163.32847  21036292.778    21036292.435    21036292.357
        51.000          43.0004
 109045760.092 8  84970717.44746  20750706.535    20750703.480    20750705.624
        48.000          41.0004
 123400566.713 6  96156275.18643  23482342.302    23482340.241    23482341.711
        41.000          23.0004
 118228286.680 7  92125946.13245  22498086.987    22498084.013    22498086.391
        45.000          31.0004
 107200246.669 9  83532672.43847  20399516.962    20399516.319    20399516.961
        54.000          47.0004
 119381980.950 7  93024909.77045  22717632.120    22717631.770    22717631.532
        44.000          30.0004
 17  9 19  0 41  0.0000000  0 11G04G24G27G11G31G10G14G21G18G32G08
 124449175.314 6  96973377.15943  23681893.782    23681892.299    23681893.130
        41.000          23.0004
 127626154.607 6  99448951.11344  24286449.170    24286448.105    24286448.768
        41.000          24.0004
 118954584.320 7  92691883.22745  22636304.103    22636304.523    22636303.494
        44.000          31.0004
 125254139.843 6  97600629.51642  23835068.618    23835065.422    23835067.635
        38.000          17.0004
 125242049.073 6  97591202.30343  23832761.301    23832761.014    23832762.141
        39.000          23.0004
 110570687.076 8  86158994.51247  21040891.413    21040891.320    21040891.432
        51.000          43.0004
 109012427.751 8  84944744.21246  20744363.497    20744360.515    20744362.696
        48.000          40.0004
 123488726.271 6  96224970.87443  23499118.904    23499116.613    23499117.912
        40.000          22.0004
 118275531.617 7  92162760.34445  22507078.010    22507074.719    22507077.051
        45.000          31.0004
 107197601.681 8  83530611.41647  20399013.718    20399013.087    20399013.532
        53.000          47.0004
 119401393.837 7  93040036.69444  22721326.423    22721326.061    22721326.075
        45.000          29.0004
 17  9 19  0 41 30.0000000  0 11G04G24G27G11G31G10G14G21G18G32G08
 124535122.461 6  97040348.90243  23698249.355    23698247.579    23698248.294
        41.000          23.0004
 127692990.660 7  99501031.14444  24299168.257    24299167.157    24299168.037
        42.000          25.0004
 119029403.480 7  92750183.83345  22650541.822    22650541.403    22650541.369
        44.000          31.0004
 125158509.048 5  97526112.04142  23816869.486    23816867.231    23816868.699
        35.000          17.0004
 125134729.536 6  97507576.78443  23812338.238    23812338.359    23812339.038
        38.000          21.0004
 110595026.329 8  86177960.16347  21045523.315    21045522.765    21045522.952
        52.000          43.0004
 108979543.795 8  84919120.36046  20738106.070    20738102.935    20738105.286
        48.000          41.0004
 123577143.301 6  96293867.21043  23515943.618    23515941.665    23515942.873
        40.000          22.0004
 118322885.650 7  92199659.58545  22516089.115    22516085.871    22516088.127
        45.000          31.0004
 107195421.722 9  83528912.75548  20398598.328    20398598.101    20398598.611
        54.000          48.0004
 119421323.423 7  93055566.21845  22725119.446    22725118.667    22725118.656
        46.000          30.0004
 17  9 19  0 42  0.0000000  0 11G04G24G27G11G31G10G14G21G18G32G08
 124621165.291 6  97107395.20943  23714622.637    23714620.915    23714621.989
        40.000          23.0004
 127760266.310 6  99553453.73844  24311968.437    24311969.972    24311969.202
        40.000          25.0004
 119104516.334 7  92808713.30245  22664835.141    22664834.982    22664834.987
        45.000          30.0004
 125063188.633 6  97451836.41142  23798731.141    23798727.893    23798729.984
        36.000          16.0004
 125027424.906 6  97423962.90843  23791919.765    23791918.621    23791919.573
        41.000          21.0004
 110619538.311 8  86197060.40147  21050187.779    21050187.178    21050187.515
        51.000          44.0004
 108947108.151 7  84893845.84546  20731933.457    20731930.577    20731932.854
        47.000          41.0004
 123665816.417 6  96362963.09443  23532816.421    23532815.888    23532816.509
        38.000          22.0004
 118370349.439 7  92236644.34945  22525121.015    22525117.551    22525119.946
        45.000          30.0004
 107193705.834 8  83527575.70348  20398271.956    20398271.662    20398271.976
        53.000          48.0004
 119441768.099 7  93071497.11745  22729009.704    22729009.496    22729008.999
        46.000          30.0004
 17  9 19  0 42 30.0000000  0 11G04G24G27G11G31G10G14G21G18G32G08
 124707301.075 6  97174513.95643  23731013.135    23731012.380    23731013.038
        39.000          23.0004
 127827980.588 6  99606218.09344  24324853.374    24324855.625    24324853.870
        40.000          24.0004
 119179920.036 7  92867469.40345  22679183.833    22679183.265    22679183.622
        44.000          30.0004
 124968181.742 6  97377805.10842  23780651.046    23780649.025    23780650.487
        36.000          16.0004
 124920138.122 7  97340362.90543  23771504.457    23771502.377    23771504.108
        42.000          23.0004
 110644223.262 8  86216295.42547  21054884.894    21054884.536    21054884.643
        51.000          44.0004
 108915120.827 8  84868920.66646  20725846.637    20725843.556    20725846.008
        50.000          41.0004
 123754744.073 6  96432257.29743  23549739.315    23549738.310    23549738.181
        38.000          21.0004
 118417923.615 7  92273715.11745  22534174.466    22534170.907    22534173.469
        46.000          30.0004
 107192453.187 9  83526599.61247  20398033.930    20398033.140    20398033.781
        54.000          47.0004
 119462726.903 7  93087828.63945  22732997.657    22732997.787    22732997.324
        44.000          30.0004
 17  9 19  0 43  0.0000000  0 11G04G24G27G11G31G10G14G21G18G32G08
 124793526.987 6  97241702.93643  23747421.083    23747420.540    23747420.911
        40.000          23.0004
 127896131.248 6  99659322.48543  24337821.101    24337823.875    24337821.043
        36.000          23.0004
 119255611.722 7  92926449.89745  22693587.857    22693587.273    22693587.492
        45.000          30.0004
 124873490.997 6  97304020.14542  23762633.087    23762629.475    23762632.208
        38.000          16.0004
 124812872.463 7  97256779.35443  23751091.942    23751090.274    23751091.206
        42.000          22.0004
 110669081.613 8  86235665.55747  21059615.524    21059614.988    21059615.293
        51.000          43.0004
 108883581.523 7  84844344.59746  20719845.138    20719842.049    20719844.321
        47.000          41.0004
 123843925.070 6  96501748.91043  23566710.709    23566708.738    23566708.936
        38.000          21.0004
 118465608.704 7  92310872.30545  22543248.591    22543245.314    22543247.806
        46.000          30.0004
 107191662.999 9  83525983.88448  20397883.051    20397882.797    20397883.151
        54.000          48.0004
 119484198.431 7  93104559.70045  22737083.548    22737083.541    22737083.327
        42.000          30.0004
 17  9 19  0 43 30.0000000  0 11G04G24G27G11G31G10G14G21G18G32G08
 124879839.891 6  97308959.68843  23763846.117    23763845.370    23763845.411
        40.000          23.0004
 127964715.907 6  99712765.04043  24350874.930    24350874.913    24350873.205
        39.000          23.0004
 119331587.973 7  92985652.15845  22708045.924    22708045.350    22708045.363
        43.000          30.0004
 124779119.278 6  97230483.76443  23744675.114    23744671.375    23744674.637
        39.000          19.0004
 124705630.704 7  97173214.42343  23730685.143    23730683.555    23730684.138
        42.000          22.0004
 110694113.084 8  86255170.59147  21064378.963    21064378.234    21064378.591
        52.000          43.0004
 108852490.173 8  84820117.58546  20713928.510    20713925.508    20713927.630
        49.000          41.0004
 123933357.366 6  96571436.37143  23583727.699    23583726.848    23583726.999
        38.000          21.0004
 118513404.433 7  92348115.71045  22552343.656    22552340.978    22552342.671
        46.000          30.0004
 107191333.865 9  83525727.42747  20397820.361    20397820.137    20397820.515
        54.000          47.0004
 119506180.793 7  93121688.80044  22741266.650    22741266.773    22741265.968
        44.000          29.0004
 17  9 19  0 44  0.0000000  0 11G04G24G27G11G31G10G14G21G18G32G08
 124966236.888 6  97376281.95943  23780287.029    23780286.263    23780286.259
        40.000          23.0004
 128033732.434 6  99766544.15744  24364007.848    24364008.771    24364008.047
        39.000          24.0004
 119407845.848 7  93045073.84545  22722557.425    22722557.282    22722556.707
        45.000          31.0004
 124685069.117 6  97157197.93543  23726777.982    23726775.035    23726777.778
        40.000          20.0004
 124598415.857 7  97089670.47744  23710282.138    23710281.238    23710281.887
        42.000          24.0004
 110719318.024 8  86274810.79847  21069174.962    21069174.686    21069174.877
        51.000          43.0004
 108821846.903 8  84796239.72746  20708097.215    20708094.227    20708096.399
        48.000          40.0004
 124023039.590 6  96641318.57443  23600794.573    23600793.608    23600793.212
        40.000          21.0004
 118561311.750 7  92385446.05645  22561460.085    22561457.065    22561459.183
        43.000          30.0004
 107191464.932 9  83525829.56947  20397845.423    20397845.082    20397845.536
        54.000          47.0004
 119528672.697 7  93139214.93745  22745546.650    22745547.020    22745545.875
        45.000          30.0004
 17  9 19  0 44 30.0000000  0 11G04G24G27G11G31G10G14G21G18G32G08
 125052714.731 6  97443667.22744  23796743.512    23796742.999    23796742.828
        41.000          24.0004
 128103178.539 6  99820658.02044  24377221.891    24377223.968    24377222.958
        38.000          24.0004
 119484381.987 7  93104712.35745  22737121.371    22737121.550    22737120.615
        43.000          30.0004
 124591342.927 6  97084164.55943  23708942.626    23708939.283    23708941.999
        40.000          19.0004
 124491230.914 7  97006149.83543  23689884.652    23689884.351    23689884.879
        42.000          22.0004
 110744696.296 8  86294586.07447  21074004.758    21074003.920    21074004.279
        52.000          43.0004
 108791651.342 7  84772710.72846  20702351.082    20702348.023    20702350.363
        44.000          41.0004
 124112969.830 6  96711394.04043  23617907.149    23617906.905    23617906.904
        39.000          22.0004
 118609330.356 7  92422863.13644  22570597.600    22570594.112    22570596.994
        45.000          29.0004
 107192054.809 8  83526289.22147  20397957.744    20397957.230    20397957.690
        53.000          47.0004
 119551672.058 7  93157136.49044  22749923.437    22749923.555    22749922.668
        44.000          29.0004
 17  9 19  0 45  0.0000000  0 11G04G24G27G11G31G10G14G21G18G32G08
 125139271.157 6  97511113.72444  23813214.723    23813214.513    23813214.039
        41.000          24.0004
 128173052.420 6  99875105.20543  24390519.157    24390520.215    24390519.195
        39.000          23.0004
 119561193.817 7  93164565.69245  22751738.582    22751738.340    22751738.012
        44.000          31.0004
 124497943.820 6  97011386.05043  23691169.478    23691165.265    23691168.678
        40.000          20.0004
 124384079.290 7  96922655.12143  23669494.902    23669493.702    23669494.488
        42.000          22.0004
 110770248.562 8  86314496.92647  21078867.309    21078866.557    21078866.928
        50.000          43.0004
 108761903.592 8  84749530.67946  20696690.401    20696687.393    20696689.711
        48.000          40.0004
 124203146.932 6  96781661.85443  23635068.307    23635066.130    23635067.245
        41.000          21.0004
 118657461.251 7  92460367.72245  22579756.730    22579753.157    22579755.974
        46.000          30.0004
 107193102.954 9  83527105.96047  20398157.454    20398156.605    20398157.268
        54.000          47.0004
 119575178.131 7  93175452.89244  22754396.353    22754396.443    22754395.658
        45.000          29.0004
 17  9 19  0 45 30.0000000  0 11G04G24G27G11G31G10G14G21G18G32G08
 125225902.971 6  97578618.96643  23829701.180    23829699.983    23829699.926
        41.000          23.0004
 128243352.677 6  99929884.61943  24403896.673    24403897.294    24403896.437
        39.000          22.0004
 119638278.070 7  93224631.30645  22766406.688    22766407.490    22766406.239
        43.000          30.0004
 124404875.035 6  96938864.92943  23673458.247    23673454.822    23673458.506
        40.000          20.0004
 124276963.940 7  96839188.69844  23649112.086    23649110.327    23649111.319
        43.000          24.0004
 110795974.849 8  86334543.37747  21083762.471    21083762.211    21083762.413
        51.000          43.0004
 108732603.392 8  84726699.36846  20691115.090    20691111.687    20691114.134
        48.000          41.0004
 124293569.120 6  96852120.64043  23652274.572    23652273.901    23652273.778
        39.000          22.0004
 118705704.680 7  92497959.99544  22588936.878    22588933.935    22588936.034
        45.000          29.0004
 107194608.145 9  83528278.83447  20398443.752    20398443.058    20398443.731
        54.000          47.0004
 119599189.022 7  93194162.66244  22758965.332    22758965.215    22758964.713
        44.000          29.0004
 17  9 19  0 46  0.0000000  0 11G04G24G27G11G31G10G14G21G18G32G08
 125312606.774 6  97646180.31943  23846198.782    23846199.017    23846198.457
        39.000          23.0004
 128314075.896 6  99984993.58343  24417355.742    24417356.039    24417355.289
        40.000          23.0004
 119715631.184 7  93284906.41445  22781126.755    22781127.454    22781125.928
        42.000          31.0004
 124312138.450 6  96866602.66543  23655811.367    23655807.959    23655810.360
        40.000          20.0004
 124169887.301 7  96755752.43744  23628735.989    23628734.438    23628735.638
        43.000          24.0004
 110821874.813 8  86354725.16147  21088691.235    21088690.654    21088690.898
        51.000          44.0004
 108703749.878 8  84704216.12946  20685624.597    20685621.157    20685623.623
        50.000          41.0004
 124384234.287 6  96922768.76643  23669527.011    23669526.875    23669526.854
        39.000          21.0004
 118754060.475 7  92535639.80844  22598138.835    22598135.853    22598138.002
        45.000          29.0004
 107196568.763 8  83529806.59147  20398816.709    20398816.249    20398816.678
        53.000          47.0004
 119623702.772 7  93213264.25844  22763630.052    22763630.320    22763629.131
        45.000          29.0004
 17  9 19  0 46 30.0000000  0 11G04G24G27G11G31G10G14G21G18G32G08
 125399380.306 6  97713795.97243  23862712.000    23862712.037    23862710.617
        39.000          22.0004
 128385221.105 6 100040431.38844  24430895.273    24430894.755    24430894.754
        41.000          24.0004
 119793250.829 7  93345389.21145  22795896.443    22795897.906    22795896.185
        43.000          30.0004
 124219737.429 6  96794601.88543  23638227.507    23638225.173    23638227.260
        41.000          21.0004
 124062852.800 7  96672349.02643  23608368.510    23608366.718    23608367.126
        42.000          23.0004
 110847949.392 8  86375043.01047  21093652.835    21093652.375    21093652.733
        51.000          43.0004
 108675343.871 8  84682081.58846  20680219.208    20680215.597    20680218.121
        49.000          41.0004
 124475141.688 6  96993605.64443  23686827.775    23686825.718    23686826.384
        41.000          21.0004
 118802529.926 7  92573408.18144  22607362.564    22607358.969    22607361.333
        44.000          29.0004
 107198984.511 9  83531688.99047  20399276.572    20399275.870    20399276.473
        54.000          47.0004
 119648718.161 7  93232756.74945  22768389.899    22768391.247    22768389.573
        45.000          30.0004
 17  9 19  0 47  0.0000000  0 11G04G24G27G11G31G10G14G21G18G32G08
 125486220.761 6  97781463.79843  23879237.077    23879236.977    23879236.474
        39.000          22.0004
 128456785.367 6 100096195.74744  24444512.814    24444513.585    24444513.300
        40.000          24.0004
 119871133.803 7  93406077.20945  22810717.441    22810718.750    22810717.074
        43.000          30.0004
 124127674.799 6  96722864.77343  23620708.721    23620705.870    23620708.435
        40.000          21.0004
 123955864.008 7  96588981.22644  23588009.685    23588007.360    23588008.354
        43.000          24.0004
 110874198.731 8  86395497.03847  21098647.907    21098647.519    21098647.560
        51.000          43.0004
 108647384.887 8  84660295.38246  20674898.323    20674895.204    20674897.783
        49.000          41.0004
 124566289.585 6  97064629.89843  23704172.385    23704170.894    23704171.368
        39.000          21.0004
 118851113.422 7  92611265.43244  22616608.129    22616604.217    22616606.850
        45.000          29.0004
 107201854.218 9  83533925.12847  20399822.638    20399822.039    20399822.595
        54.000          47.0004
 119674233.486 7  93252638.79145  22773246.084    22773246.367    22773245.179
        45.000          30.0004
 17  9 19  0 47 30.0000000  0 11G04G24G27G11G31G10G14G21G18G32G08
 125573124.960 6  97849181.30043  23895775.388    23895774.109    23895774.177
        39.000          21.0004
 128528766.776 6 100152285.17844  24458208.782    24458211.239    24458209.601
        40.000          24.0004
 119949276.833 7  93466967.85145  22825587.485    22825588.499    22825586.990
        42.000          30.0004
 124035952.995 6  96651393.25743  23603254.095    23603251.348    23603253.744
        40.000          20.0004
 123848923.534 6  96505651.08844  23567657.991    23567657.252    23567657.240
        40.000          24.0004
 110900622.814 8  86416087.22847  21103676.283    21103676.022    21103675.906
        51.000          43.0004
 108619872.651 8  84638857.29246  20669663.146    20669659.912    20669662.182
        48.000          41.0004
 124657675.987 6  97135840.01343  23721563.093    23721560.965    23721561.965
        40.000          21.0004
 118899810.900 7  92649211.50944  22625874.845    22625870.734    22625873.724
        47.000          29.0004
 107205176.519 9  83536513.94747  20400454.628    20400454.160    20400454.757
        54.000          47.0004
 119700247.169 7  93272909.16744  22778196.088    22778196.533    22778195.662
        44.000          29.0004
 17  9 19  0 48  0.0000000  0 11G04G24G27G11G31G10G14G21G18G32G08
 125660089.973 6  97916946.17943  23912323.395    23912322.913    23912322.497
        38.000          21.0004
 128601163.544 6 100208698.22443  24471985.524    24471987.600    24471985.692
        41.000          23.0004
 120027676.846 7  93528058.72644  22840506.273    22840507.456    22840505.789
        42.000          29.0004
 123944574.659 6  96580189.36643  23585865.951    23585862.360    23585865.373
        40.000          20.0004
 123742034.591 7  96422361.10744  23547317.674    23547317.229    23547317.108
        42.000          24.0004
 110927221.827 8  86436813.72647  21108738.186    21108737.558    21108737.695
        52.000          43.0004
 108592806.858 8  84617767.07246  20664512.649    20664509.415    20664511.630
        49.000          41.0004
 124749299.325 6  97207234.76243  23738998.611    23738996.106    23738997.278
        39.000          20.0004
 118948622.968 7  92687246.88944  22635162.996    22635159.016    22635162.336
        45.000          29.0004
 107208950.261 8  83539454.53447  20401172.908    20401172.287    20401172.822
        53.000          47.0004
 119726757.319 7  93293566.40545  22783241.206    22783241.257    22783240.309
        44.000          30.0004
 17  9 19  0 48 30.0000000  0 12G04G24G27G11G31G10G14G01G21G18G32G08
 125747113.012 6  97984756.28843  23928882.737    23928883.019    23928882.967
        38.000          21.0004
 128673973.055 6 100265432.89643  24485840.789    24485841.882    24485840.070
        40.000          22.0004
 120106330.766 6  93589347.45444  22855473.585    22855474.722    22855473.035
        40.000          29.0004
 123853542.846 6  96509255.51343  23568543.838    23568539.621    23568542.492
        39.000          19.0004
 123635200.272 6  96339113.67944  23526986.651    23526987.418    23526987.686
        41.000          25.0004
 110953996.023 8  86457676.73447  21113832.965    21113832.627    21113832.753
        53.000          43.0004
 108566187.352 8  84597024.60946  20659446.913    20659443.690    20659446.075
        48.000          41.0004
 130766894.623 6                  24884112.651
        39.000
 124841157.870 6  97278812.79243  23756478.916    23756476.810    23756477.251
        39.000          21.0004
 118997550.323 7  92725372.09144  22644473.458    22644470.062    22644472.665
        45.000          29.0004
 107213174.421 9  83542746.09148  20401976.882    20401976.234    20401976.748
        55.000          48.0004
 119753762.457 7  93314609.34844  22788380.097    22788380.591    22788379.464
        46.000          29.0004
 17  9 19  0 49  0.0000000  0 11G04G24G27G11G31G10G14G21G18G32G08
 125834191.450 6  98052609.56943  23945453.939    23945453.426    23945453.156
        38.000          21.0004
 128747193.343 6 100322487.65643  24499775.218    24499774.225    24499774.374
        41.000          22.0004
 120185235.766 7  93650831.81844  22870489.304    22870490.017    22870488.579
        42.000          29.0004
 123762860.357 6  96438593.87343  23551286.014    23551283.641    23551285.482
        38.000          19.0004
 123528423.903 6  96255911.41044  23506667.621    23506668.110    23506668.808
        41.000          25.0004
 110980945.892 8  86478676.62747  21118961.254    21118960.917    21118961.084
        50.000          43.0004
 108540013.969 8  84576629.77746  20654465.818    20654463.021    20654465.275
        48.000          41.0004
 124933250.193 6  97350572.98243  23774002.766    23774001.411    23774002.201
        39.000          20.0004
 119046593.175 6  92763587.27444  22653805.882    22653802.895    22653805.065
        41.000          29.0004
 107217848.010 9  83546387.84847  20402865.881    20402865.674    20402866.135
        54.000          47.0004
 119781260.919 7  93336036.71145  22793612.942    22793613.459    22793612.417
        45.000          30.0004
 17  9 19  0 49 30.0000000  0 12G04G24G27G11G31G10G14G01G21G18G32G08
 125921321.880 6  98120503.36343  23962033.682    23962033.782    23962033.113
        38.000          21.0004
 128820822.266 7 100379860.86143  24513787.020    24513785.631    24513785.972
        42.000          22.0004
 120264388.162 7  93712508.96645  22885552.451    22885552.124    22885551.604
        43.000          30.0004
 123672529.504 6  96368206.20643  23534095.805    23534093.966    23534096.124
        39.000          20.0004
 123421708.172 7  96172756.37744  23486360.916    23486360.767    23486360.885
        43.000          25.0004
 111008071.079 8  86499813.13947  21124123.132    21124122.696    21124123.012
        52.000          43.0004
 108514285.902 8  84556581.94146  20649570.452    20649567.046    20649569.519
        50.000          41.0004
 130558605.903 6                  24844476.806
        39.000
 125025574.294 6  97422513.79943  23791571.015    23791570.603    23791570.701
        38.000          20.0004
 119095751.560 7  92801892.48444  22663160.506    22663157.726    22663159.728
        44.000          29.0004
 107222969.344 9  83550378.49848  20403840.699    20403840.277    20403840.712
        55.000          48.0004
 119809250.489 7  93357846.73844  22798939.760    22798939.319    22798938.606
        45.000          29.0004
 17  9 19  0 50  0.0000000  0 11G04G24G27G11G31G10G14G21G18G32G08
 126008501.534 6  98188435.50443  23978624.268    23978623.536    23978622.907
        41.000          21.0004
 128894857.656 7 100437550.77143  24527875.226    24527875.381    24527874.632
        42.000          23.0004
 120343785.083 7  93774376.66945  22900660.871    22900661.235    22900660.713
        43.000          30.0004
 123582553.093 6  96298094.73843  23516974.732    23516972.421    23516974.270
        39.000          20.0004
 123315056.397 7  96089651.18144  23466066.632    23466065.802    23466065.805
        43.000          26.0004
 111035372.025 8  86521086.60047  21129318.360    21129317.651    21129318.025
        52.000          42.0004
 108489003.030 7  84536881.01146  20644759.478    20644755.997    20644758.409
        47.000          41.0004
 125118128.594 6  97494633.95943  23809184.951    23809182.747    23809182.671
        39.000          20.0004
 119145026.277 7  92840288.35744  22672537.361    22672533.903    22672536.558
        45.000          29.0004
 107228537.441 9  83554717.28147  20404900.331    20404899.659    20404900.266
        54.000          47.0004
 119837729.748 7  93380038.35344  22804359.390    22804358.857    22804358.400
        45.000          29.0004
 17  9 19  0 50 30.0000000  0 12G04G24G27G11G31G10G14G01G21G18G32G08
 126095727.906 6  98256404.06543  23995223.411    23995221.908    23995221.994
        40.000          21.0004
 128969296.747 6 100495555.27244  24542040.686    24542042.127    24542040.143
        41.000          24.0004
 120423423.542 7  93836432.57044  22915815.726    22915815.439    22915815.407
        42.000          29.0004
 123492934.006 6  96228261.70343  23499921.098    23499918.153    23499919.924
        39.000          20.0004
 123208471.498 6  96006598.10744  23445783.505    23445783.382    23445783.123
        41.000          25.0004
 111062849.127 8  86542497.31647  21134547.047    21134546.562    21134546.738
        52.000          43.0004
 108464165.039 8  84517526.74146  20640032.973    20640029.535    20640031.863
        50.000          41.0004
 130350506.321 6                  24804876.617
        40.000
 125210911.697 6  97566932.41543  23826840.882    23826839.216    23826839.280
        38.000          21.0004
 119194417.763 7  92878775.22344  22681935.849    22681932.699    22681935.455
        44.000          29.0004
 107234551.294 9  83559403.40347  20406044.632    20406043.926    20406044.752
        54.000          47.0004
 119866696.897 7  93402610.13944  22809870.659    22809871.051    22809870.374
        45.000          29.0004
 17  9 19  0 51  0.0000000  0 12G04G24G27G11G31G10G14G01G21G18G32G08
 126182998.546 6  98324407.14143  24011829.938    24011829.670    24011829.146
        39.000          21.0004
 129044138.412 6 100553873.46843  24556281.650    24556284.453    24556281.766
        40.000          23.0004
 120503300.988 7  93898674.70645  22931016.489    22931015.730    22931016.184
        44.000          30.0004
 123403675.501 6  96158709.63243  23482935.703    23482933.541    23482935.180
        39.000          21.0004
 123101957.523 7  95923600.27744  23425515.338    23425514.037    23425514.906
        46.000          26.0004
 111090503.114 8  86564045.87047  21139809.390    21139809.067    21139809.092
        50.000          43.0004
 108439772.491 8  84498519.56646  20635391.017    20635387.743    20635390.080
        49.000          41.0004
 130246532.706 6 101490805.83643  24785090.882    24785091.792    24785090.093
        41.000          19.0004
 125303921.952 6  97639407.84343  23844540.390    23844537.958    23844538.827
        39.000          20.0004
 119243926.724 7  92917353.62844  22691357.413    22691353.907    22691356.839
        46.000          29.0004
 107241010.205 9  83564436.32348  20407273.891    20407273.006    20407273.625
        54.000          48.0004
 119896151.012 7  93425561.38744  22815475.993    22815476.151    22815475.614
        44.000          29.0004
 17  9 19  0 51 30.0000000  0 12G04G24G27G11G31G10G14G01G21G18G32G08
 126270310.468 6  98392442.35143  24028444.259    24028444.609    24028443.726
        39.000          21.0004
 129119380.075 6 100612503.34643  24570599.049    24570601.579    24570599.601
        40.000          22.0004
 120583414.227 7  93961100.55644  22946260.963    22946260.699    22946260.322
        44.000          29.0004
 123314780.123 6  96089440.52843  23466020.189    23466017.544    23466018.835
        40.000          22.0004
 122995517.216 7  95840659.83944  23405260.237    23405259.168    23405260.041
        42.000          27.0004
 111118334.134 8  86585732.38047  21145105.384    21145105.096    21145105.303
        51.000          43.0004
 108415824.567 8  84479858.85746  20630833.880    20630830.609    20630832.906
        49.000          41.0004
 130142611.979 6 101409828.66843  24765314.675    24765316.495    24765314.336
        39.000          19.0004
 125397158.163 6  97712059.35243  23862281.771    23862280.831    23862280.938
        37.000          20.0004
 119293553.609 7  92956023.90844  22700801.085    22700798.004    22700800.507
        45.000          29.0004
 107247912.853 8  83569815.01447  20408587.259    20408586.672    20408587.174
        53.000          47.0004
 119926089.704 7  93448890.20944  22821172.732    22821173.720    22821172.187
        44.000          29.0004
 17  9 19  0 52  0.0000000  0 12G04G24G27G11G31G10G14G01G21G18G32G08
 126357659.949 6  98460506.82243  24045067.299    24045067.242    24045066.524
        40.000          21.0004
 129195019.111 6 100671442.85243  24584992.740    24584993.317    24584993.145
        39.000          21.0004
 120663759.351 7  94023707.12344  22961549.858    22961550.165    22961549.452
        43.000          29.0004
 123226249.912 6  96020455.98443  23449172.677    23449170.502    23449171.972
        39.000          22.0004
 122889153.216 7  95757778.87844  23385020.528    23385018.470    23385019.436
        45.000          25.0004
 111146341.634 8  86607556.40147  21150434.938    21150434.781    21150434.812
        51.000          43.0004
 108392320.317 8  84461543.87147  20626361.216    20626357.702    20626360.531
        48.000          42.0004
 130038745.955 6 101328894.10143  24745550.119    24745551.687    24745549.392
        39.000          20.0004
 125490617.561 6  97784884.78643  23880066.387    23880065.049    23880065.636
        37.000          19.0004
 119343298.233 7  92994785.93144  22710267.107    22710264.365    22710266.289
        44.000          29.0004
 107255257.217 9  83575537.90147  20409984.958    20409984.335    20409984.885
        55.000          47.0004
 119956510.404 7  93472594.62744  22826961.679    22826962.420    22826961.109
        45.000          29.0004
 17  9 19  0 52 30.0000000  0 12G04G24G27G11G31G10G14G01G21G18G32G08
 126445044.443 6  98528598.58143  24061695.790    24061696.448    24061695.244
        40.000          22.0004
 129271052.879 6 100730689.92443  24599462.832    24599461.299    24599462.077
        38.000          20.0004
 120744333.444 7  94086492.09644  22976882.848    22976883.200    22976882.181
        43.000          29.0004
 123138087.719 6  95951758.20343  23432396.890    23432394.142    23432395.918
        40.000          23.0004
 122782868.702 7  95674959.84144  23364794.407    23364793.013    23364794.453
        44.000          26.0004
 111174526.086 8  86629518.29747  21155798.552    21155797.952    21155798.392
        50.000          43.0004
 108369259.629 8  84443574.51647  20621972.909    20621969.375    20621972.321
        49.000          42.0004
 129934936.956 6 101248003.97743  24725795.429    24725797.032    24725794.861
        40.000          20.0004
 125584298.895 6  97857883.15543  23897892.689    23897892.266    23897892.732
        37.000          19.0004
 119393161.116 7  93033640.11244  22719755.912    22719753.130    22719754.978
        44.000          29.0004
 107263042.253 9  83581604.17048  20411466.360    20411465.749    20411466.333
        54.000          48.0004
 119987411.582 7  93496673.43644  22832841.648    22832842.658    22832841.272
        44.000          29.0004
 17  9 19  0 53  0.0000000  0 12G04G24G27G11G31G10G14G01G21G18G32G08
 126532461.192 6  98596715.45443  24078331.689    24078331.234    24078330.414
        39.000          23.0004
 129347479.663 6 100790243.25443  24614007.892    24614004.988    24614007.106
        41.000          20.0004
 120825133.385 7  94149453.04644  22992258.212    22992258.817    22992257.368
        42.000          28.0004
 123050296.264 6  95883349.31443  23415689.247    23415687.469    23415689.214
        40.000          22.0004
 122676666.601 7  95592205.03044  23344584.590    23344582.489    23344584.340
        44.000          25.0004
 111202887.721 8  86651618.27247  21161195.341    21161194.921    21161195.235
        50.000          43.0004
 108346642.120 8  84425950.49346  20617669.179    20617665.512    20617668.149
        48.000          41.0004
 129831187.193 6 101167160.02743  24706053.987    24706054.443    24706052.262
        40.000          20.0004
 125678200.285 6  97931052.99043  23915763.015    23915760.504    23915761.415
        39.000          19.0004
 119443142.720 7  93072586.80144  22729267.240    22729263.957    22729265.895
        44.000          28.0004
 107271266.730 9  83588012.85847  20413031.448    20413030.750    20413031.477
        54.000          47.0004
 120018791.370 7  93521125.20245  22838813.108    22838814.323    22838812.907
        43.000          30.0004
 17  9 19  0 53 30.0000000  0 12G04G24G27G11G31G10G14G01G21G18G32G08
 126619907.180 6  98664855.11443  24094971.394    24094971.703    24094971.178
        39.000          23.0004
 129424296.330 6 100850100.40343  24628624.130    24628623.358    24628624.710
        38.000          21.0004
 120906156.031 7  94212587.54744  23007676.008    23007676.434    23007675.035
        42.000          27.0004
 122962878.183 6  95815231.33243  23399054.689    23399052.483    23399054.416
        40.000          22.0004
 122570550.230 7  95509517.02944  23324391.638    23324389.222    23324391.133
        44.000          25.0004
 111231426.778 8  86673856.49447  21166625.984    21166625.927    21166625.793
        51.000          43.0004
 108324467.256 8  84408671.39346  20613448.949    20613445.681    20613448.186
        48.000          41.0004
 129727498.756 6 101086363.87243  24686322.768    24686323.353    24686321.493
        41.000          21.0004
 125772319.735 6  98004392.76443  23933673.365    23933671.330    23933672.373
        39.000          19.0004
 119493243.528 7  93111626.37344  22738800.794    22738797.393    22738799.953
        44.000          28.0004
 107279929.357 9  83594762.96848  20414679.991    20414679.095    20414680.012
        54.000          48.0004
 120050647.732 7  93545948.32245  22844875.545    22844876.443    22844875.218
        44.000          30.0004
 17  9 19  0 54  0.0000000  0 12G04G24G27G11G31G10G14G01G21G18G32G08
 126707379.198 6  98733015.06843  24111616.684    24111616.640    24111616.266
        39.000          22.0004
 129501501.227 6 100910260.07243  24643315.425    24643315.400    24643315.330
        39.000          21.0004
 120987397.925 6  94275892.88544  23023135.574    23023136.372    23023135.269
        41.000          27.0004
 122875835.661 6  95747406.00743  23382491.346    23382488.655    23382490.636
        40.000          23.0004
 122464522.580 7  95426898.15444  23304213.912    23304213.013    23304214.492
        43.000          26.0004
 111260143.117 8  86696232.85747  21172091.113    21172090.537    21172090.648
        51.000          43.0004
 108302734.151 8  84391736.52146  20609313.250    20609310.051    20609312.559
        48.000          41.0004
 129623873.443 6 101005616.91443  24666603.041    24666603.890    24666602.380
        41.000          23.0004
 125866655.294 6  98077900.93542  23951624.726    23951622.792    23951622.238
        37.000          17.0004
 119543463.427 7  93150758.76344  22748357.574    22748353.998    22748356.711
        45.000          27.0004
 107289028.473 9  83601853.19247  20416411.295    20416410.619    20416411.296
        55.000          47.0004
 120082978.495 7  93571141.10745  22851027.817    22851028.840    22851027.551
        44.000          30.0004
 17  9 19  0 54 30.0000000  0 12G04G24G27G11G31G10G14G01G21G18G32G08
 126794875.024 6  98801193.57043  24128265.859    24128265.812    24128265.668
        38.000          21.0004
 129579092.303 6 100970720.62543  24658077.674    24658081.307    24658078.695
        37.000          20.0004
 121068856.447 7  94339367.01544  23038636.857    23038637.677    23038636.530
        42.000          28.0004
 122789172.164 7  95679876.03144  23365999.727    23365997.029    23365999.294
        42.000          24.0004
 122358587.097 7  95344351.08944  23284055.519    23284053.660    23284055.946
        43.000          25.0004
 111289037.531 8  86718747.98547  21177589.334    21177588.685    21177589.151
        52.000          43.0004
 108281443.023 8  84375146.03946  20605261.704    20605258.559    20605260.880
        48.000          41.0004
 129520314.000 6 100924921.27943  24646896.441    24646897.117    24646895.355
        40.000          22.0004
 125961205.700 6  98151576.51842  23969616.434    23969615.581    23969615.293
        37.000          17.0004
 119593803.488 7  93189984.77944  22757937.091    22757933.844    22757936.563
        43.000          28.0004
 107298563.316 9  83609282.93747  20418225.737    20418225.062    20418225.779
        54.000          47.0004
 120115782.419 7  93596702.58145  22857270.313    22857270.923    22857269.800
        45.000          30.0004
 17  9 19  0 55  0.0000000  0 12G04G24G27G11G31G10G14G01G21G18G32G08
 126882392.197 6  98869388.72943  24144919.893    24144919.112    24144919.177
        38.000          19.0004
 129657067.498 5 101031480.48243  24672914.616    24672919.569    24672915.678
        35.000          20.0004
 121150528.850 7  94403007.80144  23054180.121    23054179.565    23054179.157
        43.000          28.0004
 122702890.683 6  95612643.72444  23349580.506    23349577.874    23349580.562
        41.000          25.0004
 122252747.308 7  95261878.59544  23263914.963    23263913.079    23263914.777
        43.000          26.0004
 111318110.704 8  86741402.40447  21183121.452    21183121.359    21183121.614
        50.000          43.0004
 108260593.613 7  84358899.75546  20601294.314    20601291.081    20601293.356
        47.000          41.0004
 129416823.011 6 100844278.98943  24627202.226    24627202.718    24627201.397
        40.000          22.0004
 126055969.579 6  98225418.44042  23987649.905    23987647.713    23987648.334
        39.000          17.0004
 119644264.330 7  93229304.90044  22767539.547    22767536.228    22767538.600
        45.000          28.0004
 107308532.957 8  83617051.49348  20420122.930    20420122.336    20420122.906
        53.000          48.0004
 120149057.573 7  93622631.25744  22863602.480    22863602.770    22863601.413
        44.000          29.0004
 17  9 19  0 55 30.0000000  0 12G04G24G27G11G31G10G14G01G21G18G32G08
 126969927.368 6  98937597.91543  24161576.527    24161575.888    24161576.393
        37.000          19.0004
 129735423.636 6 101092537.17843  24687829.268    24687830.250    24687828.097
        37.000          21.0004
 121232411.461 6  94466812.41044  23069761.198    23069761.117    23069760.946
        41.000          28.0004
 122616993.170 6  95545710.61244  23333235.648    23333232.526    23333234.666
        41.000          24.0004
 122147005.914 7  95179482.77644  23243793.426    23243790.794    23243793.028
        44.000          27.0004
 111347362.360 8  86764195.89947  21188688.155    21188687.646    21188687.893
        52.000          42.0004
 108240184.953 8  84342996.91246  20597410.467    20597407.393    20597409.689
        48.000          41.0004
 129313402.112 6 100763691.31943  24607522.131    24607522.529    24607521.673
        40.000          21.0004
 126150944.640 6  98299424.93142  24005723.707    24005720.888    24005722.457
        39.000          17.0004
 119694846.083 7  93268719.23844  22777164.312    22777161.891    22777163.770
        43.000          28.0004
 107318935.622 9  83625157.46347  20422102.368    20422101.724    20422102.320
        54.000          47.0004
 120182801.572 7  93648925.24444  22870023.659    22870024.129    22870023.054
        43.000          29.0004
 17  9 19  0 56  0.0000000  0 12G04G24G27G11G31G10G14G01G21G18G32G08
 127057477.951 6  99005819.08043  24178237.224    24178237.390    24178235.992
        36.000          18.0004
 129814158.742 6 101153889.22243  24702813.447    24702812.591    24702812.975
        40.000          23.0004
 121314501.320 6  94530778.50144  23085382.545    23085382.621    23085381.745
        41.000          28.0004
 122531482.564 6  95479079.00144  23316962.727    23316960.586    23316962.268
        41.000          24.0004
 122041366.133 7  95097166.15144  23223691.006    23223688.560    23223690.163
        44.000          27.0004
 111376792.850 8  86787128.74647  21194288.457    21194288.131    21194288.334
        52.000          43.0004
 108220216.895 8  84327437.38946  20593610.866    20593607.627    20593609.908
        48.000          41.0004
 129210053.642 6 100683160.05543  24587855.103    24587856.068    24587854.998
        40.000          23.0004
 126246129.238 6  98373594.70343  24023835.612    24023834.604    24023834.952
        38.000          18.0004
 119745549.231 7  93308228.16144  22786812.966    22786810.093    22786812.126
        45.000          28.0004
 107329770.038 9  83633599.86347  20424164.222    20424163.497    20424164.134
        55.000          47.0004
 120217012.504 7  93675583.09644  22876533.536    22876534.427    22876532.830
        43.000          29.0004
 17  9 19  0 56 30.0000000  0 12G04G24G27G11G31G10G14G01G21G18G32G08
 127145040.911 6  99074049.89643  24194901.920    24194900.883    24194900.293
        39.000          19.0004
 129893270.715 7 101215534.94243  24717868.391    24717866.292    24717868.329
        42.000          23.0004
 121396795.162 7  94594903.51944  23101042.029    23101042.643    23101041.912
        42.000          28.0004
 122446361.488 6  95412750.91644  23300765.159    23300762.586    23300764.465
        40.000          24.0004
 121935831.040 7  95014931.07744  23203607.986    23203605.567    23203607.347
        45.000          27.0004
 111406402.334 8  86810201.06347  21199922.852    21199922.854    21199922.687
        52.000          43.0004
 108200688.641 8  84312220.58046  20589894.765    20589891.563    20589894.003
        49.000          41.0004
 129106779.673 6 100602686.85843  24568202.520    24568203.946    24568202.436
        40.000          23.0004
 126341521.497 6  98447926.26543  24041988.801    24041987.763    24041987.756
        39.000          18.0004
 119796373.940 7  93347831.81944  22796484.597    22796481.774    22796483.728
        44.000          28.0004
 107341034.773 9  83642377.58447  20426307.761    20426307.042    20426307.729
        54.000          47.0004
 120251688.439 7  93702603.27844  22883132.069    22883132.977    22883131.367
        43.000          28.0004
 17  9 19  0 57  0.0000000  0 12G04G24G27G11G31G10G14G01G21G18G32G08
 127232613.370 6  99142288.09443  24211567.691    24211565.757    24211565.640
        40.000          21.0004
 129972756.952 6 101277472.27443  24732990.971    24732992.013    24732992.696
        39.000          22.0004
 121479289.731 6  94659184.96444  23116740.096    23116740.863    23116739.509
        41.000          28.0004
 122361632.489 6  95346728.31743  23284641.164    23284638.889    23284640.844
        41.000          23.0004
 121830403.906 7  94932780.14144  23183545.172    23183543.323    23183544.947
        45.000          27.0004
 111436190.992 8  86833412.99847  21205591.818    21205591.432    21205591.494
        52.000          43.0004
 108181599.532 8  84297345.96346  20586262.417    20586258.947    20586261.363
        49.000          41.0004
 129003582.286 6 100522273.34343  24548564.337    24548565.970    24548564.491
        41.000          22.0004
 126437119.420 6  98522418.08843  24060181.296    24060178.947    24060179.910
        39.000          18.0004
 119847320.621 7  93387530.51244  22806179.384    22806176.784    22806178.840
        45.000          28.0004
 107352728.371 9  83651489.48347  20428532.913    20428532.339    20428532.926
        54.000          47.0004
 120286827.178 7  93729984.09544  22889819.212    22889819.759    22889818.576
        42.000          29.0004
 17  9 19  0 57 30.0000000  0 12G04G24G27G11G31G10G14G01G21G18G32G08
 127320193.402 6  99210532.22143  24228232.042    24228231.625    24228231.171
        39.000          21.0004
 130052615.259 6 101339699.51743  24748186.513    24748189.600    24748186.743
        37.000          21.0004
 121561982.759 7  94723621.04544  23132476.367    23132476.953    23132475.753
        42.000          28.0004
 122277298.944 6  95281013.85544  23268594.020    23268590.928    23268592.979
        40.000          24.0004
 121725088.582 7  94850716.29744  23163504.293    23163502.525    23163504.582
        43.000          28.0004
 111466159.934 8  86856765.41647  21211294.796    21211294.478    21211294.575
        51.000          43.0004
 108162950.094 8  84282813.94646  20582713.605    20582710.086    20582712.629
        49.000          41.0004
 128900464.601 6 100441921.91543  24528942.932    24528943.111    24528942.531
        41.000          23.0004
 126532922.145 6  98597069.50842  24078411.811    24078408.812    24078410.045
        38.000          17.0004
 119898390.615 7  93427325.29544  22815897.764    22815895.065    22815896.880
        43.000          28.0004
 107364850.293 9  83660935.14847  20430839.824    20430838.920    20430839.845
        55.000          47.0004
 120322427.191 7  93757724.35344  22896593.415    22896594.593    22896592.895
        42.000          29.0004
 17  9 19  0 58  0.0000000  0 12G04G24G27G11G31G10G14G01G21G18G32G08
 127407777.444 6  99278779.49143  24244897.487    24244898.630    24244897.093
        38.000          20.0004
 130132843.238 6 101402214.79143  24763452.685    24763456.620    24763452.622
        36.000          21.0004
 121644870.466 6  94788208.82244  23148249.339    23148249.885    23148248.488
        40.000          27.0004
 122193362.695 6  95215609.00143  23252621.121    23252618.635    23252620.429
        41.000          23.0004
 121619887.599 7  94768741.57644  23143485.505    23143483.259    23143484.867
        44.000          28.0004
 111496308.797 8  86880258.03247  21217031.656    21217031.401    21217031.630
        52.000          43.0004
 108144739.130 8  84268623.59646  20579247.994    20579244.698    20579247.257
        50.000          41.0004
 128797428.211 7 100361633.83044  24509335.002    24509335.845    24509335.222
        42.000          24.0004
 126628927.261 6  98671878.61542  24096680.815    24096678.117    24096679.139
        39.000          17.0004
 119949583.465 7  93467215.80244  22825640.030    22825636.988    22825638.814
        45.000          28.0004
 107377398.539 9  83670713.00847  20433227.667    20433226.812    20433227.628
        55.000          47.0004
 120358486.208 7  93785822.26944  22903455.494    22903456.173    22903454.642
        44.000          29.0004
 17  9 19  0 58 30.0000000  0 12G04G24G27G11G31G10G14G01G21G18G32G08
 127495362.872 6  99347027.82043  24261564.311    24261565.582    24261564.020
        37.000          19.0004
 130213438.694 6 101465016.41843  24778792.538    24778793.388    24778791.205
        39.000          21.0004
 121727949.806 6  94852945.92844  23164058.662    23164059.924    23164058.303
        40.000          28.0004
 122109826.632 6  95150515.97544  23236724.653    23236722.568    23236724.289
        40.000          24.0004
 121514803.946 7  94686858.29944  23123488.264    23123485.993    23123487.830
        44.000          27.0004
 111526637.970 8  86903891.15047  21222803.366    21222802.683    21222802.929
        52.000          43.0004
 108126965.859 8  84254774.30047  20575865.922    20575862.552    20575865.106
        48.000          42.0004
 128694475.402 7 100281410.89944  24489743.666    24489744.696    24489743.728
        42.000          25.0004
 126725132.931 6  98746844.02842  24114987.684    24114985.585    24114986.651
        38.000          17.0004
 120000899.780 7  93507202.53044  22835404.860    22835401.720    22835404.013
        45.000          28.0004
 107390371.838 9  83680822.08047  20435696.218    20435695.600    20435696.229
        54.000          47.0004
 120395002.113 7  93814276.20544  22910403.911    22910404.886    22910403.741
        43.000          29.0004
 17  9 19  0 59  0.0000000  0 12G04G24G27G11G31G10G14G01G21G18G32G08
 127582946.720 6  99415274.93143  24278231.072    24278231.697    24278230.293
        37.000          18.0004
 130294398.652 6 101528102.09843  24794199.804    24794199.375    24794198.986
        39.000          23.0004
 121811217.503 7  94917829.79844  23179903.919    23179904.940    23179903.972
        42.000          28.0004
 122026692.802 6  95085736.39644  23220904.517    23220902.474    23220903.688
        40.000          24.0004
 121409840.994 7  94605069.03944  23103514.659    23103511.540    23103515.030
        44.000          26.0004
 111557147.569 8  86927664.86547  21228609.046    21228608.169    21228608.842
        52.000          43.0004
 108109629.543 8  84241265.48847  20572566.896    20572563.514    20572566.086
        49.000          42.0004
 128591608.325 6 100201254.75444  24470168.018    24470169.714    24470168.596
        41.000          25.0004
 126821537.095 6  98821964.10742  24133332.213    24133331.067    24133332.155
        37.000          16.0004
 120052340.053 7  93547285.85244  22845193.998    22845190.283    22845192.981
        44.000          28.0004
 107403768.638 8  83691261.15447  20438245.454    20438244.766    20438245.364
        52.000          47.0004
 120431972.561 7  93843084.32744  22917440.090    22917439.491    22917439.299
        45.000          29.0004
 17  9 19  0 59 30.0000000  0 12G04G24G27G11G31G10G14G01G21G18G32G08
 127670525.945 6  99483518.41842  24294897.482    24294897.491    24294896.445
        38.000          16.0004
 130375720.993 6 101591470.17243  24809674.208    24809673.718    24809674.926
        41.000          23.0004
 121894670.040 6  94982857.70544  23195784.588    23195785.082    23195784.548
        41.000          28.0004
 121943963.904 6  95021272.34143  23205160.748    23205159.139    23205160.290
        39.000          22.0004
 121305001.763 7  94523376.18844  23083564.713    23083561.873    23083564.317
        45.000          27.0004
 111587837.542 8  86951579.13347  21234449.447    21234448.347    21234448.999
        51.000          43.0004
 108092729.463 7  84228096.60946  20569350.511    20569347.535    20569349.864
        47.000          41.0004
 128488828.872 6 100121166.87544  24450610.183    24450611.596    24450610.194
        41.000          25.0004
 126918137.822 6  98897237.33642  24151715.782    24151713.209    24151713.984
        38.000          16.0004
 120103904.437 7  93587465.88344  22855006.359    22855002.691    22855005.194
        43.000          28.0004
 107417587.143 9  83702028.82247  20440875.389    20440874.476    20440875.247
        54.000          47.0004
 120469395.026 7  93872244.66544  22924560.746    22924560.834    22924560.439
        42.000          29.0004
 17  9 19  1  0  0.0000000  0 12G04G24G27G11G31G10G14G01G21G18G32G08
 127758098.272 6  99551756.52843  24311563.528    24311561.761    24311561.878
        39.000          18.0004
 130457403.620 6 101655119.01543  24825217.492    24825217.021    24825218.228
        41.000          21.0004
 121978304.925 7  95048027.71344  23211700.085    23211700.278    23211699.827
        43.000          28.0004
 121861643.243 6  94957126.38043  23189496.278    23189494.068    23189495.795
        41.000          23.0004
 121200289.870 7  94441782.56544  23063638.451    23063635.350    23063638.633
        44.000          27.0004
 111618708.784 8  86975634.64447  21240323.679    21240323.180    21240323.720
        52.000          43.0004
 108076265.384 8  84215267.46746  20566217.391    20566214.372    20566216.678
        49.000          41.0004
 128386139.928 6 100041149.50744  24431067.865    24431070.659    24431068.487
        40.000          24.0004
 127014933.753 6  98972662.68342  24170135.740    24170133.143    24170134.363
        38.000          16.0004
 120155593.871 7  93627743.35644  22864842.331    22864838.693    22864841.243
        44.000          27.0004
 107431826.621 9  83713124.52247  20443584.780    20443584.343    20443584.751
        54.000          47.0004
 120507268.110 7  93901756.13244  22931766.981    22931767.746    22931767.381
        44.000          29.0004
 17  9 19  1  0 30.0000000  0 12G04G24G27G11G31G10G14G01G21G18G32G08
 127845660.905 6  99619987.09143  24328225.180    24328223.689    24328224.914
        39.000          19.0004
 130539443.968 6 101719046.57643  24840828.188    24840829.519    24840828.306
        39.000          21.0004
 122062119.079 6  95113337.40944  23227648.816    23227649.858    23227648.957
        41.000          28.0004
 121779733.414 6  94893300.55643  23173909.182    23173906.784    23173908.385
        40.000          22.0004
 121095708.431 7  94360290.62044  23043737.366    23043734.661    23043737.354
        44.000          27.0004
 111649761.648 8  86999831.67747  21246232.777    21246232.341    21246232.432
        52.000          43.0004
 108060237.223 8  84202778.00046  20563167.634    20563164.265    20563166.693
        49.000          41.0004
 128283543.792 6  99961204.48044  24411545.471    24411547.077    24411545.171
        39.000          24.0004
 127111923.046 6  99048238.70142  24188591.412    24188588.623    24188591.355
        38.000          14.0004
 120207408.555 7  93668118.41844  22874702.472    22874699.104    22874701.688
        44.000          27.0004
 107446485.662 9  83724547.15847  20446374.327    20446373.775    20446374.280
        55.000          47.0004
 120545589.492 7  93931616.92744  22939059.978    22939060.220    22939059.684
        43.000          29.0004
 17  9 19  1  1  0.0000000  0 12G04G24G27G11G31G10G14G01G21G18G32G08
 127933211.241 6  99688208.09843  24344885.363    24344884.276    24344884.398
        39.000          20.0004
 130621839.388 6 101783250.78743  24856507.346    24856509.481    24856506.373
        38.000          21.0004
 122146109.281 7  95178784.26644  23243632.467    23243632.678    23243632.215
        43.000          28.0004
 121698236.952 6  94829796.82143  23158400.497    23158398.393    23158400.260
        40.000          22.0004
 120991260.623 7  94278902.78544  23023861.538    23023858.629    23023861.906
        44.000          27.0004
 111680996.330 8  87024170.38147  21252176.701    21252176.657    21252176.607
        52.000          43.0004
 108044644.036 8  84190627.47546  20560200.242    20560197.018    20560199.286
        48.000          41.0004
 128181042.621 6  99881333.47844  24392040.701    24392041.790    24392039.733
        40.000          24.0004
 127209103.958 6  99123964.05542  24207084.323    24207081.867    24207084.183
        37.000          15.0004
 120259348.963 7  93708591.44444  22884586.309    22884583.085    22884585.427
        44.000          27.0004
 107461562.742 9  83736295.53947  20449243.461    20449242.663    20449243.354
        54.000          47.0004
 120584357.208 6  93961825.50844  22946436.737    22946437.265    22946436.805
        40.000          29.0004
 17  9 19  1  1 30.0000000  0 12G04G24G27G11G31G10G14G01G21G18G32G08
 128020745.941 6  99756416.89443  24361543.583    24361541.592    24361542.054
        39.000          20.0004
 130704587.828 6 101847730.07743  24872254.468    24872255.999    24872253.347
        37.000          20.0004
 122230272.103 7  95244365.65644  23259648.243    23259649.055    23259647.374
        42.000          28.0004
 121617156.245 6  94766617.08843  23142972.607    23142969.626    23142971.581
        41.000          23.0004
 120886949.705 7  94197621.61044  23004011.166    23004009.175    23004011.038
        43.000          27.0004
 111712412.882 8  87048650.80647  21258155.279    21258154.513    21258154.952
        52.000          43.0004
 108029484.743 8  84178815.04746  20557315.458    20557312.191    20557314.567
        48.000          41.0004
 128078638.530 6  99801538.11744  24372553.846    24372554.712    24372553.209
        41.000          24.0004
 127306474.326 6  99199837.02442  24225613.459    24225611.308    24225612.699
        36.000          15.0004
 120311415.421 7  93749162.69244  22894494.210    22894491.016    22894493.758
        44.000          27.0004
 107477056.167 9  83748368.34448  20452191.854    20452190.921    20452191.749
        55.000          48.0004
 120623568.693 7  93992379.88144  22953899.049    22953899.381    22953898.676
        45.000          29.0004
 17  9 19  1  2  0.0000000  0 12G04G24G27G11G31G10G14G01G21G18G32G08
 128108262.410 6  99824611.49543  24378197.043    24378196.267    24378196.265
        38.000          20.0004
 130787686.470 6 101912482.25543  24888069.628    24888068.380    24888068.205
        40.000          20.0004
 122314604.284 7  95310079.01244  23275696.234    23275696.837    23275694.848
        42.000          27.0004
 121536493.644 6  94703763.12844  23127623.202    23127620.014    23127622.461
        41.000          25.0004
 120782778.411 7  94116449.24244  22984189.408    22984186.489    22984188.044
        45.000          28.0004
 111744011.475 8  87073273.08047  21264168.157    21264167.478    21264168.030
        52.000          43.0004
 108014758.526 7  84167340.08646  20554513.198    20554509.929    20554512.176
        47.000          41.0004
 127976333.636 6  99721820.06344  24353084.778    24353086.912    24353084.977
        39.000          24.0004
 127404032.044 6  99275855.94542  24244179.914    24244175.575    24244177.809
        37.000          15.0004
 120363608.545 7  93789832.64444  22904426.377    22904422.974    22904425.465
        45.000          27.0004
 107492964.316 8  83760764.31447  20455218.974    20455218.333    20455218.955
        53.000          47.0004
 120663221.685 7  94023278.29344  22961444.836    22961445.183    22961444.386
        44.000          29.0004
 17  9 19  1  2 30.0000000  0 12G04G24G27G11G31G10G14G01G21G18G32G08
 128195757.921 6  99892789.75443  24394846.571    24394847.213    24394846.252
        39.000          19.0004
 130871132.787 6 101977505.35543  24903948.000    24903947.148    24903949.183
        40.000          20.0004
 122399102.786 7  95375921.97744  23291775.513    23291776.593    23291774.719
        42.000          27.0004
 121456251.594 6  94641236.89044  23112353.008    23112350.484    23112352.833
        41.000          25.0004
 120678750.451 7  94035388.56844  22964393.396    22964390.529    22964392.917
        45.000          29.0004
 111775792.471 8  87098037.49247  21270216.054    21270215.421    21270215.849
        50.000          43.0004
 108000464.988 7  84156202.27546  20551792.895    20551789.865    20551792.077
        46.000          41.0004
 127874130.393 6  99642181.21443  24333636.885    24333638.354    24333636.576
        40.000          23.0004
 127501775.392 6  99352019.52842  24262778.940    24262776.308    24262777.791
        36.000          16.0004
 120415928.234 7  93830601.21344  22914382.308    22914379.272    22914381.679
        44.000          27.0004
 107509285.830 9  83773482.38047  20458325.021    20458324.337    20458324.987
        54.000          47.0004
 120703313.993 7  94054519.03044  22969074.117    22969074.730    22969073.658
        43.000          29.0004
 17  9 19  1  3  0.0000000  0 12G04G24G27G11G31G10G14G01G21G18G32G08
 128283230.227 6  99960949.93342  24411491.730    24411492.429    24411491.556
        37.000          17.0004
 130954924.883 6 102042797.90443  24919893.482    24919892.508    24919893.846
        40.000          20.0004
 122483765.025 7  95441892.50244  23307885.654    23307887.462    23307885.495
        42.000          27.0004
 121376433.185 6  94579040.73144  23097164.198    23097160.863    23097163.557
        41.000          24.0004
 120574868.855 7  93954441.94644  22944624.880    22944622.391    22944624.578
        47.000          29.0004
 111807756.731 8  87122944.69947  21276298.058    21276297.897    21276298.086
        51.000          42.0004
 107986603.804 8  84145401.36646  20549155.282    20549152.303    20549154.604
        48.000          41.0004
 127772031.513 6  99562623.69043  24314208.442    24314209.436    24314207.487
        40.000          23.0004
 127599702.809 5  99428326.53742  24281412.654    24281411.262    24281412.076
        34.000          16.0004
 120468374.961 7  93871468.77244  22924362.703    22924358.869    22924361.659
        44.000          27.0004
 107526019.784 9  83786521.83147  20461509.403    20461508.733    20461509.325
        54.000          47.0004
 120743843.704 7  94086100.60144  22976786.202    22976787.409    22976785.703
        44.000          29.0004
 17  9 19  1  3 30.0000000  0 12G04G24G27G11G31G10G14G01G21G18G32G08
 128370676.370 5 100029089.72742  24428131.313    24428132.581    24428131.663
        35.000          16.0004
 131039060.471 6 102108358.11943  24935902.646    24935903.913    24935902.892
        39.000          20.0004
 122568587.553 7  95507987.91644  23324027.855    23324027.935    23324027.374
        43.000          27.0004
 121297040.715 7  94517176.49844  23082055.854    23082053.326    23082055.544
        42.000          24.0004
 120471136.709 7  93873611.76945  22924884.413    22924883.209    22924884.859
        46.000          30.0004
 111839904.252 8  87147994.70947  21282415.873    21282415.250    21282415.572
        50.000          42.0004
 107973174.022 8  84134936.61346  20546600.120    20546596.672    20546599.191
        49.000          41.0004
 127670039.096 6  99483149.11043  24294799.502    24294800.649    24294799.495
        39.000          22.0004
 127697812.301 5  99504775.44542  24300081.399    24300081.040    24300081.729
        34.000          15.0004
 120520949.526 7  93912435.95444  22934367.580    22934363.719    22934366.662
        45.000          27.0004
 107543164.387 9  83799881.27147  20464771.953    20464771.151    20464771.786
        55.000          47.0004
 120784808.486 6  94118021.19444  22984581.927    22984582.892    22984581.432
        41.000          29.0004
 17  9 19  1  4  0.0000000  0 12G04G24G27G11G31G10G14G01G21G18G32G08
 128458093.665 5 100097207.03142  24444765.543    24444767.689    24444765.675
        35.000          16.0004
 131123536.974 6 102174183.99843  24951976.642    24951979.735    24951976.916
        37.000          18.0004
 122653567.485 6  95574206.01244  23340198.730    23340198.564    23340198.391
        41.000          26.0004
 121218076.880 7  94455646.26344  23067030.871    23067026.944    23067029.627
        43.000          25.0004
 120367557.730 7  93792900.92345  22905175.028    22905172.054    22905175.106
        46.000          30.0004
 111872235.625 8  87173187.98147  21288568.102    21288567.898    21288567.928
        50.000          42.0004
 107960174.993 8  84124807.51447  20544126.333    20544123.093    20544125.669
        49.000          42.0004
 127568155.717 6  99403759.50043  24275411.657    24275412.788    24275410.976
        38.000          22.0004
 127796102.202 5  99581364.89942  24318787.419    24318785.367    24318785.349
        35.000          15.0004
 120573652.588 7  93953503.25344  22944396.455    22944392.701    22944395.269
        45.000          27.0004
 107560718.430 8  83813559.75247  20468112.220    20468111.458    20468112.240
        53.000          47.0004
 120826206.589 7  94150279.43244  22992459.788    22992460.823    22992459.341
        43.000          29.0004
 17  9 19  1  4 30.0000000  0 12G04G24G27G11G31G10G14G01G21G18G32G08
 128545479.447 5 100165299.79042  24461394.486    24461396.002    24461394.091
        35.000          16.0004
 131208351.615 6 102240273.33742  24968116.942    24968118.750    24968116.041
        37.000          17.0004
 122738701.560 6  95640544.19844  23356399.525    23356399.561    23356399.184
        40.000          26.0004
 121139544.132 7  94394451.93444  23052086.441    23052082.981    23052085.211
        42.000          26.0004
 120264134.793 7  93712311.69345  22885494.775    22885491.767    22885494.016
        47.000          31.0004
 111904751.019 8  87198524.63647  21294755.589    21294755.637    21294755.383
        51.000          42.0004
 107947605.814 8  84115013.36447  20541734.739    20541731.217    20541733.813
        48.000          42.0004
 127466383.613 6  99324456.59443  24256043.781    24256046.033    24256044.692
        37.000          21.0004
 127894570.480 5  99658093.36042  24337524.646    24337523.638    24337523.848
        35.000          15.0004
 120626484.662 7  93994671.09344  22954449.989    22954445.842    22954448.990
        45.000          27.0004
 107578680.224 9  83827555.95247  20471530.232    20471529.628    20471530.212
        54.000          47.0004
 120868035.152 7  94182873.09844  23000419.623    23000420.138    23000419.208
        42.000          29.0004
 17  9 19  1  5  0.0000000  0 11G04G24G27G11G31G10G14G21G18G32G08
 128632830.590 5 100233365.52742  24478017.460    24478018.403    24478016.263
        34.000          17.0004
 131293501.597 6 102306623.97442  24984320.784    24984321.710    24984320.187
        36.000          16.0004
 122823986.315 7  95706999.79344  23372629.260    23372628.774    23372628.517
        42.000          26.0004
 121061444.829 7  94333595.35244  23037223.927    23037220.422    23037223.454
        42.000          26.0004
 120160871.157 7  93631846.60045  22865844.272    22865841.604    22865844.136
        47.000          31.0004
 111937450.392 8  87224004.66147  21300978.498    21300978.054    21300978.151
        52.000          42.0004
 107935465.720 8  84105553.56347  20539424.304    20539421.064    20539423.554
        48.000          42.0004
 127993214.922 5  99734959.06742  24356296.825    24356295.415    24356294.667
        35.000          16.0004
 120679445.432 7  94035939.21644  22964527.167    22964524.702    22964526.695
        43.000          27.0004
 107597047.917 8  83841868.44347  20475025.219    20475024.877    20475025.467
        53.000          47.0004
 120910291.528 7  94215800.12344  23008460.602    23008461.290    23008460.558
        44.000          29.0004
 17  9 19  1  5 30.0000000  0 12G04G24G27G11G31G10G14G21G18G32G01G08
 128720144.754 6 100301402.45043  24494633.717    24494633.779    24494631.935
        36.000          18.0004
 131378984.928 5 102373234.33942  25000586.897    25000589.400    25000587.410
        35.000          15.0004
 122909418.959 6  95773570.64944  23388886.254    23388886.421    23388886.146
        41.000          26.0004
 120983781.487 7  94273078.49544  23022445.302    23022441.717    23022444.670
        42.000          25.0004
 120057770.049 7  93551508.13245  22846224.007    22846221.726    22846223.981
        46.000          30.0004
 111970334.475 8  87249628.61547  21307236.352    21307235.500    21307235.799
        51.000          42.0004
 107923754.096 8  84096427.62747  20537195.631    20537192.315    20537194.752
        49.000          42.0004
 128092033.881 5  99811960.76442  24375099.657    24375100.137    24375099.141
        33.000          15.0004
 120732535.814 7  94077308.32744  22974630.375    22974627.319    22974629.556
        42.000          27.0004
 107615820.441 9  83856496.38847  20478597.685    20478597.214    20478597.639
        54.000          47.0004
 127263172.788 6  99166109.54143  24217376.571    24217378.122    24217377.168
        37.000          20.0004
 120952973.769 7  94249058.98644  23016582.388    23016583.377    23016582.101
        43.000          28.0004
 17  9 19  1  6  0.0000000  0 12G04G24G27G11G31G10G14G01G21G18G32G08
 128807418.692 6 100369408.02943  24511242.538    24511242.213    24511241.511
        38.000          19.0004
 131464798.765 5 102440102.28942  25016917.424    25016919.391    25016918.169
        35.000          14.0004
 122994995.906 6  95840253.94044  23405169.693    23405171.040    23405169.874
        39.000          25.0004
 120906556.367 7  94212903.10144  23007750.816    23007746.170    23007749.872
        44.000          26.0004
 119954834.340 7  93471298.54645  22826635.754    22826633.547    22826635.865
        46.000          31.0004
 112003403.053 8  87275396.33847  21313528.777    21313528.281    21313528.497
        51.000          43.0004
 107912469.485 7  84087634.42847  20535048.390    20535044.977    20535047.628
        47.000          42.0004
 127161743.668 6  99087078.99943  24198076.207    24198078.490    24198075.747
        37.000          19.0004
 128191025.018 5  99889096.64942  24393935.906    24393937.106    24393936.601
        32.000          16.0004
 120785755.692 7  94118778.34844  22984757.749    22984754.887    22984757.285
        43.000          27.0004
 107634995.717 8  83871438.16347  20482246.483    20482246.173    20482246.655
        53.000          47.0004
 120996079.299 7  94282647.70144  23024784.739    23024786.795    23024784.274
        42.000          28.0004
 17  9 19  1  6 30.0000000  0 12G04G24G27G11G31G10G14G21G18G32G01G08
 128894650.462 6 100437380.76543  24527842.086    24527841.937    24527841.401
        38.000          21.0004
 131550941.091 6 102507226.20042  25033311.709    25033310.379    25033311.742
        37.000          14.0004
 123080714.591 6  95907047.68544  23421481.483    23421483.239    23421481.121
        41.000          25.0004
 120829772.594 7  94153071.59044  22993138.656    22993134.924    22993138.385
        43.000          26.0004
 119852068.070 7  93391220.99345  22807079.578    22807078.543    22807079.601
        45.000          31.0004
 112036657.067 8  87301308.55247  21319856.487    21319856.008    21319856.221
        51.000          42.0004
 107901612.078 8  84079174.12047  20532982.225    20532978.967    20532981.390
        49.000          42.0004
 128290186.764 5  99966365.49142  24412807.634    24412807.113    24412806.388
        35.000          15.0004
 120839106.292 7  94160350.22044  22994910.777    22994907.488    22994909.389
        43.000          26.0004
 107654572.800 9  83886693.03247  20485972.095    20485971.385    20485972.010
        55.000          47.0004
 127060447.293 6  99008141.59942  24178798.644    24178798.758    24178798.254
        36.000          17.0004
 121039606.337 7  94316564.84444  23033067.764    23033069.354    23033067.680
        43.000          28.0004
 17  9 19  1  7  0.0000000  0 12G04G24G27G11G31G10G14G21G18G32G01G08
 128981837.110 6 100505318.35543  24544433.354    24544432.962    24544432.843
        39.000          21.0004
 131637409.041 6 102574603.80042  25049765.674    25049764.546    25049764.855
        37.000          14.0004
 123166571.867 6  95973949.41944  23437819.939    23437821.720    23437819.316
        41.000          26.0004
 120753432.378 7  94093585.74044  22978611.939    22978607.781    22978611.020
        42.000          26.0004
 119749474.098 7  93311277.71145  22787557.154    22787555.005    22787556.722
        47.000          30.0004
 112070096.756 8  87327365.44747  21326219.876    21326219.255    21326219.685
        51.000          42.0004
 107891181.020 8  84071046.02946  20530997.140    20530993.860    20530996.481
        50.000          41.0004
 128389517.566 6 100043766.07942  24431711.632    24431709.523    24431709.799
        38.000          16.0004
 120892587.575 7  94202023.93244  23005087.356    23005084.311    23005087.007
        45.000          26.0004
 107674550.067 9  83902259.73547  20489773.659    20489773.062    20489773.548
        54.000          47.0004
 126959265.972 6  98929299.03643  24159545.146    24159545.806    24159544.145
        36.000          18.0004
 121083552.063 6  94350808.23944  23041430.810    23041431.440    23041430.404
        41.000          28.0004
 17  9 19  1  7 30.0000000  0 12G04G24G27G11G31G10G14G21G18G32G01G08
 129068975.775 6 100573218.54843  24561015.353    24561014.747    24561014.863
        39.000          20.0004
 131724199.988 6 102642233.09042  25066280.864    25066280.980    25066280.180
        36.000          13.0004
 123252564.278 6  96040956.44344  23454183.740    23454185.113    23454183.629
        39.000          26.0004
 120677538.061 7  94034447.34044  22964169.800    22964165.620    22964169.189
        43.000          27.0004
 119647055.330 7  93231470.95345  22768067.049    22768065.216    22768066.913
        45.000          30.0004
 112103722.196 8  87353567.08947  21332618.584    21332618.261    21332618.356
        51.000          42.0004
 107881174.873 7  84063249.04946  20529092.887    20529089.772    20529092.194
        47.000          41.0004
 128489015.014 6 100121296.48542  24450648.291    24450642.013    24450644.418
        39.000          15.0004
 120946200.160 7  94243799.95644  23015289.787    23015286.511    23015289.079
        44.000          26.0004
 107694925.703 8  83918136.85247  20493651.083    20493650.448    20493650.852
        53.000          47.0004
 126858209.794 5  98850554.02242  24140313.235    24140315.520    24140313.098
        35.000          17.0004
 121127914.383 7  94385376.25244  23049873.077    23049873.589    23049872.665
        44.000          28.0004
 17  9 19  1  8  0.0000000  0 12G04G24G27G11G31G10G14G21G18G32G01G08
 129156063.955 6 100641079.42243  24577585.737    24577588.090    24577586.259
        39.000          21.0004
 131811312.033 5 102710112.57141  25082858.262    25082858.330    25082856.001
        35.000          11.0004
 123338688.913 6  96108066.49744  23470572.951    23470574.064    23470572.742
        41.000          26.0004
 120602092.406 7  93975658.54344  22949813.390    22949808.859    22949812.032
        44.000          26.0004
 119544815.220 7  93151803.39445  22748611.407    22748609.153    22748611.205
        45.000          30.0004
 112137533.847 8  87379913.82247  21339053.009    21339052.517    21339052.636
        50.000          42.0004
 107871593.220 8  84055782.83047  20527269.253    20527266.487    20527268.624
        48.000          42.0004
 128588677.234 6 100198955.28342  24469612.464    24469607.400    24469609.312
        38.000          14.0004
 120999944.363 7  94285678.53744  23025517.398    23025514.134    23025516.469
        45.000          27.0004
 107715698.316 8  83934323.30448  20497603.692    20497603.163    20497603.781
        53.000          48.0004
 126757281.318 6  98771908.51142  24121108.531    24121109.063    24121107.369
        36.000          17.0004
 121172690.537 7  94420266.72244  23058393.630    23058393.888    23058393.112
        42.000          28.0004
 17  9 19  1  8 30.0000000  0 12G04G24G27G11G31G10G14G21G18G32G01G08
 129243098.664 6 100708898.61543  24594149.609    24594150.129    24594148.911
        39.000          19.0004
 131898741.879 5 102778239.76441  25099495.898    25099495.804    25099494.120
        34.000           9.0004
 123424942.375 7  96175276.92544  23486986.549    23486987.192    23486986.240
        42.000          26.0004
 120527097.244 7  93917220.77744  22935541.537    22935537.204    22935541.093
        44.000          25.0004
 119442756.890 7  93072277.48645  22729190.363    22729188.269    22729190.196
        45.000          30.0004
 112171531.815 8  87406405.73147  21345522.670    21345522.247    21345522.416
        51.000          42.0004
 107862434.876 8  84048646.47446  20525527.024    20525523.710    20525526.001
        48.000          41.0004
 128688502.168 6 100276740.87842  24488606.878    24488604.213    24488604.424
        37.000          14.0004
 121053820.014 7  94327659.55244  23035769.509    23035766.336    23035768.626
        44.000          27.0004
 107736866.060 9  83950817.65647  20501632.020    20501631.263    20501632.112
        54.000          47.0004
 126656482.661 6  98693364.12643  24101926.300    24101927.556    24101925.586
        37.000          19.0004
 121217878.231 7  94455477.89344  23066992.246    23066992.437    23066992.372
        44.000          28.0004
 17  9 19  1  9  0.0000000  0 12G04G24G27G11G31G10G14G21G18G32G01G08
 129330077.603 6 100776674.37343  24610699.749    24610701.486    24610699.901
        38.000          18.0004
 131986487.058 5                  25116191.934
        34.000
 123511321.815 6  96242585.52544  23503424.261    23503425.300    23503424.250
        40.000          27.0004
 120452555.483 7  93859136.28344  22921356.786    22921352.538    22921356.284
        43.000          26.0004
 119340883.733 7  92992895.87845  22709804.605    22709802.633    22709804.517
        47.000          30.0004
 112205716.672 8  87433043.28047  21352027.773    21352027.258    21352027.516
        51.000          42.0004
 107853699.085 8  84041839.37447  20523864.706    20523861.277    20523863.807
        48.000          42.0004
 128788487.870 5 100354651.78442  24507630.901    24507630.536    24507631.043
        34.000          15.0004
 121107828.300 7  94369743.90444  23046047.232    23046043.804    23046045.680
        45.000          27.0004
 107758427.651 9  83967618.90647  20505735.103    20505734.227    20505735.113
        54.000          47.0004
 126555816.568 6  98614923.05243  24082769.837    24082771.751    24082769.712
        37.000          19.0004
 121263475.286 7  94491008.04144  23075669.103    23075669.354    23075669.224
        43.000          27.0004
 17  9 19  1  9 30.0000000  0 12G04G24G27G11G31G10G14G21G18G32G01G08
 129416998.834 5 100844405.17442  24627238.800    24627241.614    24627238.276
        34.000          13.0004
 132074546.514 5                  25132950.313
        33.000
 123597824.923 6  96309990.50044  23519884.720    23519886.370    23519885.069
        41.000          27.0004
 120378470.262 7  93801407.55644  22907258.236    22907254.647    22907257.996
        42.000          26.0004
 119239199.706 7  92913661.62745  22690454.650    22690452.136    22690455.011
        46.000          30.0004
 112240089.625 8  87459827.40147  21358568.450    21358568.476    21358568.206
        51.000          42.0004
 107845385.831 8  84035361.52047  20522282.815    20522279.183    20522281.943
        49.000          42.0004
 128888633.380 6 100432687.23842  24526689.157    24526688.869    24526688.233
        36.000          16.0004
 121161970.196 7  94411932.37844  23056349.539    23056346.840    23056348.532
        44.000          28.0004
 107780382.330 8  83984726.45247  20509912.760    20509912.051    20509912.769
        52.000          47.0004
 126455286.193 6  98536587.73143  24063639.533    24063641.167    24063639.522
        37.000          20.0004
 121309479.876 7  94526855.75744  23084424.000    23084423.758    23084423.430
        44.000          27.0004
 17  9 19  1 10  0.0000000  0 12G04G24G27G11G31G10G14G21G18G32G01G08
 129503858.551 5 100912088.07741  24643768.521    24643770.052    24643765.425
        33.000          10.0004
 132162916.406 5                  25149768.572
        35.000
 123684447.444 6  96377488.49544  23536368.702    23536369.595    23536368.154
        41.000          26.0004
 120304842.744 7  93744035.49744  22893248.296    22893243.596    22893247.061
        43.000          25.0004
 119137706.893 7  92834576.37245  22671141.165    22671138.804    22671141.517
        46.000          31.0004
 112274649.776 8  87486757.37547  21365145.584    21365145.029    21365145.085
        51.000          42.0004
 107837493.195 8  84029211.42047  20520780.735    20520777.241    20520779.850
        49.000          42.0004
 128988935.710 6 100510844.83842  24545777.576    24545775.964    24545775.740
        38.000          16.0004
 121216244.878 7  94454224.30844  23066677.761    23066674.811    23066676.903
        44.000          27.0004
 107802727.306 9  84002138.12447  20514165.059    20514164.256    20514165.008
        54.000          47.0004
 126354892.739 6  98458359.09343  24044535.232    24044537.389    24044535.293
        37.000          20.0004
 121355888.545 7  94563018.33544  23093255.170    23093255.481    23093255.243
        42.000          27.0004
 17  9 19  1 10 30.0000000  0 12G04G24G27G11G31G10G14G21G18G32G01G08
 129590654.023 5 100979720.81641  24660285.466    24660286.758    24660282.966
        34.000           9.0004
 132251593.879 5                  25166642.530
        34.000
 123771185.967 6  96445076.89244  23552875.393    23552875.676    23552874.500
        41.000          27.0004
 120231675.238 7  93687021.86744  22879324.763    22879320.498    22879324.023
        43.000          26.0004
 119036408.600 7  92755642.71245  22651865.220    22651862.643    22651865.080
        46.000          32.0004
 112309397.226 8  87513833.30847  21371757.853    21371756.860    21371757.277
        52.000          43.0004
 107830019.814 7  84023388.01646  20519358.599    20519355.179    20519357.876
        47.000          41.0004
 129089392.612 6 100589122.86842  24564893.959    24564891.933    24564892.537
        37.000          14.0004
 121270652.543 7  94496619.88444  23077031.882    23077027.836    23077030.889
        44.000          27.0004
 107825460.700 8  84019852.46047  20518491.110    20518490.240    20518491.037
        52.000          47.0004
 126254638.424 6  98380238.86843  24025457.465    24025458.663    24025457.355
        37.000          19.0004
 121402698.488 7  94599493.59944  23102162.972    23102163.593    23102162.410
        43.000          27.0004
 17  9 19  1 11  0.0000000  0 12G04G24G27G11G31G10G14G21G18G32G01G08
 129677383.390 5 101047302.07241  24676790.366    24676790.790    24676791.602
        34.000          11.0004
 132340577.204 5                  25183571.801
        32.000
 123858038.368 7  96512754.04244  23569403.545    23569402.954    23569402.848
        42.000          27.0004
 120158970.794 7  93630369.05644  22865489.955    22865485.292    22865488.912
        43.000          26.0004
 118935308.877 7  92676863.76845  22632626.792    22632623.884    22632626.280
        46.000          32.0004
 112344333.343 8  87541056.25447  21378405.379    21378405.048    21378405.333
        49.000          42.0004
 107822966.136 8  84017891.65447  20518016.272    20518012.857    20518015.470
        48.000          42.0004
 129190002.963 6 100667520.48042  24584038.355    24584036.629    24584036.454
        37.000          12.0004
 121325195.039 7  94539120.51944  23087410.462    23087406.910    23087409.329
        45.000          27.0004
 107848581.934 8  84037869.00947  20522890.896    20522890.038    20522890.857
        52.000          47.0004
 126154526.592 6  98302229.67043  24006406.355    24006407.477    24006406.890
        36.000          18.0004
 121449908.232 7  94636280.39944  23111146.425    23111147.467    23111145.756
        42.000          27.0004
 17  9 19  1 11 30.0000000  0 11G04G27G11G31G10G14G21G18G32G01G08
 129764044.637 5 101114830.25941  24693281.792    24693280.712    24693282.408
        34.000          11.0004
 123945002.196 6  96580518.03044  23585951.770    23585951.620    23585951.738
        41.000          26.0004
 120086732.680 7  93574079.64744  22851742.400    22851739.098    22851741.986
        42.000          26.0004
 118834411.285 7  92598242.33345  22613426.264    22613424.034    22613425.874
        45.000          32.0004
 112379459.031 8  87568426.92047  21385089.959    21385089.186    21385089.703
        52.000          42.0004
 107816331.640 8  84012721.92447  20516753.636    20516750.409    20516752.869
        48.000          42.0004
 129290765.430 5 100746036.65042  24603210.767    24603211.604    24603211.620
        35.000          12.0004
 121379872.757 7  94581726.50544  23097815.361    23097812.140    23097814.322
        44.000          27.0004
 107872090.022 9  84056187.00047  20527364.364    20527363.476    20527364.305
        54.000          47.0004
 126054560.378 6  98224333.94143  23987384.229    23987384.923    23987383.737
        38.000          18.0004
 121497515.870 7  94673377.23744  23120205.561    23120207.164    23120205.267
        43.000          27.0004
 17  9 19  1 12  0.0000000  0 11G04G27G11G31G10G14G21G18G32G01G08
 129850633.988 5 101182302.38342  24709758.875    24709759.560    24709757.762
        34.000          13.0004
 124032073.151 6  96648365.47844  23602519.957    23602519.951    23602519.348
        40.000          24.0004
 120014962.052 7  93518154.49144  22838085.569    22838081.743    22838084.730
        45.000          27.0004
 118733718.001 7  92519780.10345  22594264.079    22594262.447    22594264.326
        47.000          32.0004
 112414773.476 8  87595944.66547  21391810.011    21391809.363    21391809.641
        52.000          42.0004
 107810114.188 8  84007877.15947  20515571.032    20515567.323    20515570.145
        49.000          42.0004
 129391676.672 5 100824668.78942  24622414.524    24622412.976    24622412.916
        35.000          14.0004
 121434685.237 7  94624437.51344  23108245.574    23108242.794    23108245.031
        42.000          27.0004
 107895982.108 9  84074804.21747  20531910.749    20531910.071    20531910.810
        54.000          47.0004
 125954740.938 6  98146552.57243  23968389.285    23968390.354    23968388.812
        37.000          20.0004
 121545517.546 7  94710781.10344  23129340.413    23129341.211    23129339.409
        42.000          27.0004
 17  9 19  1 12 30.0000000  0 11G04G27G11G31G10G14G21G18G32G01G08
 129937149.080 5 101249716.65342  24726221.253    24726223.567    24726221.874
        34.000          15.0004
 124119248.313 6  96716294.11743  23619109.254    23619109.170    23619108.157
        39.000          23.0004
 119943661.291 7  93462595.46844  22824517.028    22824513.999    22824516.370
        43.000          28.0004
 118633232.209 7  92441479.53345  22575142.283    22575140.629    22575142.403
        47.000          32.0004
 112450277.155 8  87623609.85946  21398565.800    21398565.334    21398565.447
        50.000          41.0004
 107804312.855 8  84003356.64847  20514466.319    20514463.317    20514465.889
        48.000          42.0004
 129492734.771 5 100903415.31842  24641644.792    24641644.134    24641644.311
        35.000          13.0004
 121489633.172 6  94667254.06444  23118701.306    23118698.937    23118700.804
        41.000          25.0004
 107920256.708 9  84093719.49047  20536530.319    20536529.490    20536530.143
        54.000          47.0004
 125855070.881 6  98068887.62043  23949422.631    23949423.620    23949422.690
        39.000          21.0004
 121593911.115 6  94748490.36644  23138548.810    23138550.153    23138548.613
        41.000          27.0004
 17  9 19  1 13  0.0000000  0 11G04G27G11G31G10G14G21G18G32G01G08
 130023586.552 5 101317070.43042  24742670.024    24742671.829    24742670.099
        35.000          16.0004
 124206523.855 6  96784300.98143  23635716.941    23635717.586    23635716.152
        39.000          22.0004
 119872832.466 7  93407404.19244  22811039.209    22811035.546    22811038.076
        44.000          28.0004
 118532957.492 7  92363343.47145  22556060.680    22556058.779    22556060.439
        47.000          32.0004
 112485969.795 8  87651422.30347  21405358.018    21405357.812    21405357.797
        51.000          42.0004
 107798926.324 8  83999159.36746  20513441.858    20513438.328    20513440.671
        48.000          41.0004
 129593937.587 5 100982274.62742  24660903.698    24660902.561    24660902.906
        35.000          14.0004
 121544715.941 7  94710175.67544  23129183.579    23129180.535    23129182.889
        42.000          25.0004
 107944911.575 9  84112931.07747  20541221.483    20541221.005    20541221.680
        55.000          47.0004
 125755552.039 6  97991340.50443  23930484.977    23930485.596    23930484.561
        39.000          21.0004
 121642693.508 7  94786502.59544  23147832.345    23147833.774    23147832.227
        43.000          28.0004
 17  9 19  1 13 30.0000000  0 12G04G22G27G11G31G10G14G21G18G32G01G08
 130109944.969 6 101384362.61942  24759104.901    24759105.759    24759104.224
        37.000          17.0004
 129498539.816 6 100907959.67542  24642753.572    24642749.163    24642752.844
        38.000          12.0004
 124293897.851 6  96852384.55743  23652342.476    23652344.660    23652342.163
        38.000          22.0004
 119802478.785 7  93352583.15044  22797650.146    22797647.908    22797649.642
        43.000          28.0004
 118432897.273 7  92285374.52645  22537020.016    22537017.761    22537019.798
        47.000          32.0004
 112521852.932 8  87679383.17747  21412186.627    21412186.196    21412186.267
        51.000          42.0004
 107793954.683 8  83995285.36547  20512495.367    20512492.357    20512494.616
        48.000          42.0004
 129695284.014 5 101061245.79742  24680189.596    24680189.000    24680187.525
        35.000          13.0004
 121599935.193 7  94753203.65244  23139691.433    23139688.622    23139690.663
        42.000          24.0004
 107969946.261 9  84132438.62947  20545985.618    20545984.811    20545985.485
        54.000          47.0004
 125656188.026 6  97913914.03943  23911575.620    23911577.429    23911576.067
        38.000          22.0004
 121691863.299 7  94824816.69844  23157189.433    23157190.473    23157189.007
        43.000          28.0004
 17  9 19  1 14  0.0000000  0 12G04G22G27G11G31G10G14G21G18G32G01G08
 130196221.124 6 101451590.72343  24775524.267    24775523.972    24775522.528
        40.000          19.0004
 129423979.942 5 100849861.00942  24628563.743    24628560.602    24628562.914
        35.000          13.0004
 124381366.740 6  96920542.06943  23668987.605    23668989.152    23668986.922
        38.000          22.0004
 119732601.803 7  93298133.56044  22784353.954    22784350.571    22784352.728
        45.000          28.0004
 118333054.387 7  92207574.93645  22518019.803    22518017.981    22518019.854
        45.000          32.0004
 112557926.276 8  87707492.27147  21419051.351    21419050.500    21419050.969
        51.000          42.0004
 107789396.419 8  83991733.48247  20511628.166    20511624.886    20511627.318
        48.000          42.0004
 129796771.608 5 101140326.99242  24699502.844    24699501.379    24699500.989
        35.000          12.0004
 121655290.899 6  94796337.94844  23150225.471    23150222.516    23150224.530
        41.000          24.0004
 107995358.502 9  84152240.37747  20550821.566    20550820.652    20550821.457
        54.000          46.0004
 125556980.647 6  97836609.62843  23892698.290    23892698.842    23892697.381
        38.000          21.0004
 121741417.230 6  94863430.12944  23166619.041    23166619.882    23166618.926
        41.000          28.0004
 17  9 19  1 14 30.0000000  0 12G04G22G27G11G31G10G14G21G18G32G01G08
 130282412.352 6 101518752.62743  24791925.384    24791925.510    24791924.831
        39.000          20.0004
 129349400.096 6 100791746.87442  24614373.756    24614369.422    24614371.329
        37.000          12.0004
 124468927.257 6  96988771.00643  23685651.014    23685650.472    23685649.441
        39.000          21.0004
 119663203.914 7  93244057.28344  22771147.038    22771144.372    22771147.083
        43.000          28.0004
 118233432.404 7  92129947.46745  22499063.584    22499060.377    22499063.053
        47.000          32.0004
 112594190.102 8  87735749.79747  21425951.677    21425951.163    21425951.473
        51.000          42.0004
 107785250.295 7  83988502.75246  20510839.198    20510835.782    20510838.380
        47.000          41.0004
 129898398.109 6 101219516.40141  24718841.763    24718840.212    24718839.653
        36.000          11.0004
 121710783.292 6  94839578.75744  23160784.921    23160782.437    23160784.378
        41.000          24.0004
 108021146.520 9  84172334.93947  20555728.755    20555727.961    20555728.632
        54.000          47.0004
 125457932.351 6  97759429.17943  23873849.522    23873851.120    23873848.908
        38.000          21.0004
 121791352.402 7  94902340.62044  23176121.410    23176122.653    23176120.908
        43.000          28.0004
 17  9 19  1 15  0.0000000  0 12G04G22G27G11G31G10G14G21G18G32G01G08
 130368516.061 6 101585846.34643  24808309.553    24808310.205    24808310.390
        38.000          20.0004
 129274800.290 6 100733617.18242  24600177.312    24600173.461    24600174.890
        37.000          14.0004
 124556576.206 6  97057068.85843  23702330.408    23702329.695    23702329.559
        40.000          22.0004
 119594287.060 7  93190355.86444  22758033.909    22758030.055    22758032.408
        44.000          28.0004
 118134033.777 7  92052494.05945  22480147.857    22480145.656    22480148.090
        46.000          32.0004
 112630644.639 8  87764155.92147  21432889.050    21432888.571    21432888.636
        51.000          42.0004
 107781515.107 8  83985592.22247  20510128.367    20510124.811    20510127.455
        49.000          42.0004
 130000161.156 5 101298812.23342  24738206.903    24738204.792    24738206.365
        35.000          12.0004
 121766412.476 7  94882926.14643  23171371.204    23171368.158    23171370.096
        42.000          23.0004
 108047308.560 9  84192720.93847  20560707.502    20560706.444    20560707.454
        54.000          47.0004
 125359045.378 6  97682374.42743  23855031.801    23855033.829    23855031.624
        37.000          21.0004
 121841666.532 7  94941546.42544  23185696.203    23185696.502    23185695.679
        42.000          28.0004
 17  9 19  1 15 30.0000000  0 12G04G22G27G11G31G10G14G21G18G32G01G08
 130454529.656 6 101652869.87343  24824677.371    24824677.015    24824677.481
        38.000          19.0004
 129200180.843 5 100675472.20842  24585975.057    24585971.673    24585973.897
        34.000          14.0004
 124644310.682 7  97125433.34344  23719026.005    23719026.257    23719025.733
        42.000          24.0004
 119525853.914 7  93137031.34844  22745010.727    22745007.567    22745009.854
        44.000          28.0004
 118034862.069 7  91975217.48345  22461275.697    22461273.884    22461275.640
        45.000          32.0004
 112667290.496 8  87792711.13246  21439861.982    21439861.876    21439861.891
        52.000          41.0004
 107778189.909 8  83983001.16946  20509495.641    20509492.094    20509494.795
        49.000          41.0004
 130102059.291 5 101378213.36141  24757595.462    24757596.549    24757596.516
        34.000          10.0004
 121822179.240 7  94926380.75943  23181983.549    23181980.135    23181982.283
        43.000          23.0004
 108073843.182 9  84213397.27247  20565756.966    20565755.737    20565756.692
        55.000          47.0004
 125260322.556 6  97605447.58243  23836244.469    23836247.793    23836245.430
        37.000          22.0004
 121892356.795 7  94981045.30544  23195341.984    23195342.600    23195341.621
        44.000          28.0004
 17  9 19  1 16  0.0000000  0 12G04G22G27G11G31G10G14G21G18G32G01G08
 130540451.671 6 101719822.04742  24841029.051    24841028.561    24841028.152
        38.000          17.0004
 129125543.055 6 100617312.94742  24571772.700    24571768.384    24571770.767
        36.000          13.0004
 124732128.571 6  97193862.81344  23735736.936    23735738.209    23735736.485
        40.000          25.0004
 119457907.426 7  93084086.04344  22732080.218    22732077.450    22732079.916
        43.000          27.0004
 117935921.638 7  91898121.07945  22442448.358    22442445.964    22442448.374
        46.000          32.0004
 112704128.916 8  87821416.39146  21446872.077    21446871.719    21446871.983
        49.000          41.0004
 107775274.849 8  83980729.70947  20508940.791    20508937.537    20508940.156
        49.000          42.0004
 130204091.190 5 101457718.72542  24777011.467    24777013.804    24777011.588
        34.000          12.0004
 121878084.921 7  94969943.62243  23192621.793    23192618.964    23192620.478
        42.000          23.0004
 108100749.602 8  84234363.31447  20570876.642    20570875.716    20570876.703
        52.000          47.0004
 125161767.173 6  97528651.20943  23817490.609    23817493.466    23817491.324
        38.000          22.0004
 121943422.050 7  95020836.38644  23205059.962    23205059.904    23205058.960
        44.000          28.0004
 17  9 19  1 16 30.0000000  0 12G04G22G27G11G31G10G14G21G18G32G01G08
 130626279.043 6 101786700.48243  24857360.797    24857362.343    24857361.411
        39.000          18.0004
 129050886.496 6 100559138.99542  24557566.654    24557561.242    24557564.763
        38.000          14.0004
 124820026.417 6  97262354.58344  23752461.905    23752463.895    23752462.131
        39.000          24.0004
 119390449.655 7  93031521.56044  22719243.950    22719240.938    22719243.276
        42.000          27.0004
 117837215.000 7  91821206.86445  22423665.000    22423662.559    22423664.498
        47.000          32.0004
 112741159.814 8  87850271.62646  21453919.463    21453918.995    21453919.015
        52.000          41.0004
 107772768.592 7  83978776.79247  20508464.054    20508460.510    20508463.225
        47.000          42.0004
 130306254.584 5 101537326.53641  24796451.979    24796453.500    24796451.918
        35.000          11.0004
 121934129.522 7  95013614.72143  23203286.578    23203283.822    23203285.713
        42.000          23.0004
 108128025.786 9  84255617.49047  20576067.194    20576066.418    20576067.223
        54.000          47.0004
 125063381.390 6  97451986.98043  23798769.850    23798771.304    23798768.890
        39.000          23.0004
 121994858.938 7  95060917.04244  23214847.520    23214848.218    23214847.515
        43.000          28.0004
 17  9 19  1 17  0.0000000  0 12G04G22G27G11G31G10G14G21G18G32G01G08
 130712008.649 6 101853502.71442  24873675.910    24873675.344    24873675.556
        38.000          16.0004
 128976210.697 6 100500950.10142  24543355.732    24543351.401    24543353.917
        36.000          17.0004
 124908000.496 6  97330905.76243  23769203.620    23769204.853    23769202.412
        40.000          22.0004
 119323482.003 7  92979338.99544  22706500.054    22706497.146    22706499.359
        43.000          27.0004
 117738745.236 8  91744477.23245  22404926.958    22404924.578    22404926.362
        48.000          33.0004
 112778382.961 8  87879276.66646  21461002.443    21461002.126    21461002.055
        51.000          41.0004
 107770669.217 8  83977140.92647  20508064.430    20508061.144    20508063.573
        49.000          42.0004
 130408546.833 5 101617039.69841  24815918.483    24815917.651    24815914.446
        34.000          11.0004
 121990312.659 7  95057393.77544  23213977.992    23213975.051    23213976.896
        43.000          24.0004
 108155669.366 8  84277157.94447  20581327.557    20581326.697    20581327.424
        53.000          46.0004
 124965166.923 6  97375456.26544  23780080.593    23780081.693    23780079.528
        39.000          24.0004
 122046664.215 7  95101284.75844  23224705.996    23224706.701    23224705.153
        42.000          28.0004
 17  9 19  1 17 30.0000000  0 12G04G22G27G11G31G10G14G21G18G32G01G08
 130797638.499 6 101920227.23642  24889970.281    24889969.923    24889969.047
        36.000          15.0004
 128901516.284 6 100442746.71942  24529142.628    24529137.283    24529140.714
        37.000          16.0004
 124996048.107 6  97399514.23443  23785958.276    23785960.106    23785957.359
        39.000          23.0004
 119257007.315 7  92927540.56244  22693850.379    22693847.783    22693849.716
        42.000          27.0004
 117640515.820 7  91667934.89045  22386234.221    22386232.003    22386233.824
        47.000          32.0004
 112815799.200 8  87908432.17046  21468122.940    21468122.156    21468122.486
        50.000          41.0004
 107768976.475 7  83975821.92247  20507742.275    20507738.923    20507741.531
        47.000          42.0004
 130510966.184 5                  24835409.377
        35.000
 122046635.208 7  95101281.44944  23224696.042    23224692.424    23224695.053
        42.000          24.0004
 108183679.148 8  84298983.75047  20586657.456    20586656.898    20586657.500
        53.000          47.0004
 124867126.866 6  97299061.47144  23761423.361    23761424.771    23761423.590
        39.000          24.0004
 122098835.756 7  95141937.87144  23234633.598    23234634.821    23234633.009
        43.000          28.0004
 17  9 19  1 18  0.0000000  0 12G04G22G27G11G31G10G14G01G21G18G32G08
 130883165.510 5 101986871.57642  24906242.616    24906246.229    24906243.172
        33.000          13.0004
 128826802.905 6 100384528.54542  24514925.467    24514920.659    24514922.891
        39.000          17.0004
 125084165.913 6  97468177.42043  23802726.536    23802728.653    23802726.156
        39.000          23.0004
 119191027.276 7  92876127.56544  22681295.103    22681292.079    22681294.737
        44.000          27.0004
 117542529.853 7  91591582.21445  22367587.982    22367585.354    22367587.776
        46.000          32.0004
 112853408.456 8  87937738.08347  21475279.978    21475279.118    21475279.508
        51.000          42.0004
 107767688.481 7  83974818.29847  20507497.295    20507493.863    20507496.398
        47.000          42.0004
 124769254.304 6                  23742800.716
        39.000
 130613510.253 5 101776756.49041  24854922.818    24854922.794    24854922.237
        35.000          11.0004
 122103097.131 6  95145277.73444  23235440.025    23235437.388    23235439.561
        41.000          25.0004
 108212053.016 9  84321093.26747  20592056.846    20592056.241    20592056.932
        55.000          47.0004
 122151370.125 7  95182873.71744  23244630.326    23244631.646    23244629.584
        42.000          27.0004
 17  9 19  1 18 30.0000000  0 12G04G22G27G11G31G10G14G01G21G18G32G08
 130968587.383 5 102053433.96442  24922499.572    24922500.963    24922497.884
        33.000          13.0004
 128752071.112 6 100326296.01043  24500703.606    24500700.114    24500702.624
        40.000          18.0004
 125172351.035 6  97536893.05543  23819507.400    23819509.092    23819507.091
        38.000          22.0004
 119125544.285 7  92825101.86344  22668833.792    22668830.810    22668833.532
        44.000          27.0004
 117444790.247 8  91515421.54245  22348988.585    22348986.552    22348988.120
        48.000          32.0004
 112891211.319 8  87967194.85547  21482473.437    21482472.771    21482473.138
        52.000          42.0004
 107766804.623 8  83974129.58647  20507328.972    20507325.528    20507328.291
        50.000          42.0004
 124671569.891 6  97146692.47943  23724212.220    23724212.979    23724211.792
        39.000          22.0004
 130716177.312 5 101856750.83641  24874458.889    24874457.313    24874455.166
        34.000          11.0004
 122159698.847 7  95189382.96244  23246211.658    23246208.196    23246210.611
        44.000          25.0004
 108240789.489 9  84343485.32647  20597525.324    20597524.682    20597525.521
        54.000          46.0004
 122204265.233 7  95224090.66044  23254696.231    23254697.051    23254695.370
        42.000          27.0004
 17  9 19  1 19  0.0000000  0 12G04G22G27G11G31G10G14G01G21G18G32G08
 131053901.443 6 102119912.35242  24938735.821    24938734.818    24938734.111
        36.000          14.0004
 128677321.050 6 100268049.26343  24486480.035    24486475.570    24486477.947
        40.000          19.0004
 125260600.069 6  97605658.47443  23836301.515    23836301.709    23836300.934
        39.000          23.0004
 119060560.136 7  92774464.86744  22656468.249    22656464.991    22656467.187
        44.000          27.0004
 117347300.191 7  91439455.31045  22330437.667    22330434.164    22330436.841
        47.000          33.0004
 112929207.848 8  87996802.54346  21489703.894    21489703.085    21489703.502
        51.000          41.0004
 107766323.171 8  83973754.43747  20507237.256    20507233.904    20507236.674
        48.000          42.0004
 124574066.898 6  97070716.14543  23705657.192    23705658.722    23705657.521
        39.000          23.0004
 130818965.447 5                  24894018.421
        32.000
 122216440.719 7  95233597.39544  23257008.969    23257006.130    23257007.836
        42.000          25.0004
 108269886.571 9  84366158.38047  20603062.432    20603061.526    20603062.440
        54.000          47.0004
 122257518.244 7  95265586.47844  23264830.027    23264830.672    23264828.919
        42.000          27.0004
 17  9 19  1 19 30.0000000  0 12G04G22G27G11G31G10G14G01G21G18G32G08
 131139105.469 6 102186305.00042  24954950.419    24954948.701    24954949.162
        38.000          15.0004
 128602553.326 6 100209788.74043  24472250.909    24472248.215    24472250.083
        39.000          20.0004
 125348910.647 6  97674471.87044  23853107.433    23853107.406    23853106.596
        39.000          24.0004
 118996077.693 7  92724218.82544  22644197.615    22644194.341    22644197.025
        44.000          28.0004
 117250063.589 7  91363686.57445  22311933.336    22311930.670    22311933.038
        47.000          33.0004
 112967399.038 8  88026561.91246  21496970.901    21496970.448    21496970.646
        51.000          41.0004
 107766243.913 8  83973692.68347  20507222.293    20507218.836    20507221.559
        49.000          42.0004
 124476748.455 6  96994883.60144  23687138.677    23687139.634    23687138.712
        40.000          24.0004
 130921872.514 5                  24913600.271
        33.000
 122273323.573 7  95277921.67344  23267832.558    23267831.064    23267832.282
        43.000          25.0004
 108299343.193 9  84389111.59947  20608667.945    20608666.669    20608667.771
        54.000          46.0004
 122311126.894 6  95307359.42244  23275031.242    23275032.370    23275030.703
        41.000          27.0004
 17  9 19  1 20  0.0000000  0 12G04G22G27G11G31G10G14G01G21G18G32G08
 131224196.926 6 102252609.95342  24971142.701    24971141.880    24971141.578
        37.000          17.0004
 128527767.416 6 100151514.03743  24458019.669    24458015.858    24458018.714
        41.000          20.0004
 125437279.328 6  97743330.52643  23869921.949    23869923.783    23869921.797
        38.000          23.0004
 118932098.634 7  92674365.01644  22632023.123    22632018.847    22632021.986
        44.000          28.0004
 117153083.436 8  91288117.68445  22293479.085    22293475.824    22293478.419
        48.000          33.0004
 113005784.840 8  88056472.91946  21504275.523    21504275.436    21504275.224
        50.000          41.0004
 107766565.174 8  83973943.02147  20507283.467    20507280.101    20507282.626
        49.000          42.0004
 124379616.672 6  96919196.51144  23668656.197    23668655.953    23668655.522
        41.000          25.0004
 131024896.158 5                  24933206.756
        33.000
 122330347.367 7  95322355.77044  23278684.235    23278682.326    23278683.553
        42.000          25.0004
 108329157.196 9  84412343.29347  20614341.208    20614340.214    20614341.345
        54.000          47.0004
 122365088.257 7  95349407.21444  23285300.107    23285300.855    23285299.430
        43.000          27.0004
 17  9 19  1 20 30.0000000  0 11G04G22G27G11G31G10G14G01G18G32G08
 131309173.173 6 102318825.11342  24987312.736    24987311.983    24987311.697
        37.000          17.0004
 128452963.789 6 100093225.52043  24443784.870    24443781.091    24443783.360
        39.000          20.0004
 125525703.107 6  97812232.11643  23886748.145    23886750.368    23886748.022
        38.000          22.0004
 118868625.105 7  92624905.13244  22619944.392    22619940.230    22619943.452
        43.000          28.0004
 117056362.749 7  91212750.96245  22275073.242    22275070.868    22275073.191
        45.000          33.0004
 113044365.678 8  88086535.90546  21511616.994    21511617.126    21511617.088
        51.000          41.0004
 107767285.968 8  83974504.68647  20507420.737    20507417.206    20507419.749
        49.000          42.0004
 124282674.068 6  96843656.85744  23650208.694    23650208.745    23650207.387
        41.000          24.0004
 122387512.671 7  95366900.14444  23289562.261    23289560.051    23289561.844
        42.000          25.0004
 108359326.969 9  84435852.20947  20620082.561    20620081.555    20620082.440
        54.000          46.0004
 122419399.749 6  95391727.83044  23295635.143    23295635.463    23295635.072
        41.000          27.0004
 17  9 19  1 21  0.0000000  0 11G04G22G27G11G31G10G14G01G18G32G08
 131394032.126 6 102384948.88342  25003459.970    25003460.278    25003460.085
        37.000          16.0004
 128378142.943 6 100034923.57843  24429546.361    24429542.878    24429545.320
        39.000          20.0004
 125614179.342 6  97881174.57243  23903585.947    23903587.256    23903585.161
        39.000          22.0004
 118805659.835 7  92575841.28444  22607961.897    22607958.677    22607961.660
        44.000          28.0004
 116959904.744 7  91137588.93845  22256717.792    22256715.003    22256717.812
        47.000          33.0004
 113083142.315 7  88116751.45746  21518996.078    21518995.764    21518995.678
        47.000          40.0004
 107768405.507 7  83975377.06647  20507633.707    20507630.400    20507632.785
        47.000          42.0004
 124185923.630 6  96768266.94244  23631796.692    23631797.200    23631796.807
        41.000          24.0004
 122444820.376 7  95411555.48544  23300468.104    23300465.685    23300467.189
        42.000          25.0004
 108389851.150 8  84459637.28847  20625890.942    20625890.131    20625890.832
        53.000          47.0004
 122474058.858 7  95434319.31044  23306037.861    23306036.794    23306036.508
        44.000          27.0004
 17  9 19  1 21 30.0000000  0 11G04G22G27G11G31G10G14G01G18G32G08
 131478771.415 5 102450979.40842  25019584.285    25019585.681    25019585.586
        35.000          16.0004
 128303305.469 6  99976608.70043  24415305.712    24415301.982    24415304.438
        41.000          20.0004
 125702705.004 6  97950155.55143  23920432.390    23920432.746    23920431.489
        40.000          22.0004
 118743204.421 7  92527174.73544  22596077.579    22596073.691    22596076.712
        45.000          28.0004
 116863713.025 7  91062634.39345  22238413.512    22238410.315    22238413.293
        47.000          33.0004
 113122115.150 8  88147119.89646  21526412.707    21526412.313    21526412.371
        49.000          41.0004
 107769922.617 8  83976559.23547  20507922.449    20507919.046    20507921.525
        48.000          42.0004
 124089367.927 6  96693028.74044  23613422.322    23613423.470    23613422.637
        39.000          25.0004
 122502270.548 7  95456321.82844  23311400.273    23311397.657    23311399.888
        42.000          25.0004
 108420728.047 8  84483697.21147  20631766.666    20631765.989    20631766.545
        53.000          47.0004
 122529062.679 7  95477179.39944  23316504.355    23316503.865    23316503.507
        43.000          27.0004
 17  9 19  1 22  0.0000000  0 11G04G22G27G11G31G10G14G01G18G32G08
 131563388.251 5 102516914.51342  25035686.941    25035687.500    25035687.535
        35.000          15.0004
 128228451.054 6  99918280.60743  24401061.463    24401057.878    24401060.129
        40.000          20.0004
 125791276.792 6  98019172.45743  23937286.545    23937286.589    23937285.852
        40.000          22.0004
 118681261.016 7  92478907.15544  22584289.971    22584286.006    22584290.019
        45.000          29.0004
 116767790.622 8  90987889.71945  22220159.929    22220156.866    22220159.854
        48.000          34.0004
 113161284.190 8  88177641.23547  21533866.332    21533866.340    21533866.225
        52.000          42.0004
 107771835.782 8  83978050.01647  20508286.659    20508283.092    20508285.620
        48.000          42.0004
 123993009.113 7  96617943.97344  23595086.982    23595086.759    23595085.513
        42.000          24.0004
 122559863.595 7  95501199.50244  23322359.629    23322357.260    23322359.279
        42.000          25.0004
 108451955.603 9  84508030.37447  20637708.899    20637708.152    20637708.945
        54.000          46.0004
 122584408.254 7  95520305.79644  23327035.694    23327036.522    23327034.945
        43.000          27.0004
 17  9 19  1 22 30.0000000  0 11G04G22G27G11G31G10G14G01G18G32G08
 131647879.935 6 102582752.08742  25051766.097    25051764.806    25051765.510
        36.000          15.0004
 128153579.803 6  99859939.43343  24386813.317    24386810.730    24386812.726
        40.000          21.0004
 125879891.651 6  98088222.93543  23954148.056    23954149.854    23954148.405
        39.000          22.0004
 118619831.723 7  92431040.17644  22572600.994    22572597.051    22572600.193
        44.000          29.0004
 116672140.384 8  90913357.12345  22201958.666    22201955.373    22201958.495
        48.000          34.0004
 113200649.894 8  88208315.79346  21541357.048    21541357.192    21541356.613
        50.000          41.0004
 107774144.165 8  83979848.75847  20508726.055    20508722.233    20508724.877
        48.000          42.0004
 123896849.792 6  96543014.66044  23576787.680    23576788.447    23576787.194
        41.000          25.0004
 122617599.540 7  95546188.52444  23333347.068    23333343.844    23333346.476
        43.000          24.0004
 108483532.109 8  84532635.44347  20643717.573    20643716.756    20643717.552
        53.000          47.0004
 122640092.918 7  95563696.43544  23337632.204    23337632.980    23337631.697
        42.000          27.0004
 17  9 19  1 23  0.0000000  0 11G04G22G27G11G31G10G14G01G18G32G08
 131732244.554 6 102648490.66942  25067819.328    25067818.369    25067818.678
        36.000          14.0004
 128078692.478 6  99801585.72243  24372563.132    24372559.928    24372562.141
        40.000          21.0004
 125968546.900 6  98157304.88643  23971019.612    23971020.446    23971019.083
        39.000          22.0004
 118558918.694 7  92383575.49144  22561008.945    22561005.529    22561008.461
        44.000          29.0004
 116576766.253 7  90839039.66245  22183809.707    22183805.994    22183809.642
        47.000          34.0004
 113240212.854 8  88239144.05747  21548886.511    21548885.388    21548886.242
        50.000          42.0004
 107776846.780 8  83981954.69347  20509240.049    20509236.652    20509239.198
        49.000          42.0004
 123800892.837 6  96468243.01244  23558526.811    23558528.668    23558526.971
        39.000          26.0004
 122675478.976 7  95591289.35244  23344360.790    23344357.843    23344359.947
        42.000          24.0004
 108515456.114 8  84557511.29347  20649792.633    20649791.738    20649792.425
        53.000          46.0004
 122696114.204 7  95607349.36144  23348292.098    23348293.429    23348291.590
        42.000          26.0004
 17  9 19  1 23 30.0000000  0 11G04G22G27G11G31G10G14G01G18G32G08
 131816479.547 6 102714128.20942  25083849.025    25083848.132    25083847.675
        36.000          14.0004
 128003788.587 6  99743219.08943  24358308.843    24358306.254    24358307.827
        40.000          21.0004
 126057239.279 6  98226415.77743  23987897.624    23987897.965    23987896.651
        40.000          22.0004
 118498523.767 7  92336514.50744  22549516.374    22549512.832    22549515.448
        43.000          29.0004
 116481671.157 8  90764939.63945  22165714.043    22165710.012    22165713.439
        48.000          34.0004
 113279973.287 8  88270126.23146  21556452.205    21556451.470    21556452.037
        50.000          41.0004
 107779941.876 7  83984366.45847  20509828.926    20509825.559    20509828.217
        47.000          42.0004
 123705140.603 6  96393630.90144  23540305.391    23540308.158    23540305.630
        39.000          26.0004
 122733502.321 7  95636502.32743  23355402.096    23355399.582    23355401.274
        42.000          23.0004
 108547725.691 8  84582656.42147  20655933.537    20655932.787    20655933.293
        53.000          46.0004
 122752469.149 7  95651262.26844  23359016.546    23359017.529    23359015.625
        42.000          26.0004
 17  9 19  1 24  0.0000000  0 11G04G22G27G11G31G10G14G01G18G32G08
 131900581.916 6 102779662.43042  25099853.617    25099853.198    25099852.151
        37.000          16.0004
 127928868.817 6  99684840.08743  24344053.082    24344049.763    24344051.492
        40.000          21.0004
 126145965.591 6  98295553.11643  24004781.966    24004781.778    24004781.306
        40.000          22.0004
 118438648.773 7  92289858.69445  22538122.700    22538119.342    22538121.988
        45.000          30.0004
 116386857.806 8  90691059.16145  22147671.123    22147668.074    22147670.967
        49.000          34.0004
 113319931.326 8  88301262.36346  21564055.043    21564055.288    21564054.882
        50.000          40.0004
 107783428.281 7  83987083.14547  20510492.392    20510489.022    20510491.626
        47.000          42.0004
 123609595.354 6  96319180.08944  23522124.757    23522126.286    23522123.697
        40.000          26.0004
 122791669.642 6  95681827.48243  23366471.473    23366468.368    23366470.407
        41.000          23.0004
 108580338.905 8  84608069.31447  20662139.264    20662138.911    20662139.341
        53.000          47.0004
 122809154.812 6  95695432.89144  23369803.345    23369804.482    23369802.473
        41.000          26.0004
 17  9 19  1 24 30.0000000  0 11G04G22G27G11G31G10G14G01G18G32G08
 131984549.788 6 102845091.83942  25115832.473    25115832.758    25115831.020
        36.000          15.0004
 127853933.447 6  99626448.90843  24329792.173    24329789.469    24329792.337
        40.000          21.0004
 126234723.307 6  98364714.92643  24021672.708    24021672.403    24021671.798
        40.000          21.0004
 118379295.959 7  92243609.75844  22526827.888    22526824.753    22526827.306
        44.000          29.0004
 116292329.852 8  90617401.05945  22129683.022    22129679.840    22129682.960
        48.000          34.0004
 113360087.763 8  88332553.08346  21571697.306    21571696.843    21571697.181
        50.000          41.0004
 107787305.312 8  83990104.21647  20511230.303    20511226.722    20511229.435
        49.000          42.0004
 123514260.089 6  96244892.89844  23503981.424    23503984.700    23503981.833
        39.000          26.0004
 122849981.510 6  95727265.28343  23377567.093    23377564.342    23377566.789
        39.000          23.0004
 108613294.361 9  84633748.89347  20668410.589    20668409.949    20668410.628
        54.000          46.0004
 122866168.946 6  95739859.45844  23380652.175    23380653.729    23380651.947
        40.000          25.0004
 17  9 19  1 25  0.0000000  0 11G04G22G27G11G31G10G14G01G18G32G08
 132068380.461 6 102910414.37742  25131784.368    25131785.171    25131782.832
        36.000          16.0004
 127778982.684 6  99568045.76043  24315530.745    24315526.279    24315529.914
        41.000          21.0004
 126323509.035 6  98433898.56243  24038567.696    24038567.909    24038567.325
        40.000          21.0004
 118320467.217 7  92197769.19745  22515633.819    22515630.004    22515632.839
        44.000          30.0004
 116198090.496 8  90543967.83545  22111750.245    22111746.508    22111749.674
        49.000          35.0004
 113400442.658 8  88363998.45546  21579376.367    21579376.239    21579376.252
        51.000          41.0004
 107791571.224 7  83993428.31047  20512042.001    20512038.515    20512041.182
        47.000          42.0004
 123419137.093 6  96170771.10844  23485880.630    23485882.809    23485880.033
        39.000          26.0004
 122908438.283 6  95772815.99443  23388691.831    23388688.169    23388690.835
        40.000          22.0004
 108646590.032 9  84659693.57347  20674746.455    20674745.868    20674746.511
        54.000          46.0004
 122923508.329 7  95784539.47344  23391564.274    23391564.732    23391563.780
        42.000          24.0004
 17  9 19  1 25 30.0000000  0 11G04G22G27G11G31G10G14G01G18G32G08
 132152072.033 6 102975628.51642  25147711.315    25147711.625    25147709.988
        37.000          15.0004
 127704016.979 6  99509630.95243  24301265.465    24301261.337    24301264.163
        41.000          21.0004
 126412320.183 6  98503102.01743  24055466.656    24055467.099    24055466.976
        38.000          20.0004
 118262164.663 7  92152338.64045  22504538.117    22504535.561    22504537.672
        44.000          30.0004
 116104143.023 8  90470762.05645  22093872.170    22093868.868    22093872.028
        49.000          35.0004
 113440996.709 8  88395599.00346  21587093.835    21587093.342    21587093.416
        49.000          40.0004
 107796225.234 8  83997054.81947  20512927.713    20512924.162    20512926.800
        48.000          42.0004
 123324229.252 6  96096816.99244  23467820.817    23467822.470    23467820.297
        41.000          26.0004
 122967040.561 7  95818480.07143  23399843.299    23399839.679    23399842.470
        42.000          22.0004
 108680224.485 9  84685902.24647  20681147.072    20681146.196    20681146.951
        54.000          47.0004
 122981170.126 6  95829470.72444  23402536.231    23402537.304    23402535.767
        40.000          24.0004
 17  9 19  1 26  0.0000000  0 11G04G22G27G11G31G10G14G01G18G32G08
 132235621.589 6 103040731.97042  25163609.406    25163611.629    25163608.460
        36.000          14.0004
 127629036.015 6  99451204.26343  24286996.398    24286992.486    24286995.676
        40.000          22.0004
 126501153.302 6  98572322.59443  24072370.628    24072370.799    24072370.764
        37.000          19.0004
 118204389.762 7  92107319.23445  22493544.110    22493541.171    22493543.337
        45.000          30.0004
 116010490.075 8  90397785.78245  22076050.283    22076047.283    22076050.078
        48.000          34.0004
 113481749.922 8  88427354.75246  21594848.552    21594848.548    21594848.275
        51.000          40.0004
 107801265.682 7  84000982.44747  20513886.869    20513883.244    20513885.903
        47.000          43.0004
 123229538.714 6  96023032.18644  23449800.983    23449803.513    23449801.390
        39.000          26.0004
 123025788.023 6  95864257.30143  23411022.279    23411019.476    23411021.808
        41.000          22.0004
 108714195.623 8  84712373.26347  20687611.338    20687610.796    20687611.217
        53.000          46.0004
 123039151.594 6  95874651.06843  23413569.262    23413571.126    23413569.103
        40.000          23.0004
 17  9 19  1 26 30.0000000  0 11G04G22G27G11G31G10G14G01G18G32G08
 132319026.470 6 103105722.70142  25179480.444    25179482.941    25179480.594
        36.000          13.0004
 127554040.323 6  99392766.10743  24272725.487    24272720.498    24272724.613
        40.000          22.0004
 126590005.380 6  98641557.91743  24089278.914    24089279.849    24089277.739
        37.000          18.0004
 118147144.451 7  92062712.51744  22482650.063    22482647.010    22482649.868
        44.000          29.0004
 115917134.916 8  90325041.54545  22058285.306    22058282.309    22058285.141
        48.000          34.0004
 113522702.468 8  88459265.81546  21602641.541    21602641.806    21602641.175
        49.000          40.0004
 107806691.132 8  84005210.07947  20514918.995    20514915.758    20514918.216
        49.000          42.0004
 123135067.961 6  95949418.62344  23431825.729    23431825.614    23431824.758
        39.000          25.0004
 123084681.255 6  95910148.11343  23422229.990    23422226.298    23422229.092
        40.000          22.0004
 108748501.457 8  84739105.08447  20694139.646    20694138.948    20694139.611
        53.000          46.0004
 123097449.783 6  95920078.21343  23424663.118    23424664.779    23424663.111
        40.000          23.0004
 17  9 19  1 27  0.0000000  0 11G04G22G27G11G31G10G14G01G18G32G08
 132402284.311 6 103170598.87142  25195324.950    25195326.964    25195324.360
        37.000          13.0004
 127479030.023 6  99334316.55344  24258451.976    24258447.498    24258450.370
        40.000          24.0004
 126678873.418 6  98710805.68143  24106190.024    24106191.580    24106189.425
        37.000          19.0004
 118090430.607 7  92018519.89544  22471859.137    22471854.458    22471857.888
        45.000          29.0004
 115824080.684 8  90252531.79545  22040577.483    22040574.388    22040577.087
        48.000          34.0004
 113563854.817 8  88491332.57146  21610472.988    21610472.662    21610472.327
        50.000          40.0004
 107812500.496 7  84009736.85947  20516024.492    20516021.293    20516023.679
        47.000          42.0004
 123040819.627 7  95875978.39044  23413891.410    23413890.629    23413890.028
        42.000          26.0004
 123143720.338 7  95956152.56843  23433465.325    23433461.261    23433463.595
        43.000          22.0004
 108783140.318 9  84766096.40347  20700731.359    20700730.395    20700731.088
        54.000          46.0004
 123156061.651 6  95965749.75844  23435816.758    23435818.011    23435816.648
        40.000          24.0004
 17  9 19  1 27 30.0000000  0 11G04G22G27G11G31G10G14G01G18G32G08
 132485393.143 5 103235358.89742  25211140.513    25211141.085    25211138.873
        35.000          14.0004
 127404005.413 6  99275855.86944  24244175.066    24244170.715    24244173.571
        40.000          24.0004
 126767754.694 6  98780063.74943  24123104.196    24123105.393    24123102.818
        37.000          18.0004
 118034250.291 7  91974743.03944  22461167.802    22461163.951    22461167.247
        45.000          29.0004
 115731330.808 8  90180259.20645  22022927.617    22022924.635    22022927.475
        49.000          34.0004
 113605207.559 8  88523555.48546  21618342.223    21618341.533    21618341.786
        50.000          40.0004
 107818692.486 8  84014561.79247  20517202.890    20517199.495    20517202.203
        49.000          42.0004
 122946796.417 6  95802713.59144  23395998.475    23395998.808    23395998.089
        41.000          26.0004
 123202905.836 7  96002271.11443  23444728.464    23444724.087    23444726.516
        43.000          22.0004
 108818110.661 8  84793346.02847  20707385.914    20707385.064    20707385.936
        53.000          46.0004
 123214984.534 7  96011663.65644  23447030.998    23447031.313    23447029.752
        43.000          25.0004
 17  9 19  1 28  0.0000000  0 11G04G22G27G11G31G10G14G01G18G32G08
 132568350.581 5 103300001.01942  25226924.923    25226925.902    25226924.921
        34.000          12.0004
 127328967.202 6  99217384.58543  24229894.933    24229891.093    24229894.363
        38.000          23.0004
 126856646.523 6  98849330.01943  24140019.485    24140021.292    24140019.127
        36.000          19.0004
 117978605.605 7  91931383.53544  22450578.824    22450574.742    22450578.385
        46.000          29.0004
 115638888.629 8  90108226.38645  22005336.144    22005333.385    22005336.238
        49.000          35.0004
 113646761.259 8  88555934.99146  21626249.662    21626248.971    21626249.360
        51.000          41.0004
 107825266.137 7  84019684.11947  20518454.005    20518450.328    20518452.960
        46.000          42.0004
 122853001.226 6  95729626.45044  23378150.187    23378150.126    23378149.433
        41.000          26.0004
 123262238.147 6  96048504.06543  23456018.801    23456014.358    23456017.184
        41.000          23.0004
 108853410.942 8  84820852.74347  20714103.457    20714102.384    20714103.139
        53.000          46.0004
 123274216.123 6  96057818.11044  23458302.265    23458302.638    23458301.643
        41.000          27.0004
 17  9 19  1 28 30.0000000  0 11G04G22G27G11G31G10G14G01G18G32G08
 132651153.820 6 103364522.97941  25242682.625    25242686.141    25242682.345
        36.000          10.0004
 127253915.080 6  99158902.48743  24215613.377    24215609.124    24215611.786
        40.000          22.0004
 126945545.187 6  98918601.62643  24156938.258    24156937.754    24156937.370
        38.000          20.0004
 117923497.573 7  91888442.21845  22440092.206    22440088.637    22440091.670
        45.000          30.0004
 115546756.453 8  90036435.12445  21987804.185    21987801.066    21987804.008
        49.000          35.0004
 113688515.678 8  88588470.90146  21634194.964    21634194.655    21634194.806
        50.000          41.0004
 107832219.305 8  84025102.18547  20519776.985    20519773.458    20519776.052
        49.000          42.0004
 122759436.034 6  95656718.54944  23360344.406    23360345.247    23360344.263
        40.000          27.0004
 123321717.279 7  96094851.42143  23467337.225    23467333.043    23467335.960
        43.000          23.0004
 108889038.767 8  84848614.68847  20720882.771    20720882.130    20720882.769
        53.000          46.0004
 123333752.861 7  96104210.32544  23469631.616    23469632.577    23469631.037
        43.000          27.0004
 17  9 19  1 29  0.0000000  0 11G04G22G27G11G31G10G14G01G18G32G08
 132733801.245 6 103428971.37241  25258411.554    25258411.153    25258412.511
        37.000           6.0004
 127178850.034 6  99100410.28243  24201328.919    24201324.710    24201327.959
        39.000          23.0004
 127034448.677 6  98987876.99443  24173856.249    24173856.229    24173855.357
        39.000          21.0004
 117868928.833 7  91845921.12844  22429707.271    22429704.630    22429707.197
        45.000          29.0004
 115454938.592 8  89964888.78145  21970331.938    21970328.726    21970331.578
        48.000          35.0004
 113730472.046 8  88621164.17446  21642179.312    21642178.945    21642179.127
        51.000          40.0004
 107839552.216 8  84030816.15847  20521172.166    20521169.025    20521171.336
        49.000          42.0004
 122666104.175 6  95583992.47544  23342583.633    23342584.456    23342583.505
        40.000          26.0004
 123381344.448 7  96141314.14643  23478683.062    23478679.749    23478682.631
        42.000          23.0004
 108924993.210 8  84876631.13947  20727724.806    20727724.047    20727724.938
        52.000          46.0004
 123393592.575 7  96150838.63844  23481018.183    23481019.829    23481018.387
        43.000          28.0004
 17  9 19  1 29 30.0000000  0 11G04G22G27G11G31G10G14G01G18G32G08
 132816289.967 6                  25274110.376
        36.000
 127103772.086 6  99041908.03743  24187041.492    24187038.170    24187041.049
        39.000          22.0004
 127123353.413 6  99057153.36743  24190773.205    24190774.154    24190773.422
        40.000          22.0004
 117814900.755 7  91803821.34144  22419426.551    22419423.027    22419425.793
        45.000          29.0004
 115363437.524 8  89893589.28545  21952919.647    21952916.725    21952919.413
        48.000          35.0004
 113772630.081 8  88654014.59446  21650201.546    21650201.082    21650201.315
        48.000          40.0004
 107847262.566 8  84036824.23047  20522639.557    20522636.167    20522638.798
        49.000          42.0004
 122573007.654 6  95511449.76444  23324867.411    23324868.650    23324867.751
        40.000          26.0004
 123441119.205 6  96187891.86443  23490057.798    23490054.504    23490057.073
        39.000          22.0004
 108961271.842 8  84904900.20947  20734628.573    20734627.684    20734628.566
        52.000          46.0004
 123453731.843 7  96197700.38344  23492462.864    23492463.409    23492462.403
        42.000          27.0004
 17  9 19  1 30  0.0000000  0 11G04G22G27G11G31G10G14G01G18G32G08
 132898617.997 5                  25289776.757
        34.000
 127028682.183 6  98983396.47843  24172752.953    24172748.635    24172752.068
        38.000          23.0004
 127212256.746 6  99126428.65543  24207690.969    24207691.637    24207690.955
        40.000          23.0004
 117761415.972 7  91762144.88944  22409249.487    22409245.417    22409248.176
        45.000          29.0004
 115272256.797 8  89822539.42145  21935568.648    21935565.458    21935568.121
        50.000          35.0004
 113814990.533 8  88687022.73246  21658262.427    21658261.768    21658262.069
        50.000          40.0004
 107855349.529 8  84043125.76247  20524178.767    20524175.008    20524177.825
        48.000          42.0004
 122480149.477 6  95439092.76344  23307197.526    23307198.094    23307197.823
        40.000          26.0004
 123501042.290 6  96234585.14643  23501460.949    23501458.093    23501460.138
        41.000          22.0004
 108997873.262 9  84933420.79647  20741593.234    20741592.493    20741593.459
        54.000          46.0004
 123514168.138 6  96244793.57044  23503963.040    23503963.164    23503962.635
        41.000          26.0004
 17  9 19  1 30 30.0000000  0 11G04G22G27G11G31G10G14G01G18G32G08
 132980782.986 5                  25305413.322
        34.000
 126953580.104 6  98924875.43643  24158461.480    24158457.247    24158460.753
        39.000          22.0004
 127301155.825 6  99195700.61543  24224608.376    24224608.051    24224607.514
        40.000          22.0004
 117708475.608 7  91720892.66545  22399174.599    22399171.231    22399173.863
        45.000          30.0004
 115181399.531 8  89751741.59946  21918278.291    21918276.027    21918278.525
        49.000          36.0004
 113857553.766 8  88720188.88346  21666361.979    21666361.414    21666361.618
        49.000          40.0004
 107863811.792 8  84049719.73147  20525788.445    20525785.374    20525787.887
        49.000          43.0004
 122387532.206 6  95366923.47044  23289572.594    23289573.884    23289573.226
        41.000          26.0004
 123561113.988 7  96281394.23343  23512891.973    23512889.522    23512891.748
        42.000          22.0004
 109034795.717 8  84962191.54347  20748619.605    20748618.643    20748619.551
        52.000          46.0004
 123574898.715 6  96292116.06544  23515519.934    23515519.241    23515519.265
        41.000          26.0004
 17  9 19  1 31  0.0000000  0 11G04G22G27G11G31G10G14G01G18G32G08
 133062782.624 5                  25321015.770
        32.000
 126878466.109 6  98866345.08943  24144168.038    24144163.684    24144166.982
        40.000          23.0004
 127390047.736 6  99264966.98643  24241522.068    24241523.851    24241522.644
        39.000          22.0004
 117656081.443 7  91680066.04344  22389204.073    22389200.960    22389203.375
        46.000          29.0004
 115090868.899 8  89681198.28345  21901051.262    21901048.608    21901051.068
        49.000          35.0004
 113900320.155 8  88753513.33946  21674499.649    21674499.695    21674499.438
        50.000          40.0004
 107872647.893 8  84056604.99947  20527470.462    20527466.830    20527469.381
        50.000          42.0004
 122295158.427 7  95294943.95044  23271995.218    23271995.868    23271995.029
        42.000          27.0004
 123621334.609 6  96328319.36543  23524351.057    23524348.629    23524350.598
        41.000          22.0004
 109072037.409 9  84991211.04447  20755706.290    20755705.752    20755706.499
        54.000          46.0004
 123635920.458 6  96339665.44944  23527131.144    23527131.501    23527130.742
        41.000          25.0004
 17  9 19  1 31 30.0000000  0 10G22G27G11G31G10G14G01G18G32G08
 126803340.407 6  98807805.64143  24129872.300    24129867.034    24129871.453
        40.000          23.0004
 127478929.351 6  99334225.32843  24258434.597    24258438.188    24258435.244
        37.000          21.0004
 117604235.047 7  91639666.24345  22379337.716    22379335.264    22379337.225
        45.000          30.0004
 115000667.550 8  89610911.55546  21883886.958    21883883.922    21883886.770
        49.000          36.0004
 113943289.923 8  88786996.26646  21682676.842    21682676.409    21682676.665
        49.000          40.0004
 107881856.328 8  84063780.41047  20529222.477    20529219.149    20529221.744
        48.000          42.0004
 122203030.606 6  95223156.06844  23254463.501    23254464.515    23254464.161
        39.000          27.0004
 123681704.147 6  96375360.54843  23535839.787    23535836.714    23535838.871
        41.000          22.0004
 109109596.396 8  85020477.79447  20762853.865    20762852.893    20762853.762
        53.000          46.0004
 123697230.379 6  96387439.38544  23538798.854    23538798.830    23538798.063
        40.000          25.0004
 17  9 19  1 32  0.0000000  0 10G22G27G11G31G10G14G01G18G32G08
 126728203.699 6  98749257.60743  24115574.207    24115569.027    24115572.918
        40.000          22.0004
 127567797.978 5  99403473.53743  24275345.263    24275349.672    24275345.309
        34.000          20.0004
 117552938.374 7  91599694.83545  22369576.998    22369573.743    22369576.177
        46.000          30.0004
 114910798.944 8  89540884.12146  21866785.173    21866782.416    21866784.920
        49.000          36.0004
 113986463.579 8  88820638.08146  21690892.739    21690892.136    21690892.453
        50.000          40.0004
 107891435.920 8  84071245.04347  20531045.498    20531042.001    20531044.717
        48.000          43.0004
 122111151.519 7  95151561.98744  23236980.168    23236980.106    23236980.010
        42.000          26.0004
 123742222.993 6  96422518.06843  23547356.077    23547353.064    23547355.081
        40.000          22.0004
 109147471.094 8  85049990.55047  20770061.300    20770060.197    20770061.242
        53.000          46.0004
 123758825.953 6  96435435.90344  23550520.056    23550520.530    23550519.023
        41.000          24.0004
 17  9 19  1 32 30.0000000  0 10G22G27G11G31G10G14G01G18G32G08
 126653056.206 6  98690701.14943  24101274.102    24101269.054    24101272.540
        40.000          23.0004
 127656650.567 5  99472709.25543  24292254.193    24292258.735    24292253.287
        35.000          20.0004
 117502192.927 7  91560152.94645  22359920.156    22359917.472    22359919.684
        46.000          30.0004
 114821265.967 8  89471118.20346  21849747.426    21849744.942    21849747.214
        48.000          36.0004
 114029841.262 8  88854438.87746  21699146.985    21699146.950    21699146.791
        50.000          40.0004
 107901385.098 8  84078997.65647  20532938.851    20532935.333    20532937.895
        48.000          42.0004
 122019523.495 7  95080163.54144  23219544.166    23219543.806    23219544.021
        42.000          27.0004
 123802891.213 6  96469791.97443  23558901.298    23558897.580    23558900.078
        40.000          22.0004
 109185659.439 9  85079747.70347  20777328.058    20777327.334    20777327.970
        54.000          46.0004
 123820704.022 7  96483652.56044  23562295.567    23562296.130    23562294.580
        42.000          25.0004
 17  9 19  1 33  0.0000000  0 10G22G27G11G31G10G14G01G18G32G08
 126577898.268 6  98632136.58744  24086971.314    24086966.599    24086970.622
        40.000          24.0004
 127745484.274 6  99541930.22843  24309160.320    24309163.163    24309160.048
        38.000          20.0004
 117452000.494 7  91521041.96545  22350369.533    22350365.780    22350368.460
        44.000          30.0004
 114732072.109 8  89401616.53946  21832774.829    21832771.983    21832774.333
        50.000          36.0004
 114073423.640 8  88888399.16446  21707440.686    21707440.513    21707440.461
        50.000          41.0004
 107911702.689 7  84087037.34147  20534901.897    20534898.505    20534901.169
        47.000          42.0004
 121928149.475 7  95008963.01744  23202156.312    23202155.989    23202155.859
        42.000          27.0004
 123863709.705 7  96517182.99343  23570474.766    23570471.166    23570473.283
        42.000          22.0004
 109224159.969 8  85109748.11747  20784654.616    20784653.718    20784654.276
        52.000          46.0004
 123882861.692 6  96532087.08544  23574123.809    23574124.975    23574123.204
        41.000          25.0004
 17  9 19  1 33 30.0000000  0 10G22G27G11G31G10G14G01G18G32G08
 126502730.095 6  98573563.99444  24072667.213    24072662.317    24072666.045
        41.000          24.0004
 127834295.973 6  99611134.08643  24326062.948    24326062.668    24326062.103
        40.000          21.0004
 117402362.246 7  91482362.81445  22340923.972    22340920.322    22340922.856
        45.000          30.0004
 114643220.102 8  89332381.25446  21815866.344    21815864.423    21815865.994
        48.000          36.0004
 114117210.700 8  88922518.94546  21715772.819    21715772.591    21715772.804
        50.000          40.0004
 107922387.152 7  84095362.90047  20536935.186    20536931.799    20536934.379
        47.000          43.0004
 121837031.689 7  94937962.14744  23184817.612    23184817.049    23184816.868
        43.000          27.0004
 123924678.179 6  96564690.88243  23582075.904    23582072.982    23582075.440
        40.000          22.0004
 109262970.504 8  85139990.09747  20792039.970    20792039.246    20792039.906
        53.000          46.0004
 123945295.732 7  96580736.97944  23586004.685    23586005.969    23586004.135
        43.000          26.0004
 17  9 19  1 34  0.0000000  0 10G22G27G11G31G10G14G01G18G32G08
 126427552.294 6  98514983.92443  24058361.343    24058356.561    24058360.611
        41.000          23.0004
 127923082.997 6  99680318.76643  24342958.165    24342957.798    24342957.597
        38.000          20.0004
 117353280.276 7  91444117.15045  22331583.235    22331580.255    22331582.981
        44.000          31.0004
 114554712.715 8  89263414.50046  21799024.098    21799021.748    21799023.982
        49.000          36.0004
 114161203.047 8  88956798.69146  21724144.624    21724144.069    21724144.277
        50.000          40.0004
 107933437.384 8  84103973.47647  20539037.957    20539034.580    20539037.223
        49.000          42.0004
 121746172.973 7  94867163.17344  23167527.814    23167527.105    23167527.022
        42.000          27.0004
 123985797.472 6  96612316.29243  23593706.820    23593703.743    23593705.747
        41.000          22.0004
 109302089.510 9  85170472.43747  20799484.164    20799483.247    20799484.247
        54.000          46.0004
 124008004.036 7  96629600.56544  23597937.477    23597938.657    23597937.026
        42.000          26.0004
 17  9 19  1 34 30.0000000  0 10G22G27G11G31G10G14G01G18G32G08
 126352365.173 6  98456396.58444  24044054.449    24044049.547    24044053.276
        41.000          25.0004
 128011842.615 6  99749482.09243  24359847.557    24359849.021    24359847.418
        39.000          18.0004
 117304756.373 7  91406306.31745  22322349.956    22322346.223    22322348.806
        45.000          30.0004
 114466553.725 8  89194719.22246  21782247.973    21782245.698    21782247.784
        49.000          36.0004
 114205401.238 8  88991238.82546  21732555.312    21732554.767    21732555.062
        49.000          40.0004
 107944852.129 8  84112868.08447  20541210.329    20541206.795    20541209.415
        48.000          42.0004
 121655576.127 7  94796568.24644  23150286.336    23150287.307    23150286.726
        42.000          28.0004
 124047067.782 6  96660059.37243  23605365.382    23605363.240    23605365.119
        39.000          22.0004
 109341515.358 8  85201193.87947  20806986.304    20806985.759    20806986.511
        53.000          46.0004
 124070983.079 6  96678675.10944  23609921.043    23609922.985    23609921.284
        40.000          25.0004
 17  9 19  1 35  0.0000000  0 10G22G27G11G31G10G14G01G18G32G08
 126277169.324 6  98397802.43244  24029744.460    24029740.382    24029743.722
        41.000          24.0004
 128100572.065 6  99818621.91743  24376732.092    24376734.467    24376731.854
        39.000          18.0004
 117256791.807 7  91368931.33745  22313221.909    22313219.201    22313221.171
        45.000          31.0004
 114378746.403 8  89126297.97546  21765539.022    21765536.635    21765538.830
        49.000          36.0004
 114249805.627 8  89025839.64746  21741004.928    21741004.680    21741004.637
        49.000          40.0004
 107956630.079 7  84122045.71547  20543451.365    20543448.168    20543450.567
        46.000          43.0004
 121565243.809 7  94726179.42244  23133097.077    23133097.727    23133096.856
        42.000          28.0004
 124108489.177 7  96707920.16943  23617054.285    23617051.157    23617053.691
        42.000          23.0004
 109381246.313 8  85232153.05847  20814546.844    20814546.404    20814546.726
        52.000          46.0004
 124134230.115 6  96727958.48444  23621956.386    23621958.296    23621956.167
        39.000          24.0004
 17  9 19  1 35 30.0000000  0 10G22G27G11G31G10G14G01G18G32G08
 126201964.841 6  98339201.57744  24015434.800    24015429.173    24015433.301
        41.000          24.0004
 128189267.956 6  99887735.54843  24393610.588    24393612.920    24393610.792
        39.000          19.0004
 117209387.849 7  91331993.20645  22304201.509    22304198.306    22304200.874
        46.000          31.0004
 114291292.992 8  89058152.49546  21748897.244    21748894.332    21748897.027
        48.000          37.0004
 114294416.099 8  89060601.04746  21749493.841    21749493.986    21749493.756
        49.000          40.0004
 107968769.200 8  84131504.77247  20545761.483    20545758.096    20545760.677
        49.000          42.0004
 121475178.065 6  94655998.33644  23115958.092    23115958.701    23115957.566
        41.000          27.0004
 124170061.761 6  96755898.78743  23628771.292    23628768.283    23628770.432
        41.000          23.0004
 109421280.056 8  85263348.18147  20822165.000    20822164.617    20822164.980
        53.000          46.0004
 124197742.015 6  96777448.22444  23634042.853    23634043.509    23634042.364
        40.000          24.0004
 17  9 19  1 36  0.0000000  0 10G22G27G11G31G10G14G01G18G32G08
 126126752.232 7  98280594.39244  24001121.611    24001116.285    24001120.702
        42.000          24.0004
 128277927.822 6  99956821.06643  24410483.967    24410484.851    24410482.653
        38.000          19.0004
 117162546.561 7  91295493.50445  22295288.120    22295284.930    22295287.628
        45.000          31.0004
 114204197.198 8  88990285.68046  21732323.667    21732320.588    21732323.444
        50.000          37.0004
 114339233.413 8  89095523.61646  21758022.561    21758022.399    21758022.386
        50.000          40.0004
 107981268.501 7  84141244.49347  20548140.119    20548136.674    20548139.319
        47.000          43.0004
 121385381.948 7  94586027.37344  23098870.415    23098871.190    23098870.410
        42.000          28.0004
 124231785.887 6  96803995.48443  23640516.638    23640513.602    23640515.839
        41.000          23.0004
 109461615.239 9  85294778.19847  20829840.863    20829840.041    20829840.793
        54.000          46.0004
 124261515.994 6  96827142.17743  23646178.804    23646179.563    23646178.474
        40.000          23.0004
 17  9 19  1 36 30.0000000  0 10G22G27G11G31G10G14G01G18G32G08
 126051532.010 7  98221981.24744  23986808.205    23986802.281    23986806.486
        42.000          25.0004
 128366548.640 6 100025876.14043  24427347.390    24427347.926    24427346.916
        36.000          19.0004
 117116269.177 7  91259433.22245  22286482.314    22286478.484    22286481.263
        45.000          31.0004
 114117461.837 8  88922699.72546  21715818.523    21715815.200    21715818.293
        50.000          37.0004
 114384257.761 8  89130607.52946  21766590.602    21766590.224    21766590.240
        50.000          40.0004
 107994126.443 8  84151263.67447  20550586.644    20550583.340    20550586.008
        50.000          42.0004
 121295857.998 7  94516268.46744  23081834.156    23081835.244    23081834.408
        42.000          28.0004
 124293661.931 6  96852210.57043  23652291.044    23652288.744    23652290.529
        41.000          23.0004
 109502249.881 8  85326441.54947  20837573.149    20837572.382    20837573.201
        53.000          46.0004
 124325549.038 6  96877038.02643  23658364.148    23658364.070    23658363.951
        39.000          23.0004
 17  9 19  1 37  0.0000000  0 10G22G27G11G31G10G14G01G18G32G08
 125976304.484 6  98163362.41544  23972492.019    23972486.985    23972490.836
        41.000          24.0004
 128455127.858 6 100094898.83243  24444201.971    24444203.063    24444202.591
        37.000          19.0004
 117070557.377 7  91223813.63945  22277782.800    22277779.485    22277782.109
        44.000          31.0004
 114031090.231 8  88855397.20046  21699382.669    21699379.011    21699382.436
        50.000          37.0004
 114429489.795 8  89165853.26946  21775198.138    21775197.446    21775197.747
        51.000          40.0004
 108007342.039 8  84161561.54547  20553101.845    20553098.271    20553100.734
        50.000          42.0004
 121206609.037 7  94446723.83744  23064851.261    23064851.453    23064851.225
        43.000          29.0004
 124355690.468 7  96900544.47843  23664095.237    23664091.965    23664094.205
        42.000          23.0004
 109543182.456 9  85358337.06147  20845362.363    20845361.803    20845362.315
        54.000          46.0004
 124389838.163 6  96927133.40443  23670598.701    23670598.001    23670598.278
        41.000          23.0004
 17  9 19  1 37 30.0000000  0 10G22G27G11G31G10G14G01G18G32G08
 125901069.996 6  98104738.18044  23958175.545    23958170.040    23958174.934
        41.000          25.0004
 128543662.217 6 100163886.58643  24461049.095    24461050.210    24461049.537
        38.000          19.0004
 117025412.433 7  91188635.77445  22269192.316    22269188.980    22269191.620
        46.000          31.0004
 113945084.832 8  88788380.04846  21683015.859    21683012.768    21683015.903
        50.000          38.0004
 114474929.489 8  89201260.81046  21783845.102    21783844.231    21783844.635
        50.000          40.0004
 108020913.036 8  84172136.35247  20555684.165    20555680.718    20555683.394
        48.000          43.0004
 121117637.319 7  94377395.23845  23047920.759    23047921.353    23047920.338
        42.000          30.0004
 124417871.265 6  96948997.01843  23675927.707    23675924.705    23675927.126
        41.000          22.0004
 109584410.820 8  85390463.05847  20853207.849    20853207.255    20853207.744
        52.000          45.0004
 124454380.375 6  96977426.01643  23682879.696    23682880.530    23682879.520
        39.000          22.0004
 17  9 19  1 38  0.0000000  0 10G22G27G11G31G10G14G01G18G32G08
 125825829.282 6  98046109.07644  23943857.059    23943852.399    23943855.871
        40.000          24.0004
 128632149.307 6 100232837.49543  24477887.084    24477888.429    24477886.466
        36.000          20.0004
 116980836.074 7  91153900.95345  22260709.778    22260706.048    22260709.300
        46.000          31.0004
 113859449.169 8  88721651.00046  21666719.803    21666716.708    21666719.514
        50.000          37.0004
 114520577.542 8  89236830.72046  21792531.198    21792530.842    21792530.748
        49.000          40.0004
 108034838.995 8  84182987.75747  20558333.933    20558330.727    20558333.238
        48.000          42.0004
 121028945.863 7  94308285.04744  23031043.642    23031043.567    23031042.867
        43.000          29.0004
 124480204.776 6  96997568.56543  23687788.775    23687786.387    23687788.503
        40.000          22.0004
 109625933.530 8  85422818.41547  20861109.650    20861108.695    20861109.355
        53.000          46.0004
 124519172.719 6  97027913.54043  23695209.526    23695209.868    23695209.086
        40.000          22.0004
 17  9 19  1 38 30.0000000  0 10G22G27G11G31G10G14G01G18G32G08
 125750582.730 7  97987475.42244  23929539.029    23929533.317    23929537.618
        42.000          25.0004
 128720586.031 6 100301749.17143  24494715.435    24494717.767    24494715.006
        36.000          20.0004
 116936829.390 7  91119610.04545  22252335.370    22252332.065    22252334.583
        45.000          31.0004
 113774185.969 8  88655212.18546  21650494.186    21650491.742    21650494.286
        49.000          37.0004
 114566434.150 8  89272563.13046  21801257.404    21801256.960    21801257.102
        50.000          40.0004
 108049117.966 8  84194114.23047  20561051.300    20561047.977    20561050.279
        48.000          43.0004
 120940536.983 7  94239395.04344  23014218.788    23014220.113    23014219.316
        43.000          29.0004
 124542691.423 6  97046259.44543  23699680.215    23699677.060    23699679.571
        41.000          22.0004
 109667748.621 8  85455401.60247  20869066.703    20869065.701    20869066.570
        53.000          45.0004
 124584212.548 6  97078593.89243  23707585.131    23707586.733    23707585.588
        40.000          22.0004
 17  9 19  1 39  0.0000000  0 10G22G27G11G31G10G14G01G18G32G08
 125675330.505 7  97928837.36944  23915218.350    23915213.775    23915217.146
        42.000          25.0004
 128808969.674 6 100370619.46843  24511534.776    24511537.756    24511534.113
        37.000          20.0004
 116893393.809 7  91085764.15645  22244070.073    22244066.653    22244069.327
        46.000          31.0004
 113689298.398 8  88589066.06246  21634341.264    21634337.913    21634341.029
        49.000          37.0004
 114612499.623 8  89308458.29746  21810023.346    21810022.683    21810023.269
        49.000          39.0004
 108063748.539 8  84205514.67247  20563835.509    20563831.956    20563834.593
        48.000          43.0004
 120852413.371 7  94170727.29845  22997450.656    22997450.380    22997449.676
        45.000          30.0004
 124605331.048 7  97095069.52943  23711600.331    23711597.176    23711599.328
        42.000          22.0004
 109709854.266 8  85488211.19547  20877078.932    20877078.195    20877078.930
        52.000          45.0004
 124649496.387 6  97129464.39543  23720008.852    23720009.937    23720008.566
        40.000          22.0004
 17  9 19  1 39 30.0000000  0 10G22G27G11G31G10G14G01G18G32G08
 125600072.940 7  97870195.13744  23900896.511    23900892.848    23900896.097
        42.000          25.0004
 128897297.030 6 100439445.90143  24528342.105    24528347.194    24528341.971
        38.000          21.0004
 116850530.500 7  91052364.18545  22235912.783    22235909.970    22235912.141
        46.000          31.0004
 113604789.417 8  88523214.94746  21618259.652    21618256.441    21618259.332
        49.000          37.0004
 114658774.018 8  89344516.26346  21818829.076    21818828.954    21818828.828
        49.000          39.0004
 108078728.848 8  84217187.64047  20566685.970    20566682.555    20566685.298
        48.000          43.0004
 120764577.306 6  94102283.65044  22980735.384    22980735.555    22980734.959
        41.000          29.0004
 124668124.090 6  97143999.16643  23723549.048    23723546.166    23723548.222
        40.000          21.0004
 109752248.390 8  85521245.58047  20885146.377    20885145.508    20885146.280
        52.000          46.0004
 124715021.181 6  97180522.65443  23732477.517    23732478.783    23732477.517
        40.000          22.0004
 17  9 19  1 40  0.0000000  0 10G22G27G11G31G10G14G01G18G32G08
 125524810.975 6  97811549.47044  23886575.914    23886570.701    23886573.943
        41.000          25.0004
 128985566.157 6 100508226.95643  24545139.336    24545144.752    24545138.542
        36.000          20.0004
 116808241.665 7  91019411.85545  22227866.071    22227862.554    22227865.463
        45.000          32.0004
 113520662.098 8  88457661.22346  21602251.143    21602247.495    21602250.928
        50.000          38.0004
 114705258.457 8  89380737.89146  21827675.224    21827674.937    21827674.951
        49.000          40.0004
 108094058.279 8  84229132.66447  20569603.072    20569599.649    20569602.432
        49.000          43.0004
 120677032.252 7  94034066.73244  22964076.120    22964076.416    22964075.739
        43.000          29.0004
 124731071.112 6  97193048.76343  23735527.287    23735524.876    23735526.663
        40.000          21.0004
 109794929.981 8  85554503.96847  20893268.520    20893267.671    20893268.368
        52.000          46.0004
 124780784.589 7  97231766.82643  23744992.894    23744993.173    23744992.636
        42.000          23.0004
 17  9 19  1 40 30.0000000  0 10G22G27G11G31G10G14G01G18G32G08
 125449545.098 7  97752900.77444  23872253.781    23872247.890    23872252.313
        42.000          24.0004
 129073773.890 5 100576960.20343  24561922.888    24561929.322    24561922.791
        34.000          19.0004
 116766528.033 7  90986907.73445  22219928.670    22219925.058    22219927.314
        46.000          32.0004
 113436919.326 8  88392407.16446  21586315.282    21586311.371    21586314.994
        50.000          37.0004
 114751953.054 8  89417123.27246  21836560.931    21836560.480    21836560.584
        50.000          40.0004
 108109735.259 7  84241348.49347  20572586.422    20572582.905    20572585.502
        47.000          43.0004
 120589780.412 7  93966078.34044  22947472.418    22947473.336    22947471.738
        42.000          29.0004
 124794171.939 6  97242218.22943  23747536.288    23747532.430    23747534.531
        41.000          21.0004
 109837896.967 8  85587984.74447  20901444.625    20901443.953    20901444.440
        53.000          45.0004
 124846783.744 7  97283194.70043  23757552.531    23757552.987    23757551.751
        42.000          23.0004
 17  9 19  1 41  0.0000000  0 10G22G27G11G31G10G14G01G18G32G08
 125374275.599 7  97694249.23544  23857929.380    23857925.045    23857928.923
        42.000          25.0004
 129161917.340 5 100645643.38143  24578696.584    24578701.787    24578696.463
        35.000          18.0004
 116725390.984 7  90954852.89845  22212100.201    22212096.676    22212099.721
        46.000          32.0004
 113353564.238 8  88327455.17646  21570453.005    21570449.494    21570452.805
        49.000          37.0004
 114798857.875 8  89453672.48046  21845486.535    21845486.215    21845486.209
        49.000          40.0004
 108125758.163 8  84253833.87547  20575635.397    20575632.195    20575634.601
        49.000          42.0004
 120502824.336 7  93898320.37444  22930925.136    22930925.994    22930924.561
        42.000          29.0004
 124857426.788 6  97291507.69143  23759571.801    23759569.877    23759571.568
        38.000          21.0004
 109881147.363 8  85621686.35847  20909674.957    20909674.286    20909675.042
        53.000          46.0004
 124913015.200 6  97334803.59044  23770156.374    23770156.040    23770156.019
        41.000          24.0004
 17  9 19  1 41 30.0000000  0 10G22G27G11G31G10G14G01G18G32G08
 125299002.852 7  97635595.16444  23843606.133    23843601.019    23843604.647
        43.000          25.0004
 129249993.774 6 100714274.30342  24595459.175    24595461.782    24595458.047
        36.000          16.0004
 116684831.993 7  90923248.49445  22204381.691    22204378.509    22204381.225
        46.000          32.0004
 113270599.627 8  88262807.45846  21554665.186    21554661.858    21554665.080
        50.000          37.0004
 114845973.393 8  89490385.88246  21854452.006    21854451.946    21854451.983
        49.000          40.0004
 108142125.379 8  84266587.56147  20578749.843    20578746.656    20578749.171
        50.000          42.0004
 120416166.680 7  93830794.95344  22914434.267    22914435.302    22914434.347
        42.000          29.0004
 124920836.008 6  97340917.44543  23771638.189    23771636.447    23771637.952
        40.000          21.0004
 109924679.461 8  85655607.48147  20917958.768    20917958.291    20917958.856
        52.000          46.0004
 124979475.963 6  97386591.18844  23782803.211    23782803.118    23782802.569
        41.000          24.0004
 17  9 19  1 42  0.0000000  0 10G22G27G11G31G10G14G01G18G32G08
 125223727.134 7  97576938.78244  23829281.408    23829276.661    23829279.769
        42.000          25.0004
 129338000.134 6 100782850.61142  24612208.409    24612208.653    24612206.373
        38.000          17.0004
 116644851.485 7  90892094.85545  22196773.211    22196770.253    22196772.996
        45.000          32.0004
 113188028.343 8  88198466.23346  21538952.205    21538949.229    21538952.069
        49.000          38.0004
 114893299.653 8  89527263.48446  21863457.779    21863457.739    21863457.351
        49.000          39.0004
 108158835.031 8  84279608.07147  20581929.726    20581926.361    20581928.806
        49.000          42.0004
 120329809.748 7  93763503.85844  22898000.739    22898002.386    22898001.219
        42.000          29.0004
 124984399.610 6  97390447.49743  23783735.035    23783731.752    23783733.884
        41.000          21.0004
 109968491.160 8  85689746.47347  20926295.965    20926295.317    20926295.901
        53.000          46.0004
 125046162.772 6  97438554.91844  23795492.620    23795493.193    23795492.580
        40.000          24.0004
 17  9 19  1 42 30.0000000  0 10G22G27G11G31G10G14G01G18G32G08
 125148449.474 7  97518280.90044  23814956.380    23814951.308    23814955.175
        42.000          26.0004
 129425934.133 6 100851370.53042  24628941.878    24628941.986    24628940.514
        36.000          17.0004
 116605451.679 7  90861393.71245  22189276.716    22189272.933    22189275.892
        46.000          32.0004
 113105853.695 8  88134434.06946  21523315.169    21523312.126    21523314.884
        50.000          38.0004
 114940837.424 8  89564305.90446  21872503.576    21872503.601    21872503.502
        50.000          39.0004
 108175886.375 8  84292894.83747  20585174.695    20585171.048    20585173.707
        50.000          42.0004
 120243756.613 7  93696449.51444  22881625.797    22881627.087    22881625.845
        42.000          29.0004
 125048118.208 6  97440098.34743  23795860.157    23795857.647    23795859.481
        37.000          21.0004
 110012581.151 8  85724102.31247  20934685.903    20934685.370    20934685.953
        53.000          46.0004
 125113073.149 6  97490692.84643  23808225.406    23808226.008    23808224.676
        40.000          22.0004
 17  9 19  1 43  0.0000000  0 10G22G27G11G31G10G14G01G18G32G08
 125073170.164 7  97459621.71544  23800630.690    23800626.584    23800629.591
        42.000          26.0004
 129513792.696 5 100919831.70942  24645658.783    24645661.542    24645659.006
        34.000          17.0004
 116566633.281 7  90831145.61045  22181889.309    22181885.911    22181888.916
        47.000          32.0004
 113024078.287 8  88070713.00646  21507754.225    21507750.750    21507753.624
        51.000          38.0004
 114988586.794 8  89601513.20346  21881590.290    21881590.152    21881590.126
        49.000          39.0004
 108193277.500 8  84306446.36847  20588483.681    20588480.471    20588482.980
        49.000          42.0004
 120158009.650 7  93629633.72245  22865309.446    22865309.641    22865309.085
        43.000          30.0004
 125111991.532 6  97489869.75343  23808015.797    23808012.201    23808014.588
        41.000          21.0004
 110056947.375 8  85758673.39847  20943128.500    20943127.957    20943128.562
        53.000          45.0004
 125180203.520 6  97543002.21043  23820998.895    23820999.642    23820998.807
        39.000          22.0004
 17  9 19  1 43 30.0000000  0 10G22G27G11G31G10G14G01G18G32G08
 124997889.873 6  97400961.78544  23786305.014    23786301.245    23786304.183
        41.000          26.0004
 129601573.413 5 100988232.28442  24662362.339    24662366.961    24662362.284
        33.000          15.0004
 116528397.846 7  90801351.76745  22174613.669    22174610.017    22174612.629
        46.000          32.0004
 112942705.434 8  88007305.62446  21492269.206    21492266.141    21492268.791
        49.000          38.0004
 115036548.505 8  89638885.95346  21890717.332    21890716.890    21890716.729
        49.000          39.0004
 108211007.434 8  84320261.90947  20591857.786    20591854.206    20591856.885
        48.000          42.0004
 120072571.826 7  93563058.80844  22849050.515    22849051.203    22849050.323
        42.000          29.0004
 125176020.346 6  97539762.31943  23820199.343    23820196.590    23820198.779
        41.000          21.0004
 110101588.425 8  85793458.64047  20951623.484    20951622.864    20951623.494
        52.000          45.0004
 125247551.431 6  97595481.06743  23833815.264    23833815.659    23833814.723
        39.000          21.0004
 17  9 19  1 44  0.0000000  0 10G22G27G11G31G10G14G01G18G32G08
 124922608.824 6  97342301.23144  23771979.159    23771975.160    23771978.741
        41.000          25.0004
 129689273.362 5 101056569.90942  24679052.269    24679055.186    24679049.716
        31.000          13.0004
 116490746.501 7  90772013.06345  22167448.054    22167445.096    22167447.649
        45.000          32.0004
 112861737.839 8  87944214.01946  21476861.567    21476858.432    21476861.226
        49.000          39.0004
 115084722.591 8  89676424.19146  21899884.537    21899883.952    21899884.449
        49.000          39.0004
 108229074.515 8  84334340.16247  20595295.725    20595292.364    20595294.960
        48.000          43.0004
 119987445.481 7  93496726.63245  22832851.608    22832852.211    22832851.290
        43.000          30.0004
 125240204.676 7  97589776.06143  23832414.432    23832410.225    23832413.154
        42.000          21.0004
 110146502.270 8  85828456.44447  20960170.434    20960169.677    20960170.572
        53.000          45.0004
 125315114.074 6  97648127.22843  23846672.655    23846672.614    23846671.773
        37.000          21.0004
 17  9 19  1 44 30.0000000  0 10G22G27G11G31G10G14G01G18G32G08
 124847326.883 6  97283640.00644  23757654.459    23757650.023    23757652.351
        41.000          25.0004
 129776889.181 4 101124870.97141  24695745.975    24695726.682    24695719.039
        29.000          11.0004
 116453679.609 7  90743129.78445  22160395.239    22160391.727    22160394.571
        46.000          32.0004
 112781177.727 8  87881439.93946  21461531.668    21461528.276    21461531.244
        51.000          39.0004
 115133108.752 8  89714127.70046  21909092.613    21909091.537    21909092.219
        49.000          38.0004
 108247476.394 8  84348679.29647  20598797.579    20598794.245    20598796.621
        48.000          42.0004
 119902632.639 7  93430638.73445  22816713.002    22816713.077    22816712.233
        45.000          31.0004
 125304543.786 6  97639910.41743  23844657.011    23844653.687    23844656.084
        41.000          20.0004
 110191686.487 8  85863664.92947  20968769.010    20968767.862    20968768.864
        53.000          45.0004
 125382887.263 6  97700937.45243  23859569.190    23859570.089    23859567.977
        38.000          21.0004
 17  9 19  1 45  0.0000000  0  9G22G11G31G10G14G01G18G32G08
 124772045.561 6  97224979.27244  23743328.623    23743324.187    23743326.622
        41.000          24.0004
 116417198.911 7  90714703.26845  22153453.553    22153449.736    22153452.686
        47.000          32.0004
 112701028.663 8  87818986.15346  21446279.132    21446276.344    21446279.092
        51.000          39.0004
 115181708.175 8  89751997.38046  21918340.509    21918339.748    21918340.012
        49.000          38.0004
 108266212.381 8  84363278.77047  20602362.799    20602359.585    20602361.886
        48.000          43.0004
 119818136.722 7  93364797.77445  22800633.522    22800633.946    22800633.337
        42.000          31.0004
 125369038.767 6  97690166.24843  23856929.025    23856925.795    23856928.657
        39.000          19.0004
 110237140.118 8  85899083.34347  20977418.413    20977417.271    20977418.279
        53.000          45.0004
 125450869.034 6  97753910.19243  23872506.079    23872506.442    23872505.348
        38.000          22.0004
 17  9 19  1 45 30.0000000  0  9G22G11G31G10G14G01G18G32G08
 124696765.469 7  97166319.46944  23729003.446    23728998.843    23729001.778
        42.000          25.0004
 116381305.600 7  90686734.45945  22146623.370    22146619.127    22146622.596
        47.000          33.0004
 112621293.631 8  87756854.98746  21431106.068    21431103.198    21431105.874
        50.000          39.0004
 115230521.106 8  89790033.43146  21927628.797    21927628.835    21927628.564
        48.000          38.0004
 108285281.074 8  84378137.50347  20605991.363    20605988.013    20605990.641
        49.000          42.0004
 119733960.279 7  93299205.76445  22784615.193    22784615.470    22784614.593
        44.000          31.0004
 125433689.830 6  97740543.68643  23869231.932    23869228.745    23869231.184
        38.000          18.0004
 110282861.335 8  85934710.27347  20986118.368    20986117.671    20986118.423
        52.000          45.0004
 125519056.033 6  97807042.89443  23885481.519    23885482.767    23885480.878
        40.000          22.0004
 17  9 19  1 46  0.0000000  0  9G22G11G31G10G14G01G18G32G08
 124621487.108 7  97107661.05344  23714678.632    23714673.451    23714677.111
        42.000          25.0004
 116346000.786 7  90659224.21945  22139904.740    22139901.000    22139903.947
        47.000          32.0004
 112541975.559 8  87695048.72546  21416012.141    21416009.614    21416011.922
        50.000          38.0004
 115279547.863 8  89828236.09946  21936958.671    21936958.492    21936958.325
        49.000          39.0004
 108304680.883 8  84393254.24147  20609683.267    20609679.678    20609682.288
        49.000          42.0004
 119650105.869 7  93233864.69045  22768658.237    22768658.394    22768658.062
        44.000          30.0004
 125498497.064 6  97791042.81242  23881564.790    23881560.170    23881563.808
        39.000          16.0004
 110328848.363 8  85970544.32447  20994869.712    20994868.688    20994869.860
        53.000          45.0004
 125587445.634 6  97860333.44143  23898496.293    23898496.639    23898495.878
        41.000          23.0004
 17  9 19  1 46 30.0000000  0  9G22G11G31G10G14G01G18G32G08
 124546210.671 7  97049004.12744  23700354.428    23700348.878    23700352.459
        43.000          26.0004
 116311285.328 7  90632173.21545  22133298.399    22133294.468    22133297.748
        46.000          32.0004
 112463076.994 8  87633569.35446  21400998.382    21400995.599    21400998.172
        50.000          39.0004
 115328788.503 8  89866605.42146  21946328.832    21946328.712    21946328.440
        49.000          38.0004
 108324410.041 8  84408627.61947  20613437.624    20613434.163    20613436.638
        48.000          42.0004
 119566575.885 7  93168776.43145  22752763.130    22752763.597    22752762.573
        43.000          31.0004
 125563460.672 6  97841663.79742  23893925.157    23893923.210    23893924.701
        36.000          16.0004
 110375099.166 8  86006583.91747  21003671.149    21003670.126    21003671.034
        52.000          45.0004
 125656034.110 6  97913778.96843  23911547.213    23911548.607    23911547.498
        39.000          23.0004
 17  9 19  1 47  0.0000000  0  9G22G11G31G10G14G01G18G32G08
 124470937.111 6  96990349.43944  23686029.264    23686024.699    23686028.035
        41.000          26.0004
 116277160.731 8  90605582.62345  22126804.806    22126801.085    22126804.175
        48.000          32.0004
 112384601.152 8  87572419.37646  21386065.271    21386061.977    21386064.930
        50.000          39.0004
 115378244.002 8  89905142.16646  21955739.527    21955739.495    21955739.336
        49.000          38.0004
 108344467.626 8  84424256.91347  20617254.295    20617251.136    20617253.414
        48.000          42.0004
 119483373.563 7  93103943.47145  22736929.749    22736930.488    22736929.859
        44.000          31.0004
 125628581.093 5  97892406.96542  23906316.763    23906315.190    23906316.429
        35.000          15.0004
 110421612.597 8  86042828.15647  21012522.307    21012521.326    21012522.226
        53.000          46.0004
 125724819.456 6  97967377.89143  23924636.302    23924638.127    23924636.241
        37.000          22.0004
 17  9 19  1 47 30.0000000  0 10G22G27G11G31G10G14G01G18G32G08
 124395666.845 7  96931697.31644  23671706.038    23671700.678    23671704.489
        42.000          26.0004
 130300705.675 6 101533016.16943  24795399.504    24795401.353    24795398.803
        38.000          19.0004
 116243627.667 7  90579452.96445  22120423.230    22120420.003    22120422.523
        46.000          32.0004
 112306550.823 8  87511600.96746  21371212.785    21371209.585    21371212.336
        50.000          39.0004
 115427914.296 8  89943846.29946  21965191.901    21965191.555    21965191.522
        48.000          38.0004
 108364851.944 8  84440140.80147  20621133.387    20621130.131    20621132.503
        48.000          43.0004
 119400501.143 7  93039367.59345  22721159.915    22721160.421    22721159.441
        44.000          31.0004
 125693858.337 6  97943272.34742  23918739.668    23918736.787    23918738.693
        36.000          13.0004
 110468386.550 8  86079275.39947  21021423.053    21021422.084    21021422.820
        52.000          45.0004
 125793798.061 6  98021127.40843  23937762.075    23937764.509    23937762.319
        38.000          22.0004
 17  9 19  1 48  0.0000000  0 10G22G27G11G31G10G14G01G18G32G08
 124320400.621 7  96873048.36444  23657383.976    23657378.119    23657382.314
        43.000          26.0004
 130387662.534 6 101600774.67243  24811947.283    24811949.375    24811945.159
        37.000          19.0004
 116210687.130 7  90553785.02045  22114154.453    22114151.792    22114154.004
        46.000          32.0004
 112228928.799 8  87451116.30346  21356441.718    21356438.264    21356441.230
        50.000          38.0004
 115477799.752 8  89982718.08146  21974684.440    21974684.263    21974684.421
        48.000          38.0004
 108385561.345 8  84456278.01047  20625074.523    20625070.895    20625073.370
        48.000          43.0004
 119317961.211 7  92975050.77045  22705452.877    22705453.589    22705452.731
        43.000          31.0004
 125759292.335 6  97994259.89142  23931190.363    23931188.959    23931189.295
        36.000          13.0004
 110515419.242 8  86115924.26047  21030372.663    21030372.047    21030372.754
        52.000          45.0004
 125862966.876 6  98075025.12443  23950924.149    23950926.434    23950924.395
        37.000          22.0004
 17  9 19  1 48 30.0000000  0 10G22G27G11G31G10G14G01G18G32G08
 124245139.056 7  96814403.02644  23643061.281    23643056.301    23643060.115
        42.000          26.0004
 130474514.528 6 101668451.49943  24828473.241    24828476.469    24828472.866
        36.000          18.0004
 116178340.122 7  90528579.56245  22107999.957    22107996.115    22107999.002
        46.000          32.0004
 112151737.715 8  87390967.44946  21341752.578    21341749.281    21341752.373
        50.000          39.0004
 115527900.724 8  90021757.80246  21984218.039    21984218.207    21984217.800
        49.000          37.0004
 108406594.539 8  84472667.51547  20629077.131    20629073.327    20629076.062
        50.000          43.0004
 119235756.517 7  92910995.15845  22689810.182    22689810.210    22689809.939
        44.000          31.0004
 125824883.410 5  98045369.78142  23943672.648    23943669.944    23943672.353
        35.000          13.0004
 110562709.036 8  86152773.44947  21039371.880    21039370.943    21039371.803
        53.000          45.0004
 125932322.794 6  98129068.65443  23964123.112    23964124.613    23964122.752
        40.000          22.0004
 17  9 19  1 49  0.0000000  0 10G22G27G11G31G10G14G01G18G32G08
 124169882.046 6  96755761.24244  23628740.083    23628735.565    23628739.305
        40.000          27.0004
 130561258.690 5 101736044.32343  24844978.606    24844982.942    24844979.371
        35.000          18.0004
 116146587.304 7  90503837.09845  22101957.221    22101954.024    22101956.526
        46.000          32.0004
 112074980.101 8  87331156.35046  21327145.931    21327142.728    21327146.019
        50.000          39.0004
 115578217.144 7  90060965.39746  21993793.167    21993792.888    21993792.941
        46.000          37.0004
 108427949.251 8  84489307.55047  20633140.644    20633137.011    20633139.666
        50.000          43.0004
 119153889.137 7  92847202.42345  22674230.583    22674231.539    22674230.814
        44.000          31.0004
 125890631.602 5  98096602.13842  23956184.297    23956182.104    23956184.102
        35.000          13.0004
 110610253.748 8  86189821.28547  21048419.321    21048418.531    21048419.321
        52.000          45.0004
 126001862.943 6  98183255.74343  23977357.393    23977357.682    23977357.006
        41.000          23.0004
 17  9 19  1 49 30.0000000  0 10G22G27G11G31G10G14G01G18G32G08
 124094630.613 7  96697123.80144  23614420.117    23614415.808    23614418.984
        43.000          27.0004
 130647892.414 5 101803551.05142  24861467.038    24861469.624    24861466.111
        35.000          16.0004
 116115429.347 7  90479558.17945  22096028.216    22096024.585    22096027.731
        45.000          32.0004
 111998658.784 8  87271685.22846  21312622.977    21312619.494    21312622.636
        51.000          39.0004
 115628749.378 8  90100341.16346  22003409.485    22003408.531    22003408.822
        48.000          37.0004
 108449623.979 8  84506196.95847  20637264.956    20637261.587    20637264.257
        49.000          43.0004
 119072361.790 7  92783674.64145  22658717.503    22658717.557    22658717.139
        44.000          32.0004
 125956536.471 5  98147956.55642  23968725.297    23968723.306    23968724.557
        35.000          12.0004
 110658051.661 9  86227066.41947  21057515.020    21057514.278    21057514.987
        54.000          45.0004
 126071583.955 6  98237583.78343  23990624.438    23990625.784    23990624.465
        41.000          23.0004
 17  9 19  1 50  0.0000000  0 10G22G27G11G31G10G14G01G18G32G08
 124019385.162 7  96638491.01744  23600101.744    23600097.106    23600100.560
        42.000          27.0004
 130734413.101 6 101870969.70042  24877932.635    24877933.562    24877931.505
        38.000          16.0004
 116084867.420 7  90455743.67545  22090212.720    22090208.625    22090211.809
        46.000          32.0004
 111922776.862 8  87212556.49746  21298182.702    21298179.550    21298182.712
        50.000          39.0004
 115679497.704 8  90139885.31546  22013066.232    22013065.783    22013065.981
        48.000          37.0004
 108471617.432 8  84523334.72647  20641450.397    20641446.697    20641449.654
        49.000          43.0004
 118991177.047 7  92720413.81645  22643268.363    22643268.929    22643268.042
        43.000          31.0004
 126022598.728 6  98199433.63042  23981297.465    23981294.785    23981296.726
        37.000          12.0004
 110706101.012 9  86264507.47247  21066658.652    21066657.820    21066658.552
        54.000          44.0004
 126141482.904 6  98292050.46243  24003926.681    24003926.904    24003926.025
        41.000          22.0004
 17  9 19  1 50 30.0000000  0 10G22G27G11G31G10G14G01G18G32G08
 123944146.152 7  96579863.25544  23585784.288    23585779.289    23585783.249
        43.000          28.0004
 130820817.945 5 101938298.07942  24894373.139    24894375.605    24894373.347
        35.000          16.0004
 116054901.983 7  90432393.98445  22084509.941    22084506.834    22084509.272
        46.000          32.0004
 111847336.635 8  87153771.92946  21283827.186    21283824.016    21283827.013
        51.000          40.0004
 115730462.293 8  90179597.98146  22022764.799    22022764.268    22022764.689
        48.000          38.0004
 108493927.902 8  84540719.51947  20645695.972    20645692.182    20645695.044
        48.000          43.0004
 118910337.365 7  92657421.85145  22627884.649    22627884.923    22627884.285
        44.000          31.0004
 126088818.160 6  98251033.18142  23993898.898    23993894.971    23993898.178
        37.000          13.0004
 110754399.934 8  86302143.00147  21075849.163    21075848.550    21075849.438
        53.000          45.0004
 126211556.680 6  98346653.38143  24017261.204    24017260.687    24017260.298
        41.000          22.0004
 17  9 19  1 51  0.0000000  0 10G22G27G11G31G10G14G01G18G32G08
 123868914.753 7  96521241.43344  23571468.572    23571463.463    23571466.953
        43.000          28.0004
 130907104.709 5 102005534.44342  24910794.428    24910794.891    24910792.664
        35.000          14.0004
 116025534.139 7  90409509.95345  22078921.656    22078918.219    22078920.987
        47.000          33.0004
 111772341.398 8  87095334.11846  21269556.202    21269552.850    21269555.897
        51.000          40.0004
 115781643.872 8  90219479.72146  22032504.223    22032504.014    22032504.060
        48.000          38.0004
 108516554.272 8  84558350.46647  20650001.238    20649997.816    20650000.477
        49.000          43.0004
 118829845.708 7  92594701.08945  22612567.244    22612568.448    22612567.173
        42.000          31.0004
 126155195.528 6  98302755.77042  24006530.639    24006526.226    24006529.568
        38.000          14.0004
 110802947.084 8  86339971.95547  21085087.646    21085086.789    21085087.496
        52.000          44.0004
 126281802.772 7  98401390.54443  24030628.107    24030628.012    24030627.441
        42.000          21.0004
 17  9 19  1 51 30.0000000  0 10G22G27G11G31G10G14G01G18G32G08
 123793691.617 7  96462626.05244  23557153.655    23557148.583    23557152.556
        43.000          27.0004
 130993270.891 5 102072676.88042  24927189.043    24927192.284    24927189.975
        35.000          15.0004
 115996765.182 7  90387092.59345  22073446.891    22073443.791    22073446.595
        47.000          33.0004
 111697793.720 8  87037245.05246  21255369.978    21255367.184    21255369.939
        51.000          40.0004
 115833042.811 8  90259530.83446  22042285.165    22042284.937    22042285.018
        48.000          38.0004
 108539495.158 8  84576226.48447  20654367.106    20654363.427    20654366.036
        50.000          42.0004
 118749704.741 7  92532253.60945  22597317.192    22597317.805    22597316.438
        43.000          31.0004
 126221730.581 6  98354601.26842  24019192.067    24019187.914    24019190.608
        39.000          15.0004
 110851740.807 8  86377993.04447  21094372.757    21094371.996    21094372.638
        51.000          44.0004
 126352217.929 6  98456259.46743  24044026.913    24044028.000    24044026.963
        40.000          21.0004
 17  9 19  1 52  0.0000000  0 10G22G27G11G31G10G14G01G18G32G08
 123718477.210 7  96404017.44844  23542842.094    23542835.959    23542839.536
        42.000          28.0004
 131079313.739 5 102139723.21542  24943562.617    24943566.803    24943562.009
        33.000          14.0004
 115968595.516 7  90365142.20745  22068086.745    22068083.221    22068086.117
        45.000          34.0004
 111623696.023 8  86979506.61146  21241269.997    21241266.520    21241269.693
        51.000          40.0004
 115884659.153 8  90299751.35846  22052107.580    22052107.211    22052107.197
        48.000          38.0004
 108562748.732 8  84594346.15947  20658791.541    20658788.435    20658791.096
        49.000          43.0004
 118669916.879 7  92470081.26245  22582134.029    22582134.980    22582133.974
        43.000          32.0004
 126288423.376 6  98406569.67342  24031883.096    24031878.607    24031882.334
        38.000          15.0004
 110900779.123 8  86416204.72447  21103704.215    21103703.607    21103704.107
        51.000          44.0004
 126422798.992 6  98511257.65643  24057458.453    24057458.783    24057458.198
        40.000          20.0004
 17  9 19  1 52 30.0000000  0 10G22G27G11G31G10G14G01G18G32G08
 123643272.323 7  96345416.26544  23528529.845    23528524.768    23528528.231
        42.000          28.0004
 131165230.752 5 102206671.45642  24959913.811    24959917.326    24959911.875
        34.000          13.0004
 115941026.031 8  90343659.49145  22062840.503    22062836.981    22062840.047
        48.000          33.0004
 111550051.504 8  86922121.31046  21227255.424    21227252.488    21227255.147
        51.000          40.0004
 115936493.514 8  90340141.77546  22061970.912    22061970.986    22061971.072
        48.000          38.0004
 108586313.764 8  84612708.53047  20663276.245    20663272.650    20663275.405
        50.000          43.0004
 118590484.864 7  92408186.20545  22567018.755    22567018.901    22567018.602
        44.000          31.0004
 126355274.036 6  98458661.10142  24044603.611    24044600.229    24044603.726
        37.000          15.0004
 110950060.531 8  86454605.82147  21113082.113    21113081.581    21113082.203
        52.000          44.0004
 126493543.182 6  98566382.97643  24070919.899    24070922.035    24070919.964
        39.000          20.0004
 17  9 19  1 53  0.0000000  0 10G22G27G11G31G10G14G01G18G32G08
 123568077.285 7  96286822.77044  23514220.589    23514214.958    23514219.004
        43.000          27.0004
 131251018.796 5 102273519.22742  24976239.517    24976241.794    24976237.691
        35.000          13.0004
 115914056.983 7  90322644.64845  22057707.661    22057704.958    22057707.277
        45.000          33.0004
 111476862.294 8  86865090.77746  21213327.692    21213324.906    21213327.777
        52.000          40.0004
 115988545.494 8  90380701.75746  22071876.430    22071876.464    22071876.393
        48.000          38.0004
 108610187.678 8  84631311.59147  20667819.051    20667815.813    20667818.383
        49.000          43.0004
 118511410.712 7  92346569.98645  22551971.455    22551971.574    22551971.165
        44.000          31.0004
 126422282.369 6  98510875.38842  24057355.744    24057351.332    24057354.822
        36.000          14.0004
 110999582.706 8  86493194.52947  21122506.071    21122505.280    21122505.971
        52.000          44.0004
 126564446.646 6  98621632.40843  24084412.250    24084415.779    24084412.150
        39.000          20.0004
 17  9 19  1 53 30.0000000  0 10G22G27G11G31G10G14G01G18G32G08
 123492892.827 7  96228237.50944  23499913.288    23499907.927    23499912.490
        42.000          27.0004
 131336675.785 5 102340264.88642  24992539.722    24992541.329    24992538.045
        35.000          13.0004
 115887689.173 7  90302098.31545  22052690.746    22052687.522    22052689.857
        46.000          33.0004
 111404131.325 8  86808417.32546  21199487.241    21199484.532    21199487.271
        50.000          40.0004
 116040815.759 8  90421431.83146  22081823.640    22081822.777    22081823.201
        49.000          38.0004
 108634369.542 8  84650154.61147  20672420.625    20672417.541    20672419.815
        50.000          42.0004
 118432697.300 7  92285234.86745  22536992.958    22536993.328    22536992.962
        44.000          32.0004
 126489449.393 5  98563213.31441  24070135.107    24070134.536    24070135.099
        34.000          11.0004
 111049344.258 8  86531969.76647  21131975.316    21131974.649    21131974.901
        53.000          44.0004
 126635506.831 6  98677003.95743  24097935.544    24097937.201    24097934.847
        37.000          19.0004
 17  9 19  1 54  0.0000000  0 10G22G27G11G31G10G14G01G18G32G08
 123417719.770 7  96169661.14344  23485608.243    23485603.362    23485607.365
        42.000          27.0004
 131422199.326 5 102406906.54642  25008814.842    25008815.871    25008814.268
        33.000          13.0004
 115861923.807 7  90282021.40545  22047787.455    22047784.410    22047786.959
        46.000          33.0004
 111331861.356 8  86752103.09546  21185735.027    21185731.931    21185734.773
        50.000          40.0004
 116093304.876 7  90462332.43646  22091811.717    22091810.992    22091811.306
        47.000          38.0004
 108658858.148 8  84669236.65147  20677080.713    20677077.359    20677079.780
        48.000          42.0004
 118354347.462 7  92224183.06845  22522083.304    22522083.856    22522082.995
        44.000          32.0004
 126556774.768 5  98615674.65641  24082948.166    24082945.741    24082945.105
        34.000          10.0004
 111099343.748 8  86570930.40847  21141489.570    21141489.255    21141489.735
        51.000          44.0004
 126706721.061 6  98732495.54043  24111486.546    24111488.326    24111486.485
        38.000          19.0004
 17  9 19  1 54 30.0000000  0 10G22G27G11G31G10G14G01G18G32G08
 123342558.389 6  96111093.87644  23471304.753    23471300.778    23471303.862
        41.000          27.0004
 131507586.263 5                  25025064.985
        34.000
 115836760.611 7  90262413.72945  22042999.393    22042995.840    22042998.490
        47.000          33.0004
 111260054.363 8  86696149.62646  21172070.663    21172067.253    21172070.279
        51.000          40.0004
 116146012.499 8  90503403.32146  22101841.213    22101840.974    22101840.845
        49.000          38.0004
 108683651.190 8  84688555.91447  20681798.885    20681795.316    20681797.944
        49.000          42.0004
 118276363.140 7  92163416.07945  22507242.946    22507243.337    22507242.874
        44.000          32.0004
 126624257.921 5                  24095788.619
        33.000
 111149578.827 8  86610074.62847  21151049.752    21151048.678    21151049.390
        52.000          45.0004
 126778085.983 6  98788104.51543  24125065.959    24125068.396    24125066.402
        37.000          20.0004
 17  9 19  1 55  0.0000000  0 10G22G27G11G31G10G14G01G18G32G08
 123267409.812 7  96052536.57144  23457005.332    23457000.822    23457004.136
        43.000          27.0004
 131592834.429 5                  25041286.252
        32.000
 115812200.890 7  90243276.29045  22038325.163    22038322.426    22038324.813
        45.000          33.0004
 111188713.691 8  86640559.51646  21158494.977    21158491.641    21158494.784
        51.000          40.0004
 116198939.341 7  90544645.01546  22111912.807    22111912.767    22111912.471
        46.000          38.0004
 108708747.487 8  84708111.48247  20686574.348    20686571.133    20686573.551
        49.000          43.0004
 118198747.321 7  92102936.22845  22492472.838    22492473.312    22492473.088
        43.000          32.0004
 126691899.375 5                  24108659.681
        32.000
 111200048.195 8  86649401.40947  21160653.416    21160652.668    21160653.581
        52.000          44.0004
 126849598.394 6  98843828.41043  24138675.626    24138676.790    24138674.905
        38.000          20.0004
 17  9 19  1 55 30.0000000  0 10G22G27G11G31G10G14G01G18G32G08
 123192275.358 7  95993990.30544  23442707.297    23442703.170    23442706.058
        42.000          27.0004
 131677941.951 5                  25057482.618
        32.000
 115788245.475 7  90224609.74045  22033767.125    22033763.289    22033766.355
        47.000          33.0004
 111117842.554 8  86585335.27946  21145008.586    21145005.242    21145008.432
        51.000          40.0004
 116252086.197 7  90586058.13946  22122026.366    22122026.380    22122025.792
        47.000          37.0004
 108734146.357 8  84727902.81147  20691407.393    20691404.420    20691406.492
        49.000          42.0004
 118121503.082 7  92042745.93345  22477774.668    22477774.743    22477774.057
        45.000          32.0004
 126759699.782 5                  24121562.050
        32.000
 111250750.664 8  86688909.82547  21170302.187    21170301.046    21170301.842
        53.000          44.0004
 126921256.119 6  98899665.52143  24152311.944    24152313.125    24152311.452
        38.000          20.0004
 17  9 19  1 56  0.0000000  0 10G22G27G11G31G10G14G01G18G32G08
 123117154.618 7  95935454.67844  23428413.344    23428407.698    23428411.377
        43.000          27.0004
 131762905.240 5                  25073650.432
        32.000
 115764894.357 8  90206414.05645  22029323.614    22029319.947    22029322.939
        48.000          33.0004
 111047442.441 8  86530478.08146  21131612.128    21131608.451    21131611.915
        52.000          40.0004
 116305452.431 7  90627642.21746  22132181.419    22132181.600    22132181.367
        46.000          37.0004
 108759845.056 8  84747927.77047  20696297.926    20696294.593    20696296.998
        49.000          42.0004
 118044632.061 7  91982846.45545  22463146.108    22463147.196    22463145.908
        44.000          32.0004
 126827658.392 5                  24134496.048
        34.000
 111301683.632 8  86728597.86347  21179993.959    21179993.250    21179993.949
        52.000          44.0004
 126993055.255 6  98955612.84943  24165973.878    24165975.819    24165974.191
        37.000          19.0004
 17  9 19  1 56 30.0000000  0 10G22G27G11G31G10G14G01G18G32G08
 123042048.772 7  95876930.67144  23414121.001    23414115.697    23414119.533
        45.000          29.0004
 131847722.388 5                  25089791.401
        30.000
 115742148.384 7  90188689.92045  22024995.438    22024991.690    22024994.542
        47.000          33.0004
 110977516.203 8  86475990.12946  21118305.219    21118301.832    21118305.180
        51.000          40.0004
 116359038.782 8  90669397.82046  22142378.677    22142378.764    22142378.602
        48.000          37.0004
 108785842.592 8  84768185.59247  20701244.966    20701241.744    20701244.130
        49.000          43.0004
 117968137.267 7  91923240.13845  22448589.889    22448590.304    22448589.438
        45.000          33.0004
 126895775.868 5                  24147458.997
        34.000
 111352845.866 8  86768464.53947  21189729.750    21189729.263    21189729.798
        53.000          44.0004
 127064993.002 6  99011668.18843  24179664.256    24179665.077    24179663.439
        38.000          19.0004
 17  9 19  1 57  0.0000000  0 10G22G27G11G31G10G14G01G18G32G08
 122966959.000 7  95818419.20444  23399831.591    23399826.433    23399830.099
        43.000          28.0004
 131932390.973 4                  25105904.400
        27.000
 115720008.494 7  90171438.06645  22020781.512    22020778.778    22020781.136
        46.000          33.0004
 110908066.848 8  86421873.77746  21105089.728    21105085.758    21105089.631
        52.000          41.0004
 116412845.616 7  90711325.22246  22152617.655    22152618.049    22152617.638
        46.000          37.0004
 108812137.624 8  84788675.23447  20706248.660    20706245.486    20706247.865
        49.000          42.0004
 117892021.320 7  91863929.03045  22434105.032    22434105.827    22434104.940
        45.000          33.0004
 126964052.311 5                  24160450.060
        34.000
 111404235.732 8  86808508.59347  21199509.263    21199508.298    21199509.009
        53.000          44.0004
 127137066.635 6  99067829.42643  24193379.415    24193380.378    24193379.174
        38.000          20.0004
 17  9 19  1 57 30.0000000  0 10G22G27G11G31G10G14G01G18G32G08
 122891885.114 7  95759920.08544  23385545.431    23385540.381    23385544.002
        42.000          28.0004
 132016907.673 5                  25121982.217
        30.000
 115698474.023 8  90154657.96345  22016684.238    22016680.766    22016683.243
        48.000          33.0004
 110839096.079 8  86368130.34146  21091964.813    21091961.283    21091964.641
        50.000          40.0004
 116466872.508 8  90753424.09946  22162899.003    22162898.796    22162898.808
        48.000          37.0004
 108838727.604 8  84809394.69747  20711308.978    20711305.496    20711307.938
        49.000          42.0004
 117816286.087 7  91804914.57745  22419693.371    22419694.114    22419693.036
        44.000          33.0004
 127032487.101 5                  24173473.547
        33.000
 111455850.876 8  86848728.19047  21209331.122    21209330.198    21209331.161
        51.000          44.0004
 127209272.499 6  99124093.68643  24207119.977    24207121.434    24207119.571
        40.000          21.0004
 17  9 19  1 58  0.0000000  0  9G22G11G31G10G14G01G18G32G08
 122816828.333 7  95701434.30844  23371263.008    23371256.776    23371261.311
        43.000          28.0004
 115677545.801 7  90138350.24945  22012701.887    22012698.519    22012700.834
        46.000          33.0004
 110770606.918 8  86314762.19146  21078932.181    21078928.313    21078931.648
        52.000          41.0004
 116521120.283 7  90795695.07546  22173222.392    22173221.606    22173222.117
        46.000          37.0004
 108865611.595 8  84830343.26647  20716424.354    20716421.281    20716423.691
        50.000          43.0004
 117740934.590 7  91746199.14745  22405354.956    22405354.898    22405354.444
        44.000          33.0004
 127101080.749 5                  24186525.424
        33.000
 111507690.148 8  86889122.43447  21219195.730    21219194.883    21219195.640
        52.000          44.0004
 127281607.966 6  99180458.92943  24220884.763    24220886.708    24220884.733
        38.000          23.0004
 17  9 19  1 58 30.0000000  0  9G22G11G31G10G14G01G18G32G08
 122741789.053 7  95642962.16544  23356983.268    23356978.016    23356981.966
        45.000          29.0004
 115657224.380 7  90122515.38345  22008834.461    22008831.174    22008833.693
        46.000          33.0004
 110702601.493 8  86261770.98546  21065990.644    21065987.454    21065990.556
        51.000          41.0004
 116575588.852 7  90838138.10846  22183586.963    22183586.703    22183586.725
        45.000          37.0004
 108892787.567 8  84851519.35147  20721595.970    20721592.820    20721595.129
        49.000          43.0004
 117665969.088 7  91687784.47745  22391089.347    22391089.350    22391088.828
        45.000          33.0004
 127169832.639 5  99093347.87441  24199607.580    24199607.493    24199607.795
        31.000           6.0004
 111559751.528 8  86929689.74547  21229102.511    21229101.887    21229102.568
        51.000          44.0004
 127354069.875 6  99236922.70043  24234672.826    24234675.580    24234672.678
        37.000          22.0004
