     2.11           OBSERVATION DATA    G (GPS)             RINEX VERSION / TYPE
teqc  2017Sep15     UNAVCO Archive Ops  20170920 11:46:09UTCPGM / RUN BY / DATE
Solaris x86 5.10|AMD64|cc SC5.8 -xarch=amd64|=+|=+          COMMENT
BIT 2 OF LLI FLAGS DATA COLLECTED UNDER A/S CONDITION       COMMENT
LBCH                                                        MARKER NAME
40482M001                                                   MARKER NUMBER
Ken Hudnut          U.S. Geological Survey                  OBSERVER / AGENCY
4927175270          TRIMBLE NETRS       1.2-5               REC # / TYPE / VERS
CR13574             ASH700936D_M    SCIS                    ANT # / TYPE
 -2507798.7984 -4676369.6918  3526890.8008                  APPROX POSITION XYZ
        0.0000        0.0000        0.0000                  ANTENNA: DELTA H/E/N
     1     1                                                WAVELENGTH FACT L1/2
     7    L1    L2    C1    P2    P1    S1    S2            # / TYPES OF OBSERV
    30.0000                                                 INTERVAL
    18                                                      LEAP SECONDS
input file: lbch201709190000a.dat                           COMMENT
Forced Modulo Decimation to 30 seconds                      COMMENT
RINEX file created by UNAVCO GPS Archive.                   COMMENT
For more information contact archive-gps@unavco.org         COMMENT
Monument ID: 19507                                          COMMENT
UNAVCO 4-char name:   LBCH                                  COMMENT
4-char name from Log or data file: LBCH                     COMMENT
Monument location: 33.78776997 -118.20334361 -27.5846       COMMENT
Visit ID: 97554                                             COMMENT
doi:10.7283/T5X928JJ                                        COMMENT
End of DB comments                                          COMMENT
 SNR is mapped to RINEX snr flag value [0-9]                COMMENT
  L1 & L2: min(max(int(snr_dBHz/6), 0), 9)                  COMMENT
  2017     9    19     0     0    0.0000000     GPS         TIME OF FIRST OBS
                                                            END OF HEADER
 17  9 19  0  0  0.0000000  0  8G10G14G32G18G27G24G21G08
 -20622868.47748 -15007348.30046  20779247.2034   20779237.1954
        50.5004         40.0004
 -12857231.22747  -8153007.34245  21532815.2194   21532803.1024
        45.2504         31.7504
 -25332575.43448 -19129342.93946  20739474.0944   20739464.1454
        51.2504         41.7504
 -13840367.45947  -9839669.63945  21840856.5394   21840843.0744
        44.5004         33.0004
 -18849193.62947 -14329652.54745  21705262.6724   21705252.7814
        45.2504         35.0004
   3034782.78546   2351590.86343  23568396.4614   23568387.5084
        40.5004         21.2504
 -15298152.15647 -11617630.70144  22303583.9844   22303571.3404
        43.5004         29.0004
 -11945625.79947  -9289463.76244  22764372.8204   22764363.5744
        43.0004         26.7504
 17  9 19  0  0 30.0000000  0  8G10G14G32G18G27G24G21G08
 -20612540.40748 -14999300.46246  20781212.5864   20781202.4614
        50.5004         40.5004
 -12925218.62647  -8205984.49845  21519877.3524   21519865.7034
        45.5004         33.0004
 -25374216.24748 -19161790.31847  20731550.0634   20731540.2894
        52.2504         42.2504
 -13801013.84847  -9809004.50345  21848345.1024   21848332.3984
        46.2504         33.0004
 -18808278.19847 -14297770.41445  21713049.0784   21713039.0124
        46.7504         35.5004
   3060535.67846   2371658.05743  23573296.1484   23573288.2504
        39.5004         22.2504
 -15235168.50447 -11568552.55044  22315569.6724   22315556.3834
        43.7504         29.2504
 -11970943.11046  -9309191.53444  22759554.6884   22759545.8524
        41.0004         26.0004
 17  9 19  0  1  0.0000000  0  8G10G14G32G18G27G24G21G08
 -20602035.46548 -14991114.79546  20783211.1174   20783201.5204
        49.2504         40.0004
 -12992806.56647  -8258650.41245  21507016.8444   21507003.9064
        45.2504         33.0004
 -25415368.53848 -19193857.02046  20723719.1024   20723709.2114
        51.7504         41.5004
 -13761572.00147  -9778270.60545  21855851.5004   21855837.3914
        45.7504         34.0004
 -18766852.40147 -14265490.59646  21720931.8754   21720921.7504
        45.7504         36.5004
   3086833.77446   2392150.06943  23578300.7584   23578291.9804
        38.0004         20.5004
 -15171839.26747 -11519205.12144  22327620.9694   22327607.8554
        44.5004         28.0004
 -11995706.44547  -9328487.63344  22754843.5474   22754833.1884
        42.0004         28.2504
 17  9 19  0  1 30.0000000  0  9G31G10G14G32G18G27G24G21G08
    498352.36115                  25393458.430
        32.250
 -20591355.40648 -14982792.67846  20785244.0864   20785233.6684
        50.2504         40.0004
 -13059995.20847  -8311005.16645  21494230.5004   21494218.4414
        44.7504         33.0004
 -25456033.26548 -19225543.81747  20715980.5784   20715971.0394
        51.5004         42.0004
 -13722042.69747  -9747468.54845  21863372.8834   21863360.0044
        47.5004         32.0004
 -18724919.68547 -14232815.76845  21728911.3984   21728901.2734
        46.5004         35.0004
   3113674.41446   2413064.86543  23583409.3674   23583400.3554
        39.5004         20.7504
 -15108166.30447 -11469589.84944  22339737.4614   22339723.9384
        44.7504         29.7504
 -12019916.95146  -9347352.96744  22750236.2274   22750226.3364
        41.7504         27.0004
 17  9 19  0  2  0.0000000  0 10G11G31G10G14G32G18G27G24G21G08
    483414.91714                  25402613.789
        29.500
    398766.608 5                  25374507.156
        34.250
 -20580500.50448 -14974334.30946  20787309.4144   20787299.7584
        50.0004         40.0004
 -13126783.19947  -8363047.73945  21481520.7584   21481508.8754
        45.0004         32.5004
 -25496210.00848 -19256850.35447  20708335.7664   20708325.5234
        52.0004         42.0004
 -13682426.12547  -9716598.50745  21870911.8054   21870898.5744
        47.0004         33.0004
 -18682482.05147 -14199747.50045  21736986.5634   21736976.9654
        46.5004         35.0004
   3141057.03446   2434401.99943  23588620.2974   23588610.7584
        38.5004         20.5004
 -15044150.65847 -11419707.55344  22351919.6414   22351906.0594
        44.7504         29.0004
 -12043574.21946  -9365787.20944  22745734.2194   22745725.3244
        41.5004         28.5004
 17  9 19  0  2 30.0000000  0 10G11G31G10G14G32G18G27G24G21G08
    371972.519 4                  25381407.234
        29.500
                                  25355518.414
        31.250
 -20569469.84448 -14965738.99746  20789408.4304   20789398.7154
        50.7504         40.7504
 -13193168.08047  -8414776.20145  21468889.4454   21468876.6254
        44.7504         33.0004
 -25535897.17348 -19287775.41247  20700783.4384   20700773.3714
        52.5004         42.5004
 -13642720.86147  -9685659.35045  21878468.0394   21878454.3404
        45.7504         32.2504
 -18639540.34247 -14166286.45345  21745158.3914   21745148.4414
        44.5004         35.0004
   3168982.67846   2456162.27243  23593934.3524   23593924.3444
        38.0004         20.5004
 -14979791.50747 -11369557.60644  22364165.9454   22364153.1254
        44.2504         27.5004
 -12066676.61146  -9383789.06644  22741337.9774   22741328.8484
        41.0004         26.5004
 17  9 19  0  3  0.0000000  0 10G11G31G10G14G32G18G27G24G21G08
                                  25360218.516
        28.750
    199006.02815                  25336493.750
        33.750
 -20558270.58148 -14957012.29646  20791539.6174   20791529.7854
        50.0004         40.0004
 -13259155.53647  -8466194.97745  21456331.5164   21456319.0474
        46.2504         32.5004
 -25575101.23348 -19318324.02647  20693322.9304   20693313.0984
        52.0004         42.0004
 -13602933.69847  -9654656.37645  21886038.2344   21886025.7074
        46.7504         32.5004
 -18596103.51747 -14132439.59845  21753424.0164   21753413.9494
        46.0004         34.7504
   3197444.16246   2478340.09843  23599348.5864   23599340.6884
        38.7504         20.2504
 -14915095.72947 -11319145.33644  22376477.1414   22376464.3794
        44.2504         28.7504
 -12089230.10546  -9401363.20244  22737045.9144   22737036.7854
        41.0004         26.5004
 17  9 19  0  3 30.0000000  0 10G11G31G10G14G32G18G27G24G21G08
                                  25339049.094
        26.250
     98839.013 5                  25317430.961
        31.500
 -20546892.43948 -14948146.21046  20793705.0864   20793694.9614
        49.5004         40.5004
 -13324733.96447  -8517295.01945  21443852.5394   21443841.1844
        45.2504         32.5004
 -25613811.29248 -19348487.68447  20685956.6174   20685947.0784
        51.5004         42.2504
 -13563054.18747  -9623581.43845  21893627.2504   21893614.2544
        46.7504         31.2504
 -18552163.12947 -14098200.35745  21761785.7034   21761775.6954
        47.2504         35.2504
   3226451.40046   2500943.12743  23604870.5004   23604861.2544
        39.5004         21.5004
 -14850054.22847 -11268463.70444  22388853.7194   22388842.0124
        44.2504         28.0004
 -12111224.12646  -9418501.39644  22732860.6174   22732851.2544
        41.2504         26.5004
 17  9 19  0  4  0.0000000  0  9G31G10G14G32G18G27G24G21G08
     -1517.039 5                  25298333.180
        33.000
 -20535339.77448 -14939144.13546  20795902.9384   20795893.3984
        49.7504         41.0004
 -13389906.48547  -8568078.79045  21431450.5394   21431438.4804
        45.0004         34.0004
 -25652031.21448 -19378269.43847  20678683.3594   20678673.9384
        50.7504         42.5004
 -13523086.22047  -9592437.56945  21901233.2504   21901219.9614
        46.7504         31.5004
 -18507725.51347 -14063573.65845  21770241.5084   21770231.9104
        46.0004         34.0004
   3255999.63246   2523967.72443  23610491.2034   23610483.5394
        38.5004         19.7504
 -14784671.55447 -11217516.19244  22401295.5164   22401283.8094
        43.2504         28.2504
 -12132662.34846  -9435206.50744  22728780.6564   22728772.0554
        40.7504         26.5004
 17  9 19  0  4 30.0000000  0  9G31G10G14G32G18G27G24G21G08
   -102060.063 5                  25279202.500
        34.000
 -20523613.46648 -14930006.75046  20798134.4304   20798125.1254
        49.5004         40.5004
 -13454672.13047  -8618545.49745  21419125.5474   21419113.6644
        45.0004         34.0004
 -25689761.02048 -19407669.27246  20671503.9144   20671493.9064
        51.2504         41.7504
 -13483030.20847  -9561225.08745  21908854.9924   21908842.9344
        45.2504         32.2504
 -18462793.11347 -14028561.42245  21778792.4064   21778782.1644
        46.5004         35.0004
   3286087.69046   2547412.98743  23616217.7664   23616209.2814
        38.7504         18.5004
 -14718948.78547 -11166303.68344  22413802.2734   22413790.7424
        43.0004         29.0004
 -12153544.70546  -9451478.47644  22724807.1254   22724798.1134
        41.5004         26.5004
 17  9 19  0  5  0.0000000  0  9G31G10G14G32G18G27G24G21G08
   -202789.369 6                  25260033.688
        36.750
 -20511715.16748 -14920735.35946  20800398.5314   20800389.3444
        50.2504         40.0004
 -13519031.09447  -8668695.31945  21406878.6644   21406866.4304
        46.0004         32.7504
 -25727001.98248 -19436688.18946  20664416.6954   20664407.2734
        51.5004         41.0004
 -13442887.69847  -9529945.22445  21916494.7034   21916481.4144
        46.5004         31.7504
 -18417369.65947 -13993166.54545  21787435.7504   21787426.2114
        46.7504         34.5004
   3316713.70546   2571277.43342  23622045.2734   23622036.2624
        37.2504         17.7504
 -14652887.98947 -11114827.79244  22426374.2894   22426361.6454
        44.2504         28.7504
 -12173872.42946  -9467318.28544  22720939.0634   22720929.6994
        41.0004         25.5004
 17  9 19  0  5 30.0000000  0  9G31G10G14G32G18G27G24G21G08
   -303700.123 6                  25240830.719
        38.250
 -20499642.69448 -14911328.24646  20802696.1724   20802686.4574
        49.2504         39.7504
 -13582980.01647  -8718525.62945  21394709.4844   21394697.0164
        43.5004         33.5004
 -25763751.31148 -19465324.02047  20657423.7114   20657414.2894
        51.0004         42.0004
 -13402655.78247  -9498595.68145  21924150.3524   21924137.1804
        46.0004         31.5004
 -18371454.81847 -13957388.77545  21796172.9924   21796163.7464
        46.5004         34.7504
   3347879.79546   2595562.69943  23627976.1484   23627966.6684
        37.5004         18.2504
 -14586487.26047 -11063086.99844  22439009.8914   22438996.8954
        45.0004         28.5004
 -12193642.79446  -9482723.73844  22717176.3444   22717167.0984
        39.7504         25.2504
 17  9 19  0  6  0.0000000  0  9G31G10G14G32G18G27G24G21G08
   -404790.581 6                  25221592.563
        37.000
 -20487397.14548 -14901786.25246  20805025.9774   20805016.4384
        49.5004         40.2504
 -13646518.78547  -8768036.33445  21382618.1334   21382606.1334
        44.2504         33.5004
 -25800009.60848 -19493577.22447  20650524.2894   20650514.1644
        51.7504         42.0004
 -13362335.76147  -9467177.50445  21931822.9064   21931809.6174
        45.2504         31.0004
 -18325051.64447 -13921230.47845  21805003.2194   21804994.0314
        45.7504         34.0004
   3379584.14046   2620267.34743  23634008.7424   23633999.8484
        37.7504         18.2504
 -14519748.47647 -11011082.77744  22451709.8754   22451696.8794
        45.2504         28.2504
 -12212856.38346  -9497695.38444  22713519.7194   22713511.1764
        40.5004         25.5004
 17  9 19  0  6 30.0000000  0  9G31G10G14G32G18G27G24G21G08
   -506060.482 5                  25202321.320
        35.750
 -20474980.68348 -14892111.09046  20807388.8284   20807379.3484
        50.2504         40.5004
 -13709648.20547  -8817228.05945  21370605.1954   21370593.0784
        46.0004         33.7504
 -25835778.59248 -19521449.14946  20643717.3134   20643707.7734
        51.7504         41.5004
 -13321929.17447  -9435691.85545  21939511.8834   21939498.7114
        45.2504         31.0004
 -18278164.30547 -13884694.92245  21813925.0554   21813916.2774
        46.0004         34.0004
   3411824.34946   2645389.56342  23640145.1564   23640134.9144
        38.7504         17.7504
 -14452674.03447 -10958817.00844  22464473.3594   22464461.1254
        43.7504         27.7504
 -12231514.97246  -9512234.55244  22709969.8204   22709961.6294
        40.7504         27.2504
 17  9 19  0  7  0.0000000  0  9G31G10G14G32G18G27G24G21G08
   -607505.230 6                  25183016.516
        37.250
 -20462391.25648 -14882301.15046  20809784.9694   20809775.0204
        51.0004         40.0004
 -13772364.70347  -8866098.04145  21358670.8364   21358658.3094
        45.5004         33.5004
 -25871055.72348 -19548937.81247  20637004.3364   20636994.5044
        52.0004         42.2504
 -13281433.83347  -9404137.07645  21947218.2194   21947204.5784
        45.7504         31.2504
 -18230792.73947 -13847782.03045  21822940.3914   21822930.9104
        46.7504         34.0004
   3444601.70846   2670930.37743  23646383.9774   23646373.5004
        39.0004         18.5004
 -14385262.42947 -10906288.52044  22477301.6174   22477289.0314
        43.7504         28.2504
 -12249615.69246  -9526339.01644  22706525.6564   22706516.9384
        41.0004         26.2504
 17  9 19  0  7 30.0000000  0  9G31G10G14G32G18G27G24G21G08
   -709123.404 6                  25163679.164
        36.750
 -20449629.96448 -14872357.28046  20812213.4774   20812203.4104
        50.7504         40.5004
 -13834668.32747  -8914646.30345  21346814.4454   21346802.7974
        45.5004         34.0004
 -25905841.66048 -19576043.72747  20630384.5554   20630374.9574
        52.0004         42.0004
 -13240850.08047  -9372513.37245  21954940.4614   21954927.7584
        45.0004         30.7504
 -18182940.02547 -13810494.22345  21832046.1884   21832036.7664
        47.2504         33.7504
   3477914.90946   2696888.71143  23652723.1254   23652712.4734
        39.2504         18.5004
 -14317514.91447 -10853498.28944  22490193.4304   22490180.9024
        43.2504         26.7504
 -12267159.29646  -9540009.34644  22703186.3054   22703178.2304
        40.7504         26.5004
 17  9 19  0  8  0.0000000  0  9G31G10G14G32G18G27G24G21G08
   -810911.980 6                  25144310.516
        38.000
 -20436696.44048 -14862279.22046  20814674.6094   20814664.5434
        50.5004         40.7504
 -13896556.93847  -8962871.16745  21335038.0864   21335025.7934
        45.7504         34.2504
 -25940135.56448 -19602766.24846  20623858.8914   20623849.0594
        51.5004         41.5004
 -13200177.44047  -9340820.41845  21962680.9224   21962668.1024
        43.0004         31.2504
 -18134607.82547 -13772832.79145  21841244.1334   21841233.8914
        46.7504         34.2504
   3511763.48846   2723264.23343  23659163.2894   23659154.0434
        38.5004         19.5004
 -14249432.09447 -10800446.78944  22503149.0314   22503137.0314
        43.0004         28.0004
 -12284145.10146  -9553245.05544  22699954.2034   22699946.3054
        40.0004         27.5004
 17  9 19  0  8 30.0000000  0 10G11G31G10G14G32G18G27G24G21G08
   -434203.01815                  25128541.094
        32.000
   -912867.711 6                  25124907.953
        38.250
 -20423590.36748 -14852066.70046  20817168.5004   20817158.7274
        50.5004         40.5004
 -13958029.43247  -9010771.78545  21323339.4144   21323328.1174
        45.7504         35.2504
 -25973936.81248 -19629104.87146  20617426.6254   20617416.9104
        51.0004         41.5004
 -13159415.31747  -9309057.74345  21970437.3594   21970424.5394
        45.2504         31.5004
 -18085797.91147 -13734799.10545  21850532.3524   21850522.1094
        47.2504         34.5004
   3546147.39446   2750056.93943  23665706.7344   23665696.7854
        39.5004         19.7504
 -14181014.20447 -10747134.18144  22516168.0234   22516156.0234
        42.7504         27.5004
 -12300572.17646  -9566045.37744  22696829.0314   22696820.2544
        40.2504         26.7504
 17  9 19  0  9  0.0000000  0 10G11G31G10G14G32G18G27G24G21G08
   -544149.905 5                  25107620.867
        33.000
  -1014987.782 6                  25105474.914
        38.500
 -20410310.98848 -14841719.13546  20819695.0394   20819685.7344
        50.5004         40.5004
 -14019083.69947  -9058346.51545  21311721.6804   21311709.4454
        45.2504         34.2504
 -26007244.24648 -19655058.70346  20611088.3204   20611078.6054
        50.5004         41.7504
 -13118562.29647  -9277224.22045  21978211.6334   21978198.5204
        45.5004         30.7504
 -18036511.57447 -13696394.17945  21859911.4224   21859901.4734
        46.7504         34.5004
   3581066.89546   2777266.94043  23672351.5634   23672342.6684
        39.5004         20.2504
 -14112260.77847 -10693560.13744  22529252.0164   22529239.8984
        43.0004         28.7504
 -12316439.67946  -9578409.69044  22693809.8754   22693799.9264
        40.5004         27.5004
 17  9 19  0  9 30.0000000  0 10G11G31G10G14G32G18G27G24G21G08
   -653967.796 5                  25086723.672
        33.750
  -1117274.532 6                  25086010.008
        37.250
 -20396863.66048 -14831240.69646  20822254.5314   20822244.4064
        50.2504         41.0004
 -14079723.86247  -9105598.56845  21300181.9694   21300169.8524
        46.5004         34.5004
 -26040062.88148 -19680631.64746  20604843.0474   20604833.5664
        50.0004         41.7504
 -13077623.51947  -9245323.88845  21986001.7114   21985989.0664
        46.5004         31.0004
 -17986756.32447 -13657623.86545  21869379.4144   21869369.1724
        46.2504         34.0004
   3616515.68446   2804889.32043  23679097.5394   23679088.4694
        38.0004         20.2504
 -14043177.98747 -10639729.41744  22542398.2734   22542385.7464
        43.7504         27.2504
 -12331752.42546  -9590341.71244  22690896.1334   22690886.0084
        41.5004         26.7504
 17  9 19  0 10  0.0000000  0 10G11G31G10G14G32G18G27G24G21G08
   -763649.555 5                  25065852.523
        33.750
  -1219721.487 6                  25066514.953
        36.750
 -20383244.24248 -14820628.16446  20824846.0314   20824836.4924
        50.0004         40.5004
 -14139944.73647  -9152523.90745  21288722.9454   21288710.1844
        46.5004         34.0004
 -26072388.24748 -19705820.23746  20598692.1804   20598681.9384
        51.0004         41.7504
 -13036594.39247  -9213353.13145  21993809.4614   21993796.8164
        45.7504         32.2504
 -17936530.08747 -13618486.56145  21878936.6254   21878927.1454
        45.5004         34.0004
   3652497.74246   2832927.29743  23685944.4844   23685936.0004
        37.2504         20.0004
 -13973761.72847 -10585638.84244  22555606.6954   22555595.3984
        42.5004         28.0004
 -12346505.84046  -9601837.88844  22688088.3054   22688078.8834
        41.5004         29.0004
 17  9 19  0 10 30.0000000  0 10G11G31G10G14G32G18G27G24G21G08
   -873192.844 5                  25045005.695
        34.000
  -1322326.110 6                  25046989.398
        37.500
 -20369452.90948 -14809881.67146  20827470.4614   20827460.7464
        50.5004         40.2504
 -14199745.39747  -9199121.80445  21277342.7424   21277330.3914
        46.5004         34.2504
 -26104220.25448 -19730624.38446  20592634.7114   20592624.7624
        51.0004         41.0004
 -12995475.01847  -9181312.07445  22001634.5864   22001621.8244
        46.2504         32.2504
 -17885835.21747 -13578984.09145  21888583.4614   21888574.1564
        45.5004         33.5004
   3689012.21746   2861380.11243  23692891.6724   23692883.9494
        36.5004         20.0004
 -13904013.40447 -10531289.54044  22568879.3524   22568868.1134
        42.5004         27.7504
 -12360700.30346  -9612898.50744  22685386.7344   22685377.6644
        41.0004         27.2504
 17  9 19  0 11  0.0000000  0 10G11G31G10G14G32G18G27G24G21G08
   -982595.717 6                  25024188.961
        37.500
  -1425086.380 6                  25027435.320
        38.250
 -20355490.59848 -14799001.95446  20830127.7194   20830117.9454
        50.7504         40.7504
 -14259125.32647  -9245391.86045  21266042.8524   21266031.0274
        45.2504         34.0004
 -26135559.55748 -19755044.60047  20586670.6644   20586661.0664
        50.0004         42.0004
 -12954265.91247  -9149201.09845  22009475.9844   22009463.2814
        46.7504         31.2504
 -17834674.84347 -13539118.88545  21898319.0164   21898309.5944
        45.0004         33.5004
   3726057.21845   2890246.38842  23699941.3364   23699933.2034
        35.7504         17.7504
 -13833934.31847 -10476682.49544  22582215.5234   22582204.2274
        42.5004         28.5004
 -12374336.04147  -9623523.77344  22682792.4534   22682782.9734
        42.0004         28.0004
 17  9 19  0 11 30.0000000  0 10G11G31G10G14G32G18G27G24G21G08
  -1091855.887 6                  25003396.914
        38.000
  -1528000.269 6                  25007851.063
        38.000
 -20341357.64648 -14787989.26646  20832816.8134   20832806.7464
        50.2504         40.5004
 -14318084.04647  -9291333.69845  21254823.9064   21254811.1454
        46.7504         35.0004
 -26166406.26448 -19779080.98446  20580800.9844   20580791.1524
        51.5004         41.7504
 -12912966.93947  -9117020.08045  22017334.7894   22017322.2034
        46.2504         32.0004
 -17783051.49447 -13498892.91445  21908142.9924   21908133.1024
        45.5004         33.5004
   3763632.07945   2919525.47843  23707090.2274   23707083.4414
        33.0004         18.2504
 -13763525.23847 -10421818.33044  22595614.5004   22595602.1484
        42.5004         26.7504
 -12387413.56247  -9633714.05144  22680303.4064   22680294.2194
        42.2504         28.0004
 17  9 19  0 12  0.0000000  0 10G11G31G10G14G32G18G27G24G21G08
  -1200970.224 6                  24982633.555
        39.000
  -1631064.908 6                  24988239.227
        38.000
 -20327053.94848 -14776843.53246  20835538.3914   20835528.7934
        49.5004         40.5004
 -14376620.18247  -9336946.24845  21243684.1484   21243672.1484
        44.5004         34.7504
 -26196760.01548 -19802733.24447  20575025.1954   20575015.0124
        50.0004         42.0004
 -12871577.54447  -9084768.61845  22025211.4144   22025198.7114
        47.0004         32.0004
 -17730967.25247 -13458307.81245  21918053.9144   21918043.9654
        45.2504         32.7504
   3801735.49445   2949216.41642  23714341.5164   23714333.9694
        34.0004         17.7504
 -13692787.44447 -10366698.00044  22609075.4694   22609063.0594
        43.7504         27.2504
 -12399931.85546  -9643468.57544  22677921.4694   22677912.2234
        41.5004         28.7504
 17  9 19  0 12 30.0000000  0 10G11G31G10G14G32G18G27G24G21G08
  -1309937.636 6                  24961896.711
        38.750
  -1734278.991 6                  24968596.086
        36.750
 -20312580.87948 -14765565.81346  20838292.9384   20838283.1054
        50.0004         40.7504
 -14434733.62147  -9382229.42545  21232625.6804   21232613.6214
        45.5004         34.2504
 -26226622.00548 -19826002.31247  20569342.1334   20569332.3594
        50.2504         42.5004
 -12830099.09247  -9052447.75645  22033104.3594   22033091.3054
        46.0004         31.5004
 -17678425.75247 -13417366.38445  21928052.3204   21928042.6644
        45.5004         32.5004
   3840366.29445   2979318.30942  23721692.9694   23721685.4804
        31.7504         17.7504
 -13621722.43847 -10311322.69544  22622598.7584   22622586.2304
        43.7504         28.0004
 -12411892.80147  -9652788.78544  22675645.1564   22675636.6134
        42.5004         28.0004
 17  9 19  0 13  0.0000000  0 10G11G31G10G14G32G18G27G24G21G08
  -1418752.724 6                  24941189.500
        37.000
  -1837637.251 6                  24948928.469
        36.000
 -20297935.79548 -14754154.05546  20841079.5634   20841069.7894
        50.5004         40.5004
 -14492421.42347  -9427180.93945  21221648.4774   21221635.7154
        45.0004         34.7504
 -26255989.46048 -19848886.03547  20563754.1954   20563744.2464
        50.5004         42.0004
 -12788528.62947  -9020055.18645  22041014.6724   22041001.9694
        46.0004         31.7504
 -17625426.62647 -13376068.39145  21938137.6564   21938127.2974
        45.5004         31.7504
   3879525.60745   3009832.02442  23729144.4384   23729136.8914
        34.2504         17.2504
 -13550328.41847 -10255691.05644  22636184.9144   22636172.3284
        43.0004         26.0004
 -12423293.56447  -9661672.51644  22673476.1644   22673466.8014
        43.0004         27.0004
 17  9 19  0 13 30.0000000  0 10G11G31G10G14G32G18G27G24G21G08
  -1527415.577 5                  24920510.500
        35.750
  -1941139.527 6                  24929233.563
        37.000
 -20283121.58548 -14742610.52746  20843898.6564   20843888.8834
        50.0004         40.5004
 -14549684.97647  -9471801.87145  21210751.6804   21210739.4454
        45.2504         34.7504
 -26284865.08848 -19871386.51846  20558258.9534   20558249.0634
        49.7504         41.5004
 -12746868.21347  -8987592.54245  22048942.2584   22048930.0234
        45.5004         31.0004
 -17571974.98747 -13334417.78845  21948305.5944   21948298.3984
        45.0004         32.0004
   3919209.86345   3040754.84942  23736696.2814   23736688.5594
        34.0004         17.2504
 -13478608.86547 -10199805.73344  22649832.9774   22649819.5124
        42.0004         26.7504
 -12434136.69547  -9670121.71144  22671412.7194   22671402.9454
        43.0004         28.0004
 17  9 19  0 14  0.0000000  0 10G11G31G10G14G32G18G27G24G21G08
  -1635922.632 6                  24899862.742
        36.750
  -2044783.060 6                  24909509.680
        37.500
 -20268137.42048 -14730934.54846  20846750.0634   20846740.2304
        51.0004         40.5004
 -14606522.57947  -9516090.89845  21199936.1564   21199923.4534
        46.7504         35.5004
 -26313247.92248 -19893502.99546  20552857.7114   20552848.0554
        50.0004         41.7504
 -12705117.02247  -8955059.16245  22056887.5234   22056874.8794
        46.2504         31.0004
 -17518072.35347 -13292415.77045  21958567.5394   21958557.0634
        45.7504         32.7504
   3959419.09346   3072086.71643  23744348.0944   23744340.1374
        37.5004         19.7504
 -13406563.58747 -10143666.56044  22663542.7194   22663529.1374
        44.0004         26.5004
 -12444421.19247  -9678135.60744  22669456.0704   22669445.8874
        43.5004         28.7504
 17  9 19  0 14 30.0000000  0 10G11G31G10G14G32G18G27G24G21G08
  -1744270.771 6                  24879244.672
        37.500
  -2148564.807 6                  24889759.367
        36.500
 -20252983.12648 -14719126.00546  20849633.4844   20849623.8874
        50.5004         40.5004
 -14662933.23147  -9560047.23646  21189200.9924   21189188.7584
        46.2504         36.0004
 -26341137.71748 -19915235.29946  20547550.8444   20547540.9534
        50.0004         41.7504
 -12663274.56447  -8922454.66045  22064850.0784   22064837.1994
        45.7504         31.2504
 -17463720.90447 -13250064.02245  21968910.0314   21968899.3794
        44.5004         31.7504
   4000152.56946   3103827.08443  23752100.4384   23752091.1914
        38.2504         21.2504
 -13334193.48347 -10087274.28844  22677313.4614   22677300.5824
        43.5004         26.0004
 -12454147.12747  -9685714.26644  22667604.2424   22667595.5824
        43.0004         27.7504
 17  9 19  0 15  0.0000000  0 10G11G31G10G14G32G18G27G24G21G08
  -1852457.520 6                  24858658.883
        37.750
  -2252482.086 6                  24869984.633
        36.000
 -20237659.02248 -14707185.14046  20852549.7274   20852540.0124
        50.5004         40.2504
 -14718916.01847  -9603670.16945  21178548.0314   21178535.7974
        46.7504         35.7504
 -26368534.72348 -19936583.60047  20542336.9774   20542327.6724
        49.5004         42.0004
 -12621340.85747  -8889779.06245  22072829.3754   22072816.5554
        46.0004         31.5004
 -17408923.25647 -13207364.57345  21979336.9844   21979327.3284
        44.2504         31.5004
   4041409.24546   3135975.13643  23759950.5784   23759942.1524
        38.7504         22.5004
 -13261499.61846 -10030629.80344  22691146.8054   22691134.5704
        41.2504         26.2504
 -12463315.10447  -9692858.14944  22665859.9384   22665850.6334
        42.5004         27.0004
 17  9 19  0 15 30.0000000  0 10G11G31G10G14G32G18G27G24G21G08
  -1960481.085 6                  24838101.805
        36.500
  -2356533.120 5                  24850185.172
        35.250
 -20222165.83348 -14695112.52746  20855498.0314   20855488.6094
        49.2504         40.2504
 -14774470.82447  -9646959.60445  21167975.9144   21167963.7384
        45.7504         35.2504
 -26395439.63048 -19957548.45747  20537217.3984   20537207.6254
        50.2504         42.0004
 -12579316.05547  -8857032.46745  22080826.7814   22080813.5514
        45.7504         31.5004
 -17353682.53347 -13164319.88445  21989849.6174   21989839.9024
        44.7504         32.7504
   4083187.18346   3168529.38843  23767901.7814   23767893.0044
        40.0004         21.7504
 -13188483.30247  -9973733.99244  22705041.7584   22705029.0554
        42.0004         26.5004
 -12471925.36947  -9699567.47144  22664221.3834   22664212.0784
        42.0004         26.5004
 17  9 19  0 16  0.0000000  0 10G11G31G10G14G32G18G27G24G21G08
  -2068338.316 5                  24817577.703
        35.000
  -2460714.985 6                  24830359.219
        37.000
 -20206503.25548 -14682907.91746  20858478.6884   20858469.0904
        51.0004         40.2504
 -14829596.37847  -9689914.56045  21157485.8204   21157474.4654
        46.2504         35.2504
 -26421852.05848 -19978129.56247  20532191.2734   20532181.5594
        51.0004         42.2504
 -12537199.68247  -8824214.52045  22088841.3134   22088828.4924
        46.0004         30.5004
 -17298000.81447 -13120931.56745  22000445.3524   22000435.6374
        44.7504         32.7504
   4125485.93746   3201489.43243  23775951.2584   23775941.5434
        39.5004         22.0004
 -13115144.93746  -9916587.26244  22718996.9534   22718984.8954
        41.5004         26.5004
 -12479977.78747  -9705842.09544  22662689.0234   22662680.5984
        42.0004         29.0004
 17  9 19  0 16 30.0000000  0 10G11G31G10G14G32G18G27G24G21G08
  -2176026.39245  -1124633.50742  24797085.6484   24797072.4774
        35.5004         16.7504
  -2565024.860 6                  24810509.328
        36.500
 -20190671.21348 -14670571.26746  20861491.6254   20861481.7344
        49.5004         40.7504
 -14884291.68247  -9732534.24945  21147077.6724   21147065.3794
        46.7504         35.7504
 -26447771.96348 -19998326.87547  20527258.6174   20527249.4884
        51.2504         42.7504
 -12494991.09247  -8791324.72345  22096873.0314   22096860.0354
        45.0004         31.2504
 -17241880.39347 -13077201.38545  22011123.5314   22011114.6954
        44.0004         33.0004
   4168304.89046   3234854.85743  23784098.7274   23784090.0664
        38.2504         21.5004
 -13041485.76146  -9859190.54844  22733013.5784   22733002.0474
        41.2504         26.2504
 -12487472.49447  -9711682.13144  22661262.6254   22661253.9064
        42.5004         28.0004
 17  9 19  0 17  0.0000000  0 10G11G31G10G14G32G18G27G24G21G08
  -2283542.74146  -1208412.42642  24776624.4454   24776613.4414
        36.7504         16.7504
  -2669460.149 6                  24790636.383
        37.500
 -20174669.82348 -14658102.64946  20864536.4454   20864526.3794
        49.7504         40.2504
 -14938556.11347  -9774818.20145  21136750.9454   21136739.3554
        46.5004         35.0004
 -26473199.47948 -20018140.50347  20522419.7584   20522410.5124
        51.0004         42.7504
 -12452690.21147  -8758363.00244  22104922.8524   22104909.7974
        46.0004         29.7504
 -17185323.86947 -13033131.40045  22021887.1334   22021876.8914
        45.0004         32.5004
   4211642.41246   3268624.35543  23792345.3754   23792336.5984
        38.0004         22.2504
 -12967506.34947  -9801544.29044  22747091.9614   22747080.1954
        42.2504         27.5004
 -12494409.38347  -9717087.48944  22659943.1174   22659933.8714
        42.7504         26.2504
 17  9 19  0 17 30.0000000  0 10G11G31G10G14G32G18G27G24G21G08
  -2390884.08545  -1292055.00542  24756197.1564   24756187.4414
        35.5004         16.2504
  -2774017.700 6                  24770739.938
        36.500
 -20158498.77948 -14645501.84446  20867613.8834   20867603.7584
        51.0004         40.5004
 -14992388.40647  -9816765.42145  21126507.4924   21126495.1994
        46.0004         34.7504
 -26498134.33748 -20037570.24747  20517675.1024   20517665.2114
        51.5004         42.2504
 -12410296.57647  -8725329.00845  22112990.2034   22112977.2074
        46.5004         31.2504
 -17128333.34747 -12988723.23045  22032731.6094   22032722.8324
        44.0004         32.5004
   4255498.06346   3302797.60443  23800689.7974   23800682.0744
        36.5004         22.5004
 -12893207.37747  -9743649.03944  22761230.3134   22761218.8404
        42.0004         26.0004
 -12500788.85647  -9722058.50944  22658728.2894   22658719.9224
        42.5004         27.0004
 17  9 19  0 18  0.0000000  0 10G11G31G10G14G32G18G27G24G21G08
  -2498048.430 5                  24735805.508
        34.500
  -2878695.280 5                  24750819.281
        34.250
 -20142158.66348 -14632769.28346  20870723.0164   20870713.1254
        50.2504         40.7504
 -15045788.53247  -9858375.88945  21116345.8134   21116333.6954
        45.7504         34.7504
 -26522577.20048 -20056616.62147  20513023.8914   20513014.1174
        51.2504         43.2504
 -12367810.11947  -8692222.69345  22121074.5554   22121061.9694
        46.0004         31.0004
 -17070911.86947 -12943979.25045  22043658.9144   22043649.2584
        44.0004         31.7504
   4299870.21146   3337373.29343  23809134.3364   23809125.2664
        38.5004         22.0004
 -12818590.56246  -9685506.10244  22775429.6024   22775417.7194
        41.2504         26.0004
 -12506611.25147  -9726595.44544  22657621.5394   22657612.4104
        42.5004         26.5004
 17  9 19  0 18 30.0000000  0 10G11G31G10G14G32G18G27G24G21G08
  -2605032.274 5                  24715447.281
        31.250
  -2983490.016 5                  24730879.391
        33.750
 -20125648.98348 -14619904.59646  20873865.2814   20873854.8054
        51.0004         40.7504
 -15098754.40947  -9899647.97745  21106266.4384   21106254.4964
        46.5004         35.0004
 -26546527.71248 -20075279.34147  20508466.4774   20508456.3524
        52.5004         43.2504
 -12325230.14947  -8659043.49745  22129178.1804   22129164.5984
        46.0004         30.7504
 -17013061.45147 -12898901.03345  22054667.7344   22054657.9614
        43.5004         32.0004
   4344757.87646   3372350.68343  23817675.6564   23817667.4064
        38.0004         20.5004
 -12743656.06646  -9627115.63344  22789689.3364   22789677.6294
        41.5004         26.5004
 -12511876.43746  -9730698.20044  22656618.9614   22656610.0084
        41.5004         26.2504
 17  9 19  0 19  0.0000000  0 10G11G31G10G14G32G18G27G24G21G08
  -1136414.799 5                  24695123.953
        34.000
  -3088400.965 5                  24710915.688
        34.750
 -20108971.42248 -14606909.09846  20877038.5554   20877028.4884
        50.5004         40.5004
 -15151287.79147  -9940583.06545  21096270.1254   21096257.5984
        46.0004         35.2504
 -26569987.61648 -20093559.77647  20504001.8134   20503992.0984
        52.0004         43.0004
 -12282558.12647  -8625792.59245  22137298.6804   22137285.2734
        47.0004         31.2504
 -16954786.29947 -12853491.85245  22065756.4774   22065747.7584
        44.5004         32.0004
   4390158.65146   3407727.88943  23826315.2734   23826307.2584
        38.2504         21.5004
 -12668406.43046  -9568479.59044  22804009.0394   22803997.9774
        41.5004         27.5004
 -12516585.94046  -9734367.96644  22655722.6804   22655713.9614
        40.2504         26.7504
 17  9 19  0 19 30.0000000  0 10G11G31G10G14G32G18G27G24G21G08
  -1243031.928 5                  24674837.586
        35.500
  -3193424.065 5                  24690929.078
        34.250
 -20092124.90648 -14593781.94746  20880244.2734   20880234.6764
        50.2504         41.0004
 -15203386.54247  -9981179.46945  21086356.3594   21086343.7734
        47.0004         35.2504
 -26592956.03348 -20111457.23047  20499631.2034   20499621.3714
        52.7504         43.0004
 -12239792.66347  -8592468.87845  22145436.4144   22145423.5354
        46.7504         31.5004
 -16896087.84547 -12807752.81945  22076926.9384   22076917.5164
        45.0004         32.0004
   4436072.34246   3443504.78743  23835052.4694   23835044.2194
        39.2504         21.2504
 -12592841.76146  -9509598.08644  22818388.4844   22818376.7774
        41.5004         24.7504
 -12520739.50247  -9737604.52044  22654933.0004   22654923.6954
        42.0004         26.2504
 17  9 19  0 20  0.0000000  0 10G11G31G10G14G32G18G27G24G21G08
  -1349461.20645   -365732.67442  24654582.8054   24654571.6844
        33.7504         15.5004
  -3298556.460 5                  24670921.320
        31.250
 -20075109.39148 -14580523.09946  20883482.6804   20883472.6134
        50.5004         41.0004
 -15255049.92647 -10021436.63545  21076524.9844   21076511.8714
        46.5004         35.5004
 -26615433.05248 -20128971.78747  20495354.0164   20495344.0664
        52.5004         43.2504
 -12196933.27347  -8559071.95945  22153591.7424   22153579.2734
        46.2504         30.2504
 -16836968.62147 -12761685.91345  22088176.5554   22088166.6644
        45.0004         32.2504
   4482497.99046   3479680.61843  23843887.0234   23843878.5984
        39.7504         21.7504
 -12516962.68247  -9450471.58744  22832827.7504   22832815.5164
        42.0004         25.2504
 -12524337.38046  -9740408.06444  22654248.0004   22654238.8714
        41.2504         26.5004
 17  9 19  0 20 30.0000000  0 10G11G31G10G14G32G18G27G24G21G08
  -1455699.44245   -448515.66542  24634366.2194   24634355.5084
        32.5004         14.7504
  -3403795.315 5                  24650894.000
        30.500
 -20057924.68948 -14567132.42546  20886753.0084   20886742.8244
        51.0004         40.7504
 -15306276.83447 -10061353.69046  21066777.2504   21066764.6054
        46.5004         36.5004
 -26637418.66548 -20146103.41547  20491170.5704   20491160.2704
        52.0004         43.0004
 -12153979.41147  -8525601.42545  22161765.7114   22161752.6564
        45.5004         30.2504
 -16777430.92947 -12715292.90945  22099506.5634   22099496.4964
        45.2504         32.2504
   4529434.53646   3516254.53043  23852819.2034   23852810.5434
        41.0004         22.2504
 -12440769.90947  -9391100.60244  22847327.1094   22847314.6414
        43.0004         25.7504
 -12527379.68947  -9742778.71444  22653668.6174   22653660.0744
        42.0004         27.0004
 17  9 19  0 21  0.0000000  0 10G11G31G10G14G32G18G27G24G21G08
  -1561744.35045   -531148.16442  24614188.1644   24614176.6914
        33.0004         13.7504
  -3509138.384 5                  24630849.719
        32.000
 -20040571.10548 -14553610.14546  20890054.9384   20890044.5784
        50.7504         41.0004
 -15357066.91347 -10100930.35046  21057111.8674   21057099.4574
        47.0004         36.0004
 -26658913.46048 -20162852.60547  20487080.2734   20487069.9734
        52.5004         43.5004
 -12110931.12747  -8492057.30944  22169958.1024   22169945.0474
        45.5004         29.7504
 -16717477.76447 -12668576.16745  22110915.1954   22110904.8954
        45.2504         32.7504
   4576880.05546   3553225.06443  23861847.4454   23861839.6054
        40.0004         22.0004
 -12364265.02647  -9331486.44444  22861885.5314   22861873.4144
        42.5004         26.0004
 -12529866.57046  -9744716.54344  22653194.9384   22653186.8054
        41.5004         25.7504
 17  9 19  0 21 30.0000000  0 10G11G31G10G14G32G18G27G24G21G08
  -1667594.890 5                  24594046.922
        34.750
  -3614584.446 5                  24610784.570
        32.000
 -20023050.64948 -14539957.85446  20893389.0234   20893378.8984
        50.5004         41.0004
 -15407421.35747 -10140167.55646  21047529.5084   21047517.5084
        47.0004         36.0004
 -26679919.59348 -20179221.01047  20483082.3914   20483072.5004
        51.7504         43.2504
 -12067790.07447  -8458440.92045  22178167.0394   22178153.6914
        46.0004         30.2504
 -16657113.62047 -12621539.20745  22122402.4144   22122392.0554
        45.0004         32.2504
   4624831.70246   3590589.97243  23870973.7664   23870964.4614
        40.0004         22.7504
 -12287450.74046  -9271631.22444  22876501.7734   22876490.8874
        40.5004         25.2504
 -12531800.81747  -9746223.76344  22652827.3444   22652818.5664
        42.0004         25.5004
 17  9 19  0 22  0.0000000  0 10G11G31G10G14G32G18G27G24G21G08
  -1773246.25045   -657013.67442  24573941.1254   24573926.7814
        35.2504         17.2504
  -3720129.083 5                  24590700.727
        33.000
 -20005361.09148 -14526173.78646  20896755.2274   20896745.0434
        50.5004         40.2504
 -15457337.49247 -10179063.23146  21038031.2034   21038018.8524
        47.0004         36.2504
 -26700435.17948 -20195207.17647  20479178.5084   20479168.7934
        52.0004         43.0004
 -12024553.53247  -8424750.12644  22186395.3524   22186381.3594
        45.5004         29.7504
 -16596338.97647 -12574182.35245  22133966.9844   22133957.3874
        44.7504         31.7504
   4673290.24846   3628349.88943  23880195.5234   23880185.3984
        39.5004         22.0004
 -12210326.38347  -9211534.40344  22891179.0004   22891166.7074
        42.7504         25.2504
 -12533180.55146  -9747298.88044  22652565.0474   22652555.7424
        41.7504         26.0004
 17  9 19  0 22 30.0000000  0 10G11G31G10G14G32G18G27G24G21G08
  -1878696.450 5                  24553870.953
        30.500
  -3825770.295 5                  24570597.102
        33.250
 -19987503.23648 -14512258.57446  20900153.1644   20900143.2154
        50.5004         40.0004
 -15506815.75147 -10217617.69245  21028615.2114   21028602.9184
        46.0004         35.7504
 -26720461.24448 -20210811.88547  20475367.3754   20475357.7194
        52.5004         43.5004
 -11981222.12747  -8390985.41144  22194640.0944   22194627.0984
        43.7504         29.2504
 -16535157.25847 -12526508.30945  22145609.7814   22145600.0664
        44.5004         32.2504
   4722253.81446   3666503.31843  23889512.5784   23889503.2734
        37.7504         20.7504
 -12132893.59247  -9151197.19244  22905914.3284   22905901.7424
        43.2504         25.7504
 -12534007.30046  -9747943.11144  22652408.2034   22652398.3714
        41.7504         27.0004
 17  9 19  0 23  0.0000000  0 10G11G31G10G14G32G18G27G24G21G08
  -1983941.96715                  24533845.273
        31.000
  -3931504.054 5                  24550476.766
        32.750
 -19969476.24648 -14498211.58146  20903583.5704   20903573.5634
        50.5004         40.2504
 -15555854.33147 -10255829.55046  21019283.6334   21019271.2234
        47.0004         36.0004
 -26739997.33348 -20226034.80447  20471650.2194   20471640.0944
        52.0004         43.2504
 -11937794.65647  -8357145.82144  22202904.2734   22202891.4534
        44.0004         29.5004
 -16473570.22247 -12478518.43445  22157329.5784   22157320.2154
        45.2504         32.5004
   4771721.89346   3705049.86843  23898926.3444   23898916.8634
        37.7504         20.2504
 -12055152.53147  -9090619.77744  22920707.6024   22920694.8984
        42.2504         24.7504
 -12534280.47846  -9748155.98944  22652356.2974   22652346.5234
        41.5004         26.5004
 17  9 19  0 23 30.0000000  0 10G11G31G10G14G32G18G27G24G21G08
  -2088980.837 5                  24513856.727
        32.750
  -4037328.786 5                  24530337.438
        31.500
 -19951280.89848 -14484033.39546  20907045.7894   20907035.9574
        51.0004         40.0004
 -15604453.55647 -10293699.05146  21010035.3754   21010022.9064
        47.5004         36.2504
 -26759044.53648 -20240876.77247  20468025.3054   20468015.4734
        51.7504         43.0004
 -11894271.76347  -8323231.88244  22211186.8914   22211173.0744
        44.5004         28.5004
 -16411581.46247 -12430215.53045  22169125.9384   22169116.1054
        44.5004         32.0004
   4821692.01746   3743987.61643  23908434.8054   23908425.4414
        37.5004         19.7504
 -11977104.95347  -9029803.53244  22935559.1094   22935547.5204
        42.5004         26.2504
 -12534001.00047  -9747938.22444  22652408.3834   22652400.1334
        42.0004         27.0004
 17  9 19  0 24  0.0000000  0 10G11G31G10G14G32G18G27G24G21G08
  -2193808.962 5                  24493906.273
        30.000
  -4143240.435 5                  24510183.414
        32.750
 -19932916.12948 -14469723.18246  20910539.7274   20910530.5394
        50.2504         39.5004
 -15652611.55047 -10331224.74146  21000871.5474   21000859.0204
        47.7504         36.7504
 -26777602.08848 -20255337.19147  20464493.9614   20464484.4224
        52.2504         43.0004
 -11850652.04347  -8289242.50044  22219487.1564   22219473.6334
        44.5004         29.0004
 -16349192.46347 -12381600.76445  22180997.6024   22180988.4144
        44.0004         31.7504
   4872164.47545   3783316.77243  23918038.0704   23918029.8204
        35.7504         20.5004
 -11898750.95247  -8968748.52744  22950469.2584   22950458.3714
        43.7504         27.2504
 -12533168.81247  -9747289.77844  22652567.3914   22652558.3204
        43.5004         26.2504
 17  9 19  0 24 30.0000000  0 10G11G31G10G14G32G18G27G24G21G08
  -2298427.931 4                  24473997.289
        28.500
  -4249240.089 5                  24490014.852
        33.750
 -19914385.59048 -14455283.81446  20914066.8674   20914057.0354
        50.5004         39.5004
 -15700331.50648 -10368409.10446  20991790.0394   20991778.0394
        48.0004         36.5004
 -26795674.09748 -20269419.26547  20461055.3674   20461045.1844
        52.0004         43.0004
 -11806938.68247  -8255180.15144  22227805.2734   22227792.1604
        44.0004         29.2504
 -16286409.68547 -12332679.14345  22192945.0234   22192935.2504
        44.0004         32.0004
   4923133.51545   3823032.92243  23927738.6334   23927729.2704
        34.7504         19.7504
 -11820095.41347  -8907458.54044  22965437.4534   22965425.5704
        42.0004         24.5004
 -12531788.00247  -9746213.83144  22652829.8984   22652820.6524
        42.7504         26.7504
 17  9 19  0 25  0.0000000  0 10G11G31G10G14G32G18G27G24G21G08
  -2402828.030 5                  24454133.789
        31.750
                                  24469826.742
        32.250
 -19895682.87548 -14440710.26946  20917625.6334   20917615.9774
        50.5004         40.2504
 -15747606.64547 -10405246.85346  20982794.2814   20982781.6954
        47.7504         36.7504
 -26813254.51148 -20283118.28647  20457709.3524   20457699.7544
        52.7504         43.5004
 -11763125.07247  -8221039.68744  22236143.4614   22236129.9384
        44.7504         29.0004
 -16223229.38847 -12283447.75245  22204967.7344   22204958.1954
        44.5004         31.7504
   4974604.77945   3863140.38243  23937532.8364   23937524.0594
        35.5004         18.5004
 -11741132.81646  -8845929.27943  22980463.1024   22980450.6334
        41.2504         22.5004
 -12529852.83647  -9744705.92244  22653198.3054   22653189.1764
        43.2504         27.0004
 17  9 19  0 25 30.0000000  0 10G11G31G10G14G32G18G27G24G21G08
  -2507011.363 5                  24434307.945
        31.750
  -1310637.79215                  24449625.695
        32.750
 -19876812.93148 -14426006.42346  20921217.0944   20921206.9104
        50.7504         40.5004
 -15794441.44048 -10441741.47846  20973881.9304   20973869.6954
        48.5004         36.7504
 -26830348.71948 -20296438.43947  20454456.3444   20454447.2154
        52.0004         43.0004
 -11719215.80347  -8186824.67644  22244499.0004   22244485.3014
        44.5004         28.5004
 -16159659.26347 -12233912.62145  22217064.6484   22217054.8754
        44.2504         31.5004
   5026571.62445   3903634.02343  23947420.5004   23947412.7194
        34.7504         19.0004
 -11661869.31247  -8784165.54344  22995547.0704   22995534.7774
        42.2504         26.0004
 -12527368.90347  -9742770.37844  22653670.8674   22653661.5044
        42.7504         27.2504
 17  9 19  0 26  0.0000000  0 10G11G31G10G14G32G18G27G24G21G08
  -2610975.414 4                  24414524.117
        29.500
  -1416875.07615                  24429409.664
        35.500
 -19857775.35248 -14411171.94846  20924839.2974   20924829.8754
        50.7504         40.2504
 -15840834.75648 -10477892.10046  20965053.3444   20965040.9344
        48.0004         36.2504
 -26846956.77548 -20309379.77547  20451296.0784   20451286.7154
        52.2504         43.2504
 -11675210.14247  -8152534.56044  22252872.3444   22252859.5234
        45.0004         28.7504
 -16095701.72247 -12184075.59945  22229235.1484   22229225.7854
        43.5004         30.7504
   5079032.51646   3944512.61343  23957405.5084   23957396.0274
        36.5004         19.7504
 -11582305.83847  -8722168.05144  23010688.2114   23010675.6844
        44.7504         25.5004
 -12524336.59346  -9740407.53344  22654247.8834   22654238.8134
        41.5004         26.0004
 17  9 19  0 26 30.0000000  0 10G11G31G10G14G32G18G27G24G21G08
  -2714716.946 5                  24394780.867
        30.250
                                  24409179.484
        36.000
 -19838569.86548 -14396206.63746  20928494.1174   20928484.0514
        51.2504         40.2504
 -15886785.83947 -10513698.12446  20956309.1024   20956297.1024
        47.7504         36.2504
 -26863078.85248 -20321942.41947  20448228.4384   20448218.3714
        52.2504         42.7504
 -11631107.44347  -8118168.85144  22261265.4614   22261252.0554
        45.2504         27.5004
 -16031359.22047 -12133938.62345  22241479.7194   22241469.5354
        44.0004         31.0004
   5131986.42246   3985775.40843  23967483.7344   23967472.0864
        38.0004         19.7504
 -11502443.54846  -8659937.75344  23025884.2584   23025873.4884
        41.5004         25.2504
 -12520755.72547  -9737617.26244  22654929.6484   22654920.2274
        43.5004         27.7504
 17  9 19  0 27  0.0000000  0 10G11G31G10G14G32G18G27G24G21G08
  -2818230.718 4                  24375082.258
        29.500
  -1629568.54346    268211.81853  24388936.1334   24388926.0664
        37.7504         20.0004
 -19819194.46948 -14381108.92546  20932181.3984   20932171.3324
        51.0004         40.5004
 -15932292.46948 -10549157.81746  20947649.6724   20947637.2624
        48.0004         36.5004
 -26878713.46848 -20334125.22447  20445252.9614   20445243.4224
        51.7504         43.2504
 -11586905.42247  -8083725.72144  22269676.0394   22269662.9264
        44.5004         27.7504
 -15966632.55647 -12083502.28945  22253796.0634   22253786.8754
        44.0004         30.2504
   5185434.23846   4027423.02643  23977654.7034   23977644.2854
        37.7504         20.0004
 -11422281.55346  -8597473.94543  23041138.8054   23041127.0984
        40.5004         23.2504
 -12516625.61147  -9734399.00244  22655715.9304   22655705.9224
        43.0004         27.0004
 17  9 19  0 27 30.0000000  0 10G11G31G10G14G32G18G27G24G21G08
  -2921516.692 5                  24355429.469
        31.750
  -1736019.73545    185262.86042  24368677.5394   24368669.3484
        34.5004         16.7504
 -19799651.65848 -14365880.75146  20935900.0394   20935889.9734
        50.0004         40.5004
 -15977356.79747 -10584272.85546  20939074.2974   20939062.0634
        47.7504         37.0004
 -26893863.62248 -20345930.53147  20442369.7424   20442360.1454
        52.0004         43.0004
 -11542606.26047  -8049206.89844  22278106.0784   22278092.6724
        44.5004         27.2504
 -15901527.05847 -12032770.77045  22266185.7974   22266175.9654
        43.7504         30.0004
   5239371.72046   4069452.25543  23987918.4224   23987908.4144
        37.5004         19.2504
 -11341823.26747  -8534779.20944  23056450.5704   23056437.5164
        43.2504         25.0004
 -12511949.25747  -9730755.08944  22656605.2664   22656595.8444
        43.7504         28.0004
 17  9 19  0 28  0.0000000  0 10G11G31G10G14G32G18G27G24G21G08
  -3024571.071 5                  24335817.945
        32.250
  -1842536.42245    102262.98842  24348407.7974   24348399.3714
        33.0004         15.5004
 -19779940.04148 -14350521.05746  20939650.9774   20939641.1454
        48.7504         40.2504
 -16021976.81147 -10619041.67346  20930582.9064   20930570.8484
        47.2504         36.7504
 -26908528.47348 -20357357.68847  20439579.7114   20439569.5274
        51.7504         42.5004
 -11498208.42547  -8014611.20144  22286554.5474   22286541.7274
        42.5004         28.2504
 -15836044.15247 -11981745.15245  22278646.3594   22278637.1134
        43.0004         31.5004
   5293798.67345   4111862.82943  23998274.7424   23998264.3834
        35.0004         19.0004
 -11261068.37846  -8471853.34844  23071817.8284   23071804.9494
        41.5004         25.2504
 -12506726.44847  -9726685.38044  22657599.5004   22657589.9024
        43.2504         25.7504
 17  9 19  0 28 30.0000000  0 10G11G31G10G14G32G18G27G24G21G08
  -3127390.132 5                  24316253.828
        35.000
  -1949115.01445     19214.87642  24328127.3284   24328117.9064
        34.5004         17.7504
 -19760058.63048 -14335029.05646  20943434.5474   20943424.4804
        50.0004         40.0004
 -16066151.17847 -10653463.24346  20922177.6174   20922165.1484
        47.2504         36.7504
 -26922707.59948 -20368406.34647  20436881.2344   20436871.4024
        51.5004         43.0004
 -11453710.69047  -7979937.66544  22295022.3834   22295009.3284
        43.0004         28.5004
 -15770185.68547 -11930426.90745  22291179.0004   22291169.8714
        43.7504         30.5004
   5348714.74046   4154654.57043  24008721.9384   24008714.0984
        36.0004         18.2504
 -11180017.70746  -8408697.05844  23087240.3834   23087229.1454
        40.0004         25.2504
 -12500956.48447  -9722189.32244  22658697.6804   22658687.6724
        42.5004         27.0004
 17  9 19  0 29  0.0000000  0 10G11G31G10G14G32G18G27G24G21G08
  -3229973.174 6                  24296733.516
        37.500
  -2055755.02245    -63881.04942  24307832.8834   24307825.5704
        33.7504         16.2504
 -19740010.01348 -14319406.74646  20947249.8134   20947239.6294
        48.5004         40.5004
 -16109882.14647 -10687539.30746  20913855.4694   20913843.2344
        47.5004         37.2504
 -26936404.14648 -20379078.96047  20434274.3284   20434265.1414
        50.0004         42.5004
 -11409115.01547  -7945187.78144  22303509.2114   22303496.0394
        43.7504         29.0004
 -15703957.09047 -11878820.24245  22303781.6414   22303772.5704
        44.5004         30.5004
   5404114.97345   4197823.60942  24019265.3834   24019256.2544
        35.2504         15.5004
 -11098675.17246  -8345313.35343  23102719.7664   23102708.3524
        41.0004         22.5004
 -12494643.07047  -9717269.79744  22659898.5704   22659889.5004
        43.0004         27.5004
 17  9 19  0 29 30.0000000  0 10G11G31G10G14G32G18G27G24G21G08
  -3332317.057 5                  24277259.102
        35.000
  -2162452.53145   -147021.89642  24287529.1884   24287521.4654
        34.5004         14.7504
 -19719793.27948 -14303653.45146  20951096.7034   20951086.6954
        49.2504         40.0004
 -16153168.55947 -10721268.96046  20905618.4384   20905605.9104
        47.0004         37.5004
 -26949617.84248 -20389375.33047  20431760.6804   20431750.6724
        51.5004         42.5004
 -11364420.30547  -7910360.76444  22312013.6024   22312000.6644
        42.5004         28.2504
 -15637360.35047 -11826926.71345  22316454.8204   22316445.6914
        43.7504         30.0004
   5459999.64346   4241370.07642  24029901.0474   24029891.0984
        36.5004         16.7504
 -11017040.88846  -8281702.24243  23118254.3594   23118242.3594
        41.2504         22.5004
 -12487786.06647  -9711926.67344  22661203.5164   22661194.3874
        43.5004         27.2504
 17  9 19  0 30  0.0000000  0 10G11G31G10G14G32G18G27G24G21G08
  -3434419.537 6                  24257827.984
        36.500
  -2269205.49146   -230205.82142  24267215.7814   24267206.5354
        36.7504         16.2504
 -19699408.78848 -14287769.43846  20954975.7584   20954965.8094
        48.7504         40.0004
 -16196010.57447 -10754652.33646  20897465.6414   20897453.2304
        47.5004         37.2504
 -26962349.66348 -20399296.22447  20429337.8284   20429327.7624
        51.0004         42.2504
 -11319626.23347  -7875456.29844  22320537.8204   22320524.5904
        43.7504         28.0004
 -15570398.70447 -11774748.83645  22329198.0084   22329187.9414
        44.0004         30.7504
   5516366.08345   4285291.94542  24040626.3914   24040617.6724
        34.7504         17.7504
 -10935116.10046  -8217864.74343  23133843.8984   23133831.4304
        40.5004         23.7504
 -12480386.70247  -9706160.95544  22662612.1484   22662602.0824
        44.2504         28.5004
 17  9 19  0 30 30.0000000  0 10G11G31G10G14G32G18G27G24G21G08
  -3536275.780 6                  24238445.164
        36.500
  -2376009.46746   -313429.65342  24246891.2194   24246882.0314
        37.5004         16.7504
 -19678854.81747 -14271753.35446  20958886.9844   20958877.3284
        47.0004         40.0004
 -16238406.07447 -10787687.77746  20889397.8754   20889385.5234
        47.0004         36.5004
 -26974598.53448 -20408840.78447  20427006.9064   20426996.8404
        49.5004         42.5004
 -11274731.72547  -7840473.57144  22329080.9064   22329067.7934
        43.7504         27.2504
 -15503073.28547 -11722287.49445  22342008.5704   22341999.6174
        43.7504         30.7504
   5573214.73846   4329589.57342  24051447.3284   24051435.5634
        37.0004         17.2504
 -10852900.71146  -8153800.88543  23149487.9844   23149476.8634
        38.5004         22.7504
 -12472444.21747  -9699972.02144  22664123.2504   22664114.1214
        43.0004         28.5004
 17  9 19  0 31  0.0000000  0 10G11G31G10G14G32G18G27G24G21G08
  -3637883.335 6                  24219109.430
        36.000
  -2482861.48846   -396690.80342  24226560.4144   24226548.4734
        39.7504         17.2504
 -19658131.42547 -14255605.25946  20962830.6724   20962820.9574
        47.0004         40.7504
 -16280354.72547 -10820375.02846  20881415.2114   20881402.8594
        45.7504         37.5004
 -26986365.20248 -20418009.60747  20424767.6254   20424757.6174
        49.0004         42.7504
 -11229735.92847  -7805411.92744  22337644.0704   22337630.2544
        42.5004         26.2504
 -15435387.12847 -11669545.06745  22354889.3984   22354879.8594
        43.5004         30.5004
   5630543.02945   4374261.02842  24062352.0704   24062344.3484
        33.5004         16.7504
 -10770396.25646  -8089511.80244  23165190.4064   23165177.8794
        40.0004         26.0004
 -12463959.76747  -9693360.77544  22665737.9454   22665729.1094
        43.7504         26.7504
 17  9 19  0 31 30.0000000  0 10G11G31G10G14G32G18G27G24G21G08
  -3739239.678 6                  24199821.773
        38.000
  -2589759.25846   -479987.69443  24206217.8204   24206205.4104
        40.7504         19.0004
 -19637239.13347 -14239325.55346  20966806.3984   20966796.0394
        47.0004         39.7504
 -16321856.90247 -10852714.37346  20873517.5704   20873505.3364
        46.0004         37.5004
 -26997650.86448 -20426803.62347  20422620.1334   20422610.2424
        51.5004         42.2504
 -11184639.16947  -7770271.60544  22346225.0704   22346212.1914
        44.0004         27.7504
 -15367343.71947 -11616524.25144  22367838.2194   22367828.2114
        44.5004         29.7504
   5688349.76846   4419305.24742  24073355.0084   24073344.7664
        36.7504         17.7504
 -10687604.61646  -8024998.87644  23180945.2584   23180932.7894
        41.5004         24.5004
 -12454934.84946  -9686328.38544  22667454.6094   22667446.0084
        41.2504         26.0004
 17  9 19  0 32  0.0000000  0 10G11G31G10G14G32G18G27G24G21G08
  -3840343.47746  -1711936.06353  24180583.5084   24180567.5824
        38.2504         18.5004
  -2696700.93446   -563318.74943  24185867.0944   24185855.8554
        41.2504         20.0004
 -19616178.59447 -14222914.74246  20970813.6024   20970804.2384
        46.7504         39.7504
 -16362913.03047 -10884706.14446  20865704.8134   20865692.5784
        46.5004         37.0004
 -27008456.91848 -20435223.91947  20420563.5004   20420553.8444
        50.7504         43.2504
 -11139442.22247  -7735053.22544  22354825.3444   22354812.8754
        44.5004         27.0004
 -15298946.54247 -11563227.80244  22380853.1954   22380843.1884
        43.7504         29.0004
   5746632.14645   4464720.05742  24084443.3284   24084436.4264
        34.2504         16.2504
 -10604527.63846  -7960263.57543  23196754.7664   23196740.5984
        39.7504         21.5004
 -12445370.94146  -9678876.00344  22669274.3364   22669265.8524
        41.7504         25.2504
 17  9 19  0 32 30.0000000  0 10G11G31G10G14G32G18G27G24G21G08
  -3941190.35946  -1790518.03142  24161393.3134   24161379.7894
        37.5004         16.2504
  -2803682.04246   -646680.57843  24165507.7114   24165497.8204
        39.7504         19.5004
 -19594948.59248 -14206371.88346  20974853.7114   20974844.2894
        48.0004         40.0004
 -16403521.90147 -10916349.40546  20857977.8674   20857965.1644
        47.0004         37.0004
 -27018782.87648 -20443270.11647  20418598.5864   20418588.6374
        51.0004         43.2504
 -11094142.79647  -7699754.97744  22363446.4064   22363432.5904
        44.2504         27.2504
 -15230197.44147 -11509657.10144  22393935.4304   22393926.1254
        43.7504         29.0004
   5805389.23846   4510504.82242  24095624.7584   24095617.2704
        36.2504         17.2504
 -10521165.82246  -7895306.37143  23212615.3134   23212604.3674
        38.5004         22.7504
 -12435267.79647  -9671003.44744  22671197.8204   22671188.5164
        42.5004         25.5004
 17  9 19  0 33  0.0000000  0 10G11G31G10G14G32G18G27G24G21G08
  -4041777.46946  -1868897.53442  24142251.5554   24142239.2624
        37.2504         15.5004
  -2910699.85846   -730071.01643  24145143.8984   24145133.5394
        39.5004         19.7504
 -19573549.30648 -14189697.11846  20978925.9304   20978916.5084
        48.0004         41.0004
 -16443683.19447 -10947643.90446  20850335.6804   20850322.6254
        47.0004         37.5004
 -27028629.69348 -20450942.96147  20416725.2814   20416714.9224
        51.5004         43.0004
 -11048741.15347  -7664377.09344  22372085.6334   22372072.2854
        44.5004         27.7504
 -15161099.51747 -11455814.58844  22407084.0394   22407074.6764
        42.7504         28.2504
   5864619.72346   4556658.38842  24106896.0864   24106888.7154
        36.5004         17.7504
 -10437520.33546  -7830128.14644  23228532.3364   23228521.9184
        39.5004         25.7504
 -12424626.71746  -9662711.69544  22673222.5704   22673213.4414
        41.5004         26.2504
 17  9 19  0 33 30.0000000  0 10G11G31G10G14G32G18G27G24G21G08
  -4142102.68046  -1947073.00042  24123159.2664   24123147.6764
        36.5004         14.7504
  -3017752.44146   -813488.47943  24124771.6954   24124761.8054
        39.7504         18.5004
 -19551981.19648 -14172890.80446  20983029.9694   20983020.5474
        48.0004         40.0004
 -16483397.24547 -10978589.90846  20842778.0704   20842765.2504
        46.5004         37.2504
 -27037998.62348 -20458243.40447  20414942.3834   20414932.0824
        51.5004         42.7504
 -11003237.46747  -7628919.68744  22380744.7734   22380731.9534
        45.0004         27.7504
 -15091656.25247 -11401702.97444  22420299.5314   22420289.1724
        44.0004         28.0004
   5924320.60946   4603178.60142  24118256.9844   24118249.4384
        36.0004         16.7504
 -10353593.22346  -7764730.45144  23244504.8444   23244492.1414
        40.7504         26.0004
 -12413449.41446  -9654002.12344  22675349.7734   22675340.0594
        41.7504         26.5004
 17  9 19  0 34  0.0000000  0 11G11G31G10G14G32G18G27G01G24G21G08
  -4242163.16546  -2025042.27042  24104118.1254   24104107.1214
        36.0004         16.2504
  -3124836.58746   -896930.60743  24104394.4144   24104383.8794
        40.0004         18.5004
 -19530243.89148 -14155952.64546  20987166.5704   20987156.7384
        48.7504         40.0004
 -16522663.73347 -11009187.15346  20835305.4614   20835293.4024
        47.2504         37.5004
 -27046890.07248 -20465171.80047  20413250.0784   20413240.1884
        51.0004         43.2504
 -10957631.08747  -7593382.25744  22389423.6414   22389410.6454
        45.2504         27.7504
 -15021870.27847 -11347324.32444  22433578.8754   22433568.8674
        43.0004         28.0004
   -588460.48614                  25469667.164
        29.000
   5984491.11145   4650064.71442  24129705.1484   24129699.8874
        34.0004         17.7504
 -10269385.69746  -7699114.25943  23260527.5474   23260517.1294
        37.5004         20.5004
 -12401736.50247  -9644875.18744  22677578.3834   22677568.9024
        42.0004         25.5004
 17  9 19  0 34 30.0000000  0 11G11G31G10G14G32G18G27G01G24G21G08
  -4341956.22546  -2102803.07542  24085128.0084   24085116.6524
        37.0004         17.2504
  -3231948.69746   -980394.46243  24084010.7424   24084000.6764
        40.5004         19.0004
 -19508336.88148 -14138882.25746  20991335.4224   20991325.7074
        49.5004         39.7504
 -16561482.08547 -11039435.20346  20827918.7344   20827906.1484
        47.5004         38.0004
 -27055304.34348 -20471728.36747  20411648.1564   20411638.9104
        50.7504         43.0004
 -10911921.22547  -7557764.20744  22398121.7894   22398108.5004
        45.2504         28.0004
 -14951744.06947 -11292680.53944  22446923.0314   22446914.0204
        43.5004         29.0004
                                  25449774.664
        28.000
   6045129.37045   4697315.25342  24141245.0864   24141238.5354
        33.7504         16.7504
 -10184898.90046  -7633280.44343  23276605.4454   23276592.0984
        37.2504         20.0004
 -12389488.74746  -9635331.51344  22679909.2424   22679899.5274
        41.2504         25.7504
 17  9 19  0 35  0.0000000  0 11G11G31G10G14G32G18G27G01G24G21G08
  -4441480.69345  -2180354.58242  24066189.2114   24066178.5004
        34.7504         16.7504
  -3339088.12846  -1063879.66843  24063624.0004   24063613.1134
        41.2504         19.7504
 -19486262.05248 -14121681.09846  20995536.1334   20995526.3014
        49.0004         40.0004
 -16599854.09447 -11069335.45446  20820616.3914   20820604.0984
        47.5004         37.5004
 -27063244.22348 -20477915.27747  20410138.1954   20410128.4224
        51.0004         43.2504
 -10866109.59447  -7522066.83944  22406839.6644   22406826.6684
        45.0004         28.2504
 -14881282.57747 -11237775.50544  22460331.9614   22460322.1884
        43.5004         28.5004
                                  25429878.414
        30.250
   6106231.75046   4744927.52442  24152874.8524   24152866.7194
        36.0004         17.2504
 -10100135.68146  -7567231.16843  23292735.4144   23292723.4144
        39.0004         22.5004
 -12376709.35546  -9625373.57544  22682340.8674   22682331.6214
        41.0004         27.2504
 17  9 19  0 35 30.0000000  0 11G11G31G10G14G32G18G27G01G24G21G08
  -4540731.50545  -2257692.73842  24047302.5554   24047291.8444
        33.5004         16.7504
  -3446249.52346  -1147381.93443  24043230.5314   24043220.5234
        41.0004         19.2504
 -19464017.18248 -14104347.43246  20999768.9844   20999759.3874
        48.7504         39.7504
 -16637777.15847 -11098885.88146  20813400.7734   20813387.7774
        47.2504         37.7504
 -27070708.24948 -20483731.38547  20408717.8834   20408707.8164
        51.7504         43.5004
 -10820193.50447  -7486288.07444  22415577.0004   22415563.9454
        44.7504         28.5004
 -14810486.54347 -11182609.79644  22473804.5314   22473795.1094
        43.5004         29.0004
   -902087.598 5                  25409985.602
        32.250
   6167798.85945   4792901.89242  24164592.5004   24164582.3164
        35.7504         15.5004
 -10015095.43646  -7500966.09643  23308918.4534   23308907.1564
        37.5004         22.7504
 -12363396.84046  -9615000.21944  22684874.4774   22684865.5824
        40.7504         27.0004
 17  9 19  0 36  0.0000000  0 11G11G31G10G14G32G18G27G01G24G21G08
  -4639707.68545  -2334817.04242  24028468.5634   24028457.9104
        35.2504         14.7504
  -3553432.02746  -1230900.65943  24022834.9614   24022823.8984
        40.2504         19.2504
 -19441604.05548 -14086882.66446  21004034.0394   21004024.0904
        49.2504         40.0004
 -16675253.23247 -11128088.00146  20806268.7584   20806256.0554
        47.2504         37.5004
 -27077699.23448 -20489178.90547  20407387.6174   20407377.6094
        51.5004         43.0004
 -10774174.66347  -7450429.24144  22424333.1484   22424321.2664
        44.7504         28.2504
 -14739360.91047 -11127187.26844  22487338.4144   22487329.2854
        43.0004         29.0004
    568767.998 5                  25390087.523
        31.750
   6229826.80245   4841235.32742  24176394.1334   24176386.0594
        34.7504         17.2504
  -9929781.36646  -7434487.71043  23325153.1484   23325142.0274
        36.5004         21.2504
 -12349554.80346  -9604214.23044  22687508.5004   22687499.0784
        41.0004         27.5004
 17  9 19  0 36 30.0000000  0 11G11G31G10G14G32G18G27G01G24G21G08
  -4738403.61745  -2411722.93942  24009687.6334   24009675.9264
        35.5004         16.7504
  -3660629.54046  -1314431.09743  24002434.6414   24002424.1644
        38.7504         19.2504
 -19419019.53548 -14069284.33946  21008331.6954   21008321.8634
        49.2504         39.5004
 -16712279.36247 -11156939.51346  20799222.9614   20799210.7274
        47.0004         37.5004
 -27084214.84948 -20494255.99847  20406147.3834   20406137.7274
        51.2504         43.0004
 -10728049.80147  -7414487.79644  22433111.9534   22433098.3714
        44.5004         28.2504
 -14667905.53547 -11071507.77844  22500936.0864   22500927.3094
        43.5004         29.7504
    464197.637 5                  25370186.406
        30.500
   6292316.25645   4889928.34042  24188285.1644   24188277.2074
        34.5004         14.7504
  -9844192.17446  -7367794.88943  23341440.1564   23341428.8594
        38.5004         22.0004
 -12335181.04646  -9593013.93344  22690242.7424   22690234.1994
        41.5004         26.5004
 17  9 19  0 37  0.0000000  0 11G11G31G10G14G32G18G27G01G24G21G08
  -4836819.82246  -2488410.89142  23990960.9774   23990947.8634
        38.2504         16.7504
  -3767842.62146  -1397973.62943  23982033.8984   23982022.5434
        40.7504         20.5004
 -19396266.94248 -14051555.04546  21012661.2274   21012651.8634
        48.5004         39.5004
 -16748858.70647 -11185442.87646  20792262.1804   20792249.9454
        46.5004         37.5004
 -27090259.44348 -20498966.06247  20404997.9064   20404987.7234
        51.5004         43.2504
 -10681821.58747  -7378465.84344  22441908.8444   22441895.2034
        45.0004         27.2504
 -14596126.76647 -11015576.31245  22514595.8754   22514586.1604
        44.0004         30.5004
    359619.869 4                  25350286.938
        28.250
   6355262.53945   4938977.40542  24200263.3054   24200256.4614
        34.7504         16.2504
  -9758332.72046  -7300891.41843  23357780.0004   23357767.0634
        38.5004         22.2504
 -12320280.47547  -9581403.10944  22693079.5314   22693069.8164
        42.2504         25.7504
 17  9 19  0 37 30.0000000  0 11G11G31G10G14G32G18G27G01G24G21G08
  -4934951.54946  -2564877.15042  23972286.8204   23972273.5314
        37.5004         17.7504
  -3875066.34546  -1481524.49343  23961629.7974   23961617.9734
        41.5004         20.5004
 -19373344.15548 -14033693.13746  21017023.9454   21017013.0594
        48.0004         39.5004
 -16784989.01347 -11213596.34746  20785386.8524   20785374.3834
        47.5004         37.2504
 -27095831.72848 -20503308.10147  20403937.4774   20403927.4104
        51.2504         43.5004
 -10635487.84247  -7342361.63544  22450724.9614   22450712.4924
        43.7504         27.2504
 -14524025.71047 -10959393.70344  22528315.8204   22528306.7504
        44.2504         29.5004
    255038.284 5                  25330385.227
        31.000
   6418666.17045   4988382.86742  24212328.6884   24212321.4924
        34.5004         16.2504
  -9672202.40246  -7233776.91843  23374168.5234   23374157.6954
        37.2504         23.0004
 -12304852.10346  -9569381.03244  22696014.1094   22696005.5664
        41.0004         26.0004
 17  9 19  0 38  0.0000000  0 11G11G31G10G14G32G18G27G01G24G21G08
  -5032796.67846  -2641120.09543  23953667.9614   23953653.7344
        38.0004         18.2504
  -3982298.12947  -1565081.61043  23941223.9454   23941213.5864
        42.2504         22.5004
 -19350251.46248 -14015698.83646  21021418.0474   21021407.9804
        48.5004         40.0004
 -16820670.73747 -11241400.27346  20778595.6174   20778584.0864
        46.2504         37.0004
 -27100933.10948 -20507283.20947  20402965.6094   20402956.3054
        51.0004         43.2504
 -10589048.56947  -7306175.21144  22459562.6024   22459549.1954
        44.5004         28.2504
 -14451605.77047 -10902962.61245  22542096.9774   22542087.8484
        44.0004         30.7504
                                  25310485.953
        28.000
   6482523.76945   5038142.02142  24224480.5474   24224473.7624
        34.2504         15.5004
  -9585802.85346  -7166452.67943  23390609.9454   23390599.0594
        37.2504         21.2504
 -12288897.47846  -9556948.87544  22699050.5864   22699041.5744
        41.5004         26.5004
 17  9 19  0 38 30.0000000  0 11G11G31G10G14G32G18G27G01G24G21G08
  -5130352.60446  -2717137.65242  23935102.6724   23935089.7344
        36.2504         17.2504
  -4089535.38247  -1648643.00743  23920817.8674   23920806.4534
        43.0004         21.5004
 -19326989.14147 -13997572.36246  21025844.6024   21025835.1804
        47.5004         39.5004
 -16855904.52747 -11268855.15846  20771891.4454   20771878.9774
        45.2504         36.2504
 -27105564.70048 -20510892.23347  20402084.6564   20402074.9414
        50.7504         43.5004
 -10542503.81347  -7269906.57944  22468419.7274   22468407.0234
        44.7504         26.5004
 -14378870.22247 -10846285.60145  22555938.2504   22555929.1214
        43.7504         30.5004
     45869.028 4                  25290585.602
        29.250
   6546833.70345   5088253.59642  24236718.9224   24236711.3164
        34.5004         14.7504
  -9499136.01146  -7098920.13343  23407102.0704   23407090.8324
        37.5004         22.0004
 -12272418.32247  -9544107.97844  22702186.6024   22702177.2974
        42.2504         27.0004
 17  9 19  0 39  0.0000000  0 11G11G31G10G14G32G18G27G01G24G21G08
  -5227615.82745  -2792927.13342  23916593.5474   23916581.4884
        35.0004         17.2504
  -4196774.27646  -1732205.65043  23900410.5704   23900399.9774
        41.2504         21.2504
 -19303556.26547 -13979312.98246  21030304.1334   21030294.0664
        47.0004         39.0004
 -16890689.23047 -11295960.11146  20765272.3984   20765259.7544
        45.2504         37.0004
 -27109726.68548 -20514135.31847  20401292.7814   20401282.8914
        49.5004         44.0004
 -10495852.17747  -7233554.66544  22477297.5394   22477284.3674
        45.0004         27.7504
 -14305821.29747 -10789364.40245  22569839.3834   22569829.8444
        44.2504         30.7504
                                  25270679.906
        28.750
   6611594.794 5                  24249042.164
        35.000
  -9412202.60646  -7031179.85743  23423645.7194   23423633.4264
        39.2504         21.5004
 -12255415.01247  -9530858.66944  22705421.7504   22705413.1484
        42.2504         25.7504
 17  9 19  0 39 30.0000000  0 11G11G31G10G14G32G18G27G01G24G21G08
  -5324582.81245  -2868485.81842  23898139.6484   23898129.4064
        34.2504         16.7504
  -4304011.36846  -1815766.90643  23880003.4454   23879993.0864
        41.2504         20.5004
 -19279952.02848 -13960920.07446  21034796.0394   21034784.5664
        48.0004         39.5004
 -16925023.89247 -11322714.37746  20758738.4454   20758725.9774
        44.5004         36.7504
 -27113419.26548 -20517012.65647  20400589.9454   20400580.2304
        50.0004         43.7504
 -10449092.91547  -7197118.87644  22486195.3134   22486182.5514
        45.0004         26.5004
 -14232461.37847 -10732200.85545  22583799.1484   22583789.7274
        43.0004         31.0004
                                  25250778.844
        26.250
   6676805.498 5                  24261451.852
        35.500
  -9325003.47846  -6963232.51843  23440238.9774   23440227.2114
        38.0004         21.5004
 -12237888.45846  -9517201.62544  22708757.1334   22708748.6484
        41.2504         27.5004
 17  9 19  0 40  0.0000000  0 12G11G31G10G14G32G18G27G22G01G24G21G08
  -5421251.38045  -2943812.00142  23879745.4454   23879733.1524
        33.7504         16.2504
  -4411243.65246  -1899324.42843  23859598.1724   23859587.7544
        40.5004         20.0004
 -19256176.64248 -13942393.80646  21039320.8984   21039309.6024
        48.5004         39.5004
 -16958908.94747 -11349118.30246  20752290.8594   20752278.2154
        46.0004         36.7504
 -27116643.68448 -20519525.17247  20399976.3444   20399966.2774
        49.5004         44.0004
 -10402225.68847  -7160598.97844  22495113.8524   22495100.8554
        44.5004         27.2504
 -14158793.75647 -10674797.53845  22597817.5474   22597808.1254
        44.5004         30.5004
    204604.03615                  25584011.367
        31.750
   -267866.043 5                  25230879.922
        31.500
   6742463.722 6                  24273946.570
        36.750
  -9237540.43246  -6895079.55543  23456882.5864   23456871.2894
        37.2504         21.5004
 -12219840.20346  -9503138.09144  22712191.4694   22712182.9844
        41.5004         27.0004
 17  9 19  0 40 30.0000000  0 12G11G31G10G14G32G18G27G22G01G24G21G08
  -5517620.11745  -3018904.49443  23861405.6564   23861395.0044
        33.7504         18.5004
  -4518470.08246  -1982877.37043  23839192.1884   23839182.6484
        40.0004         21.0004
 -19232231.57148 -13923735.31046  21043877.2194   21043867.7974
        48.0004         39.5004
 -16992346.37147 -11375173.42746  20745928.2584   20745915.1454
        45.7504         37.7504
 -27119402.48348 -20521674.87747  20399451.3984   20399441.6254
        50.7504         43.5004
 -10355252.05447  -7123996.17544  22504052.7344   22504039.8554
        43.7504         27.5004
 -14084823.06547 -10617158.08144  22611893.4774   22611884.4064
        43.5004         29.7504
    131646.724 5                  25570127.359
        32.750
   -372433.153 5                  25210982.211
        31.750
   6808565.686 5                  24286524.828
        35.250
  -9149816.26046  -6826723.14643  23473575.5944   23473564.4734
        38.2504         21.5004
 -12201273.26146  -9488670.37544  22715724.6094   22715715.8914
        41.0004         25.7504
 17  9 19  0 41  0.0000000  0 12G11G31G10G14G32G18G27G22G01G24G21G08
                                  23843121.2814   23843115.5514
        33.5004         16.2504
  -4625686.20146  -2066422.25443  23818789.0004   23818779.8714
        39.0004         19.2504
 -19208115.05448 -13904943.21946  21048464.5864   21048455.0474
        48.7504         39.2504
 -17025334.50547 -11400878.45446  20739650.6094   20739637.6724
        44.5004         37.0004
 -27121695.03548 -20523461.28147  20399015.2894   20399005.5744
        51.2504         43.7504
 -10308169.90047  -7087308.79444  22513012.3284   22512999.0984
        45.5004         27.7504
 -14010550.78847 -10559283.61344  22626027.2424   22626018.5234
        43.2504         29.5004
     58671.414 5                  25556243.078
        35.750
   -476990.507 5                  25191084.688
        33.750
   6875111.386 6                  24299188.914
        36.500
  -9061831.27746  -6758163.47943  23490318.7814   23490307.4844
        39.7504         21.2504
 -12182187.22246  -9473798.13544  22719356.8524   22719348.1334
        41.5004         26.5004
 17  9 19  0 41 30.0000000  0 12G11G31G10G14G32G18G27G22G01G24G21G08
  -2558602.96755   -713176.76552  23824905.4774   23824892.3054
        33.5004         16.2504
  -4732889.19346  -2149956.94543  23798388.8054   23798380.0274
        39.5004         19.0004
 -19183827.50848 -13886017.86346  21053087.2584   21053077.4264
        49.2504         39.7504
 -17057873.77247 -11426233.71346  20733458.5394   20733445.8954
        45.2504         36.7504
 -27123522.85848 -20524885.54347  20398667.5474   20398657.0704
        52.2504         43.2504
 -10260979.47047  -7050537.03744  22521992.3594   22521979.4804
        44.2504         27.5004
 -13935980.42147 -10501176.87344  22640217.2344   22640208.2234
        42.0004         29.0004
    -14322.636 5                  25542352.648
        34.250
   -581536.921 5                  25171191.828
        35.750
   6942098.449 6                  24311934.273
        36.250
  -8973587.48546  -6689402.13943  23507111.3134   23507099.4884
        39.5004         20.2504
 -12162584.21746  -9458523.08844  22723087.5704   22723078.5594
        41.7504         27.5004
 17  9 19  0 42  0.0000000  0 12G11G31G10G14G32G18G27G22G01G24G21G08
  -2654052.42645   -787552.96742  23806739.2894   23806729.2814
        33.5004         15.5004
  -4840076.15346  -2233479.16043  23777993.3984   23777982.8634
        40.7504         20.7504
 -19159368.96148 -13866959.25546  21057742.7504   21057731.6294
        49.0004         39.5004
 -17089964.42847 -11451239.40946  20727351.7734   20727339.1294
        46.2504         37.5004
 -27124887.09248 -20525948.58047  20398407.8284   20398397.7034
        52.2504         43.7504
 -10213680.38747  -7013680.62844  22530992.5164   22530980.1054
        44.0004         27.5004
 -13861115.26147 -10442840.41844  22654463.7894   22654454.5434
        42.2504         28.5004
    -87335.630 5                  25528457.086
        35.250
   -686070.709 5                  25151298.695
        35.750
   7009523.950 6                  24324766.219
        36.250
  -8885086.36446  -6620440.25543  23523952.0084   23523940.5944
        38.7504         18.5004
 -12142466.00847  -9442846.57544  22726916.6334   22726906.8014
        42.0004         26.5004
 17  9 19  0 42 30.0000000  0 12G11G31G10G14G32G18G27G22G01G24G21G08
  -2749189.81445   -861685.98542  23788634.9774   23788624.2664
        34.7504         15.5004
  -4947244.32847  -2316986.74243  23757600.2974   23757589.7034
        42.0004         21.0004
 -19134739.14348 -13847767.19446  21062429.6564   21062419.0634
        49.0004         39.5004
 -17121606.43947 -11475895.50346  20721330.1954   20721317.9024
        45.7504         37.5004
 -27125788.59548 -20526651.05447  20398236.2894   20398226.2234
        52.5004         44.2504
 -10166271.97547  -6976739.01544  22540014.2974   22540002.0044
        44.5004         25.7504
 -13785958.18247 -10384276.49444  22668765.9774   22668756.6134
        42.2504         29.0004
   -160368.090 5                  25514558.484
        33.750
   -790589.661 5                  25131409.164
        35.500
   7077386.684 5                  24337678.914
        35.000
  -8796329.75546  -6551279.34043  23540841.5784   23540830.8674
        38.2504         19.5004
 -12121833.54747  -9426769.33444  22730842.9224   22730832.9144
        42.5004         26.7504
 17  9 19  0 43  0.0000000  0 12G11G31G10G14G32G18G27G22G01G24G21G08
  -2844013.80445   -935574.80442  23770592.3284   23770579.6254
        35.7504         16.2504
  -5054391.19946  -2400477.71943  23737210.9844   23737199.9804
        41.7504         21.2504
 -19109938.54548 -13828442.05246  21067147.4844   21067138.5904
        49.7504         40.0004
 -17152801.10147 -11500203.01046  20715394.4614   20715381.9344
        45.7504         36.7504
 -27126229.08248 -20526994.28647  20398152.2734   20398142.3834
        52.0004         43.5004
 -10118754.60047  -6939712.51244  22549056.1094   22549043.6994
        44.0004         27.2504
 -13710512.91547 -10325488.00344  22683122.4614   22683113.7424
        42.2504         27.5004
   -233420.409 5                  25500658.078
        34.500
   -895092.618 5                  25111523.914
        35.000
   7145683.71846   4744953.87442  24350675.4454   24350667.0204
        36.2504         15.5004
  -8707319.48146  -6481920.74443  23557780.8364   23557768.7774
        39.2504         19.5004
 -12100689.13347  -9410293.18744  22734866.2894   22734856.6334
        42.5004         27.5004
 17  9 19  0 43 30.0000000  0 12G11G31G10G14G32G18G27G22G01G24G21G08
  -2938520.25546  -1009216.19243  23752608.7734   23752595.6024
        36.7504         18.2504
  -5161513.05646  -2483949.18143  23716825.5864   23716814.8754
        40.2504         19.2504
 -19084966.43348 -13808983.26846  21071899.7814   21071891.0634
        49.0004         39.0004
 -17183547.44447 -11524161.18846  20709542.9534   20709531.3054
        45.0004         37.0004
 -27126208.94848 -20526978.58347  20398156.3444   20398146.1024
        52.2504         43.5004
 -10071127.48747  -6902600.50844  22558119.1094   22558106.6414
        44.5004         26.2504
 -13634781.91947 -10266476.89044  22697533.3284   22697523.8484
        42.0004         27.5004
   -306492.313 5                  25486752.266
        35.250
   -999577.058 6                  25091642.336
        36.250
   7214413.53345   4798509.63642  24363753.4774   24363746.2234
        35.0004         17.2504
  -8618056.67346  -6412365.34843  23574766.4924   23574755.3714
        38.7504         21.2504
 -12079033.64847  -9393418.81244  22738987.2344   22738977.8714
        42.5004         25.7504
 17  9 19  0 44  0.0000000  0 12G11G31G10G14G32G18G27G22G01G24G21G08
  -3032706.46145  -1082607.98542  23734684.2194   23734673.0394
        35.2504         17.2504
  -5268606.79746  -2567398.72443  23696447.1804   23696435.7074
        40.2504         19.7504
 -19059822.31748 -13789390.45646  21076684.9454   21076675.0554
        48.7504         38.5004
 -17213845.20147 -11547769.80946  20703778.1024   20703765.2234
        46.2504         37.0004
 -27125728.93248 -20526604.53147  20398247.4224   20398237.4144
        52.5004         43.5004
 -10023389.63047  -6865402.19244  22567203.4924   22567190.4964
        44.0004         26.0004
 -13558767.97147 -10207245.27344  22711998.6564   22711989.1174
        42.5004         28.2504
   -379583.601 5                  25472843.375
        35.000
  -1104040.533 6                  25071762.383
        37.250
   7283574.28546   4852401.07542  24376914.9224   24376907.0824
        36.7504         17.2504
  -8528542.60546  -6342614.21243  23591799.7424   23591789.5004
        37.2504         19.5004
 -12056868.25446  -9376147.09144  22743204.7504   22743195.7974
        39.5004         27.0004
 17  9 19  0 44 30.0000000  0 12G11G31G10G14G32G18G27G22G01G24G21G08
  -3126569.98546  -1155748.32343  23716824.7424   23716810.8674
        38.0004         19.5004
  -5375669.21247  -2650823.85543  23676074.6884   23676062.3364
        43.0004         20.5004
 -19034506.24748 -13769663.65446  21081502.3594   21081492.7034
        48.0004         39.0004
 -17243694.68547 -11571029.13646  20698097.8834   20698085.1804
        46.7504         37.7504
 -27124790.34248 -20525873.15247  20398426.7424   20398416.4414
        52.0004         43.5004
  -9975541.19347  -6828117.70244  22576309.4774   22576296.1884
        44.2504         25.0004
 -13482474.33347 -10147795.72444  22726516.3594   22726507.6414
        42.7504         28.7504
   -452694.598 5                  25458929.469
        34.500
  -1208481.414 6                  25051889.203
        39.750
   7353163.70146   4906626.55942  24390156.8204   24390149.0394
        36.0004         17.2504
  -8438778.93646  -6272668.56243  23608881.6884   23608870.8594
        37.0004         18.2504
 -12034194.97047  -9358479.60344  22747520.4144   22747510.5824
        43.0004         26.2504
 17  9 19  0 45  0.0000000  0 12G11G31G10G14G32G18G27G22G01G24G21G08
  -3220108.08546  -1228635.17143  23699025.1414   23699011.5004
        36.0004         18.5004
  -5482697.24847  -2734222.25543  23655707.3054   23655695.0704
        44.2504         21.5004
 -19009017.90248 -13749802.61646  21086352.6954   21086342.5124
        49.0004         38.7504
 -17273096.16847 -11593939.35946  20692502.8834   20692490.1214
        47.0004         38.0004
 -27123394.08348 -20524785.15847  20398691.8054   20398681.4454
        53.0004         43.5004
  -9927581.53247  -6790746.54644  22585435.0704   22585422.4264
        44.0004         27.0004
 -13405904.00247 -10088130.56444  22741087.7664   22741078.0514
        42.5004         27.7504
   -525825.525 5                  25445014.094
        34.750
  -1312897.567 6                  25032018.117
        40.000
   7423179.57846   4961184.34242  24403480.8524   24403472.7774
        36.7504         15.5004
  -8348767.40046  -6202529.71643  23626011.0944   23625999.0944
        38.7504         19.0004
 -12011014.82447  -9340417.16344  22751930.8754   22751921.7464
        43.0004         27.0004
 17  9 19  0 45 30.0000000  0 12G11G31G10G14G32G18G27G22G01G24G21G08
  -3313317.58046  -1301265.94942  23681286.8594   23681274.2154
        36.2504         17.7504
  -5589688.08247  -2817591.68743  23635346.2584   23635335.1954
        42.0004         19.5004
 -18983357.39048 -13729807.41146  21091235.8754   21091225.6334
        48.7504         39.5004
 -17302050.00747 -11616500.78246  20686993.1644   20686980.3444
        46.2504         38.0004
 -27121541.49648 -20523341.58647  20399044.3984   20399034.3324
        51.2504         43.7504
  -9879510.44647  -6753288.54844  22594582.7504   22594570.1054
        44.7504         26.0004
 -13329060.23047 -10028252.32644  22755710.8914   22755701.2344
        43.0004         27.2504
   -598976.554 5                  25431095.297
        34.500
  -1417287.30046   -398629.98152  25012154.3364   25012143.8014
        40.0004         17.7504
   7493620.40945   5016073.33242  24416884.9694   24416877.4224
        35.2504         17.7504
  -8258509.71946  -6132199.11243  23643186.1174   23643174.5274
        36.0004         19.0004
 -11987329.77347  -9321961.30544  22756437.4844   22756428.8244
        42.7504         25.0004
 17  9 19  0 46  0.0000000  0 12G11G31G10G14G32G18G27G22G01G24G21G08
  -3406195.01845  -1373637.95142  23663612.6024   23663600.1914
        35.0004         17.2504
  -5696637.68746  -2900928.96043  23614994.2814   23614983.2774
        41.5004         18.5004
 -18957523.37548 -13709677.01646  21096151.5474   21096141.8324
        48.7504         39.0004
 -17330555.44747 -11638712.80646  20681568.2734   20681555.6884
        46.2504         38.0004
 -27119232.60448 -20521542.45247  20399483.6484   20399473.4064
        52.5004         43.0004
  -9831326.53847  -6715742.67644  22603752.2974   22603739.4184
        44.0004         26.0004
 -13251945.02246  -9968162.59744  22770384.8914   22770376.1724
        41.0004         27.0004
   -672147.008 5                  25417170.063
        35.500
  -1521647.46846   -479949.53342  24992294.8284   24992285.2894
        38.2504         16.7504
   7564484.40345   5071292.00842  24430369.3594   24430362.3984
        35.5004         16.2504
  -8168006.33245  -6061677.04143  23660408.1334   23660397.5394
        34.2504         19.0004
 -11963140.26147  -9303112.33944  22761041.1884   22761031.0044
        43.0004         26.0004
 17  9 19  0 46 30.0000000  0 12G11G31G10G14G32G18G27G22G01G24G21G08
  -3498738.81446  -1445749.96442  23646002.3054   23645989.8364
        36.0004         16.7504
  -5803544.35746  -2984232.76942  23594650.2584   23594639.1954
        41.5004         17.7504
 -18931516.76648 -13689412.12546  21101101.0704   21101090.5944
        48.2504         39.5004
 -17358613.49147 -11660576.20246  20676229.0704   20676216.6024
        47.5004         37.7504
 -27116469.50048 -20519389.37747  20400009.4304   20399999.3054
        52.2504         43.2504
  -9783030.33647  -6678109.29344  22612942.1254   22612930.4184
        43.7504         26.5004
 -13174562.55146  -9907864.59544  22785110.8364   22785102.0004
        41.5004         28.2504
   -745337.67145   -499794.87952  25403242.8444   25403230.3164
        35.7504         17.7504
  -1625977.11646   -561245.35542  24972441.3674   24972432.4734
        39.7504         17.7504
   7635768.78646   5126838.33742  24443935.4384   24443927.5984
        36.0004         16.2504
  -8077259.96046  -5990965.67342  23677676.6334   23677665.2774
        36.2504         17.7504
 -11938449.16046  -9283872.53644  22765739.7194   22765730.0634
        40.7504         26.7504
 17  9 19  0 47  0.0000000  0 12G11G31G10G14G32G18G27G22G01G24G21G08
  -3590946.36545  -1517599.96943  23628454.9924   23628443.5784
        35.0004         18.2504
  -5910404.87147  -3067500.64943  23574316.8204   23574304.2934
        42.2504         18.5004
 -18905337.62447 -13669012.79046  21106081.6414   21106072.3954
        47.7504         39.5004
 -17386224.89747 -11682091.56946  20670974.7424   20670962.5084
        46.2504         37.7504
 -27113253.61748 -20516883.48547  20400621.3674   20400611.6524
        52.2504         43.5004
  -9734621.58647  -6640388.18844  22622155.2034   22622142.0314
        44.0004         27.0004
 -13096916.11847  -9847360.92244  22799886.3984   22799877.1524
        42.0004         27.2504
   -818548.89345   -556842.57143  25389311.3204   25389298.9104
        34.5004         18.2504
  -1730274.48946   -642515.96743  24952594.0084   24952585.3484
        40.5004         18.5004
   7707470.50645   5182709.79542  24457578.8674   24457570.7934
        35.7504         16.2504
  -7986272.48146  -5920066.38442  23694991.5164   23694980.0434
        36.5004         17.7504
 -11913258.51146  -9264243.46344  22770534.1954   22770524.1884
        39.0004         26.7504
 17  9 19  0 47 30.0000000  0 12G11G31G10G14G32G18G27G22G01G24G21G08
  -3682814.57946  -1589185.57343  23610974.2504   23610961.1954
        37.5004         18.5004
  -6017215.82947  -3150729.84343  23553991.2734   23553979.6254
        42.0004         19.0004
 -18878985.28247 -13648478.51046  21111097.0864   21111087.3134
        47.5004         39.0004
 -17413389.24647 -11703258.57546  20665805.6644   20665793.3134
        44.7504         37.2504
 -27109585.61848 -20514025.29647  20401320.1024   20401309.8594
        50.7504         43.5004
  -9686099.72947  -6602578.98344  22631387.7974   22631375.3874
        44.0004         26.7504
 -13019008.42147  -9786653.66344  22814711.8834   22814702.8714
        42.7504         26.0004
   -891780.73545   -613906.32342  25375377.1334   25375363.1414
        33.5004         15.5004
  -1834537.10046   -723759.57643  24932753.2504   24932744.6484
        40.7504         18.5004
   7779588.23246   5238905.46842  24471301.8674   24471294.6724
        36.5004         16.2504
  -7895045.14946  -5848980.21742  23712350.7344   23712340.1994
        36.0004         17.7504
 -11887569.14546  -9244225.79744  22775421.4614   22775412.5084
        41.0004         24.2504
 17  9 19  0 48  0.0000000  0 12G11G31G10G14G32G18G27G22G01G24G21G08
  -3774341.11246  -1660504.95143  23593557.7734   23593543.9574
        37.2504         19.2504
  -6123974.38846  -3233918.26843  23533675.4924   23533663.7274
        40.5004         18.2504
 -18852459.89148 -13627809.39346  21116144.5004   21116135.0204
        48.5004         39.2504
 -17440107.21747 -11724077.76546  20660721.6094   20660708.7304
        46.2504         38.0004
 -27105467.06248 -20510816.02447  20402103.5784   20402093.6294
        52.5004         44.2504
  -9637464.48647  -6564681.40044  22640644.1174   22640630.3594
        44.5004         27.2504
 -12940842.83647  -9725745.44544  22829585.3134   22829577.0634
        42.0004         27.7504
   -965033.39245   -670986.23442  25361433.4534   25361423.9144
        30.5004         14.7504
  -1938763.21646   -804974.76742  24912920.5784   24912911.2154
        40.0004         17.7504
   7852119.86846   5295423.58442  24485105.2424   24485096.9344
        37.2504         17.2504
  -7803580.01345  -5777708.71242  23729756.5314   23729745.4104
        35.0004         17.7504
 -11861383.31846  -9223821.29344  22780404.4774   22780395.4064
        40.5004         24.7504
 17  9 19  0 48 30.0000000  0 12G11G31G10G14G32G18G27G22G01G24G21G08
  -3865522.37946  -1731555.29143  23576206.7194   23576192.3164
        38.0004         20.0004
  -6230676.90246  -3317062.95343  23513370.9924   23513359.1094
        41.2504         18.5004
 -18825760.59348 -13607004.73646  21121225.4224   21121215.2384
        48.0004         38.7504
 -17466378.32847 -11744548.75146  20655722.4384   20655709.5594
        45.7504         37.7504
 -27100898.35048 -20507255.97647  20402972.4454   20402962.9064
        51.7504         43.5004
  -9588714.54747  -6526694.46544  22649920.3364   22649906.5204
        44.0004         25.5004
 -12862421.87747  -9664638.23244  22844508.9614   22844500.2424
        42.2504         27.5004
  -1038306.178 5                  25347491.719
        30.500
  -2042950.17246   -886159.36443  24893095.5164   24893085.9184
        38.5004         18.2504
   7925063.27046   5352262.58143  24498987.0864   24498977.8404
        40.5004         19.7504
  -7711877.95345  -5706252.63843  23747207.5004   23747196.1454
        35.2504         19.5004
 -11834701.86046  -9203030.56544  22785481.5704   22785472.1484
        40.0004         24.5004
 17  9 19  0 49  0.0000000  0 12G11G31G10G14G32G18G27G22G01G24G21G08
  -3956357.24146  -1802335.65743  23558920.4224   23558906.8404
        37.0004         18.5004
  -6337321.73247  -3400162.75543  23493077.6174   23493065.2074
        42.5004         19.2504
 -18798888.68048 -13586065.59046  21126339.0474   21126329.0984
        48.0004         39.5004
 -17492204.59047 -11764673.09446  20650807.4534   20650795.4534
        46.2504         37.7504
 -27095882.24048 -20503347.32247  20403927.3134   20403917.0124
        52.2504         43.7504
  -9539851.41947  -6488619.32244  22659219.1954   22659205.6134
        44.5004         26.5004
 -12783750.10547  -9603335.58644  22859480.4614   22859470.6884
        42.5004         27.7504
                                  25333543.586
        28.500
  -2147097.38946   -967312.96843  24873276.5944   24873266.9964
        39.2504         19.2504
   7998414.85346   5409419.68943  24512945.0634   24512935.6414
        39.2504         19.2504
  -7619942.40046  -5634614.64943  23764703.2894   23764690.7624
        37.5004         19.0004
 -11807528.20246  -9181856.31343  22790652.5944   22790643.3484
        40.5004         23.5004
 17  9 19  0 49 30.0000000  0 12G11G31G10G14G32G18G27G22G01G24G21G08
  -4046841.43446  -1872842.79443  23541702.0004   23541688.3594
        38.7504         19.7504
  -6443904.14647  -3483213.92343  23472795.7974   23472782.7424
        42.2504         18.5004
 -18771842.39548 -13564990.55946  21131486.1724   21131476.1054
        48.2504         40.0004
 -17517584.69347 -11784449.77546  20645977.8444   20645965.5514
        47.7504         38.0004
 -27090418.37248 -20499089.75447  20404966.7344   20404956.7274
        52.0004         43.2504
  -9490873.06847  -6450454.37644  22668538.7734   22668525.9534
        45.0004         26.5004
 -12704829.10847  -9541838.74244  22874497.6094   22874489.4774
        42.0004         27.7504
    390503.730 4                  25319594.656
        29.750
  -2251201.19446  -1048432.78143  24853467.0474   24853456.8634
        40.0004         22.0004
   8072174.53646   5466894.73343  24526980.9144   24526972.3714
        37.5004         19.5004
  -7527773.14646  -5562794.48143  23782241.6804   23782229.6804
        37.0004         19.7504
 -11779862.47846  -9160298.61744  22795917.8834   22795908.2854
        38.2504         24.0004
 17  9 19  0 50  0.0000000  0 12G11G31G10G14G32G18G27G22G01G24G21G08
  -4136972.28346  -1943074.57142  23524550.7894   23524537.9694
        38.5004         17.7504
  -6550421.00746  -3566214.01543  23452524.9384   23452513.0554
        41.0004         19.2504
 -18744621.48948 -13543779.47346  21136665.9774   21136655.2664
        49.0004         39.2504
 -17542518.94547 -11803879.05246  20641233.3444   20641220.9344
        46.7504         38.5004
 -27084507.89348 -20494484.18547  20406091.6174   20406081.4924
        53.0004         43.7504
  -9441778.80747  -6412199.10544  22677881.0944   22677868.0984
        44.0004         25.2504
 -12625661.93547  -9480150.07744  22889562.7894   22889554.2464
        42.0004         26.2504
    317167.877 4                  25305639.258
        28.500
  -2355259.53246  -1129517.16043  24833663.9534   24833655.5274
        39.7504         19.5004
   8146339.96246   5524685.97043  24541093.9844   24541085.9104
        38.2504         19.2504
  -7435372.04146  -5490793.64943  23799825.1644   23799813.8674
        37.2504         18.5004
 -11751706.30546  -9138358.78244  22801275.4534   22801266.6174
        37.2504         24.2504
 17  9 19  0 50 30.0000000  0 12G11G31G10G14G32G18G27G22G01G24G21G08
  -4226745.92546  -2013028.06043  23507467.2034   23507453.5634
        38.5004         19.0004
  -6656868.49446  -3649160.03243  23432267.3984   23432257.3914
        39.7504         18.2504
 -18717224.72848 -13522431.34646  21141878.5944   21141868.9384
        48.0004         39.5004
 -17567006.84147 -11822960.52246  20636573.7584   20636560.7034
        46.7504         38.0004
 -27078150.98848 -20489530.74347  20407301.1254   20407291.4104
        53.0004         43.5004
  -9392567.34347  -6373852.52844  22687245.9144   22687232.9184
        44.5004         25.5004
 -12546250.72047  -9418271.24544  22904674.6254   22904665.4964
        42.0004         27.0004
                                  25291680.789
        28.000
  -2459269.28446  -1210563.77542  24813871.8204   24813863.1024
        38.2504         17.2504
   8220909.11146   5582791.85043  24555284.1254   24555275.0554
        39.0004         19.2504
  -7342739.57345  -5418612.56143  23817451.5164   23817441.6844
        35.0004         18.5004
 -11723060.58446  -9116037.47244  22806726.7034   22806718.0434
        40.0004         25.0004
 17  9 19  0 51  0.0000000  0 12G11G31G10G14G32G18G27G22G01G24G21G08
  -4316161.64146  -2082702.58343  23490451.7194   23490439.1914
        38.2504         18.5004
  -6763244.96146  -3732050.63843  23412023.8914   23412015.1724
        39.5004         19.5004
 -18689653.62748 -13500947.37446  21147125.9224   21147115.6214
        48.0004         39.2504
 -17591050.11847 -11841695.53046  20631997.8284   20631985.5354
        47.0004         38.2504
 -27071350.67648 -20484231.79547  20408595.2424   20408585.2934
        52.2504         43.2504
  -9343240.28647  -6335415.86144  22696632.6174   22696619.1524
        44.7504         25.7504
 -12466600.31347  -9356206.04144  22919831.7894   22919822.7194
        42.0004         27.2504
    170434.959 4                  25277714.672
        28.250
  -2563230.16246  -1291572.25343  24794089.7814   24794079.8324
        37.5004         18.5004
   8295878.74446   5641209.70042  24569550.1884   24569540.7664
        39.0004         17.7504
  -7249879.57746  -5346254.19142  23835122.8674   23835112.0394
        36.5004         17.2504
 -11693928.51146  -9093337.16143  22812269.1724   22812261.0984
        40.5004         23.7504
 17  9 19  0 51 30.0000000  0 12G11G31G10G14G32G18G27G22G01G24G21G08
  -4405217.72646  -2152096.95543  23473503.9304   23473492.1054
        37.5004         18.2504
  -6869548.63546  -3814884.60943  23391794.8444   23391785.8324
        39.7504         19.2504
 -18661909.15148 -13479328.30946  21152405.5084   21152395.4414
        48.2504         39.0004
 -17614650.69947 -11860085.57746  20627507.2274   20627494.4654
        46.7504         38.0004
 -27064109.37848 -20478589.21647  20409973.3134   20409963.3634
        52.5004         43.5004
  -9293798.25547  -6296889.62844  22706040.6334   22706028.0474
        44.0004         26.2504
 -12386715.01446  -9293957.78444  22935033.2274   22935024.2154
        41.7504         27.2504
     97035.132 5                  25263748.453
        32.250
  -2667141.11746  -1372541.73343  24774316.5704   24774305.9774
        38.5004         21.5004
   8371245.04346   5699936.67042  24583892.7664   24583882.6994
        39.7504         17.2504
  -7156794.53746  -5273720.47043  23852836.1724   23852825.7544
        36.7504         19.7504
 -11664313.67846  -9070260.69044  22817904.6334   22817897.3794
        40.0004         25.0004
 17  9 19  0 52  0.0000000  0 12G11G31G10G14G32G18G27G22G01G24G21G08
  -4493908.41546  -2221206.54643  23456628.0554   23456614.9414
        38.0004         19.2504
  -6975773.06146  -3897656.80443  23371582.1414   23371571.1954
        40.5004         20.0004
 -18633988.02548 -13457571.58246  21157718.8524   21157709.0784
        48.5004         38.5004
 -17637805.69247 -11878128.42646  20623100.8834   20623087.9454
        47.5004         38.2504
 -27056425.24648 -20472601.57447  20411435.0634   20411425.2894
        53.0004         44.0004
  -9244237.59147  -6258270.94444  22715472.0004   22715458.5354
        44.5004         26.7504
 -12306594.88247  -9231526.54844  22950279.8284   22950270.5234
        42.5004         26.2504
     23615.607 5                  25249775.883
        34.000
  -2770997.03346  -1453468.41843  24754550.8594   24754542.3164
        38.0004         20.7504
   8447009.24746   5758973.74143  24598310.3524   24598300.1094
        40.2504         19.0004
  -7063483.27046  -5201010.43043  23870593.6174   23870581.9694
        36.7504         18.5004
 -11634214.64846  -9046806.93044  22823633.4224   22823624.7624
        40.2504         25.0004
 17  9 19  0 52 30.0000000  0 12G11G31G10G14G32G18G27G22G01G24G21G08
  -4582232.96846  -2290030.83643  23439820.4534   23439807.2234
        39.2504         19.7504
  -7081917.16246  -3980366.41343  23351383.2274   23351372.5744
        40.0004         19.0004
 -18605891.79548 -13435678.42646  21163064.9774   21163055.4964
        49.0004         39.2504
 -17660517.31947 -11895825.77846  20618778.8594   20618766.2154
        47.0004         38.5004
 -27048301.43248 -20466271.31947  20412981.1954   20412971.4804
        53.0004         43.7504
  -9194559.78847  -6219560.96744  22724925.4454   22724912.3914
        44.5004         26.0004
 -12226244.94346  -9168916.23344  22965569.8364   22965561.0004
        41.5004         27.2504
    -49825.722 5                  25235800.180
        33.500
  -2874797.66946  -1534351.99742  24734797.5704   24734789.4964
        36.7504         17.7504
   8523166.65646   5818317.20343  24612802.9304   24612792.9224
        40.2504         18.2504
  -6969949.04346  -5128126.67242  23888392.2814   23888380.9844
        38.0004         17.2504
 -11603635.07646  -9022978.70943  22829452.1884   22829443.6454
        41.2504         22.7504
 17  9 19  0 53  0.0000000  0 12G11G31G10G14G32G18G27G22G01G24G21G08
  -4670187.94246  -2358567.16443  23423082.3134   23423070.2544
        39.0004         19.5004
  -7187977.31246  -4063010.60043  23331201.4064   23331190.4024
        40.7504         19.2504
 -18577619.63448 -13413648.17446  21168444.8284   21168435.5234
        49.0004         39.0004
 -17682785.31947 -11913177.46046  20614541.7344   20614528.6214
        47.0004         38.5004
 -27039738.53748 -20459598.93247  20414610.9614   20414601.1294
        52.5004         43.2504
  -9144763.79647  -6180758.92244  22734401.4614   22734388.2894
        44.0004         26.2504
 -12145667.58146  -9106128.74144  22980903.5864   22980894.3984
        41.2504         26.2504
   -123288.233 5                  25221821.641
        35.250
  -2978540.10946  -1615190.30642  24715058.4224   24715048.5314
        37.7504         17.2504
   8599716.19246   5877966.16742  24627368.4614   24627360.1524
        37.7504         16.7504
  -6876193.21346  -5055070.27142  23906234.2114   23906222.0944
        37.5004         17.2504
 -11572576.15146  -8998776.97844  22835362.4224   22835353.7034
        40.5004         25.2504
 17  9 19  0 53 30.0000000  0 12G11G31G10G14G32G18G27G22G01G24G21G08
  -4757771.05046  -2426813.71343  23406416.1414   23406403.3204
        38.5004         19.7504
  -7293950.63746  -4145587.13443  23311034.3204   23311024.6054
        38.5004         18.2504
 -18549171.58048 -13391480.86746  21173858.5944   21173849.1134
        49.0004         38.7504
 -17704610.54647 -11930184.12246  20610388.3204   20610375.3834
        47.2504         38.5004
 -27030738.16748 -20452585.64747  20416323.4694   20416313.6954
        52.7504         43.5004
  -9094849.45547  -6141864.63944  22743898.7274   22743886.3754
        44.2504         27.0004
 -12064866.27546  -9043166.72644  22996279.6804   22996269.9654
        41.2504         26.5004
   -196772.422 6                  25207838.070
        36.750
  -3082222.61046  -1695981.83742  24695327.1174   24695318.9264
        36.0004         17.7504
   8676654.55546   5937918.18242  24642009.4774   24641999.9964
        36.7504         16.7504
  -6782217.97146  -4981842.81542  23924117.2344   23924105.6454
        37.2504         16.2504
 -11541040.25746  -8974203.57544  22841364.3914   22841354.5594
        41.0004         24.0004
 17  9 19  0 54  0.0000000  0 12G11G31G10G14G32G18G27G22G01G24G21G08
  -4844979.16346  -2494768.07543  23389819.4224   23389808.5944
        38.5004         20.0004
  -7399833.01146  -4228092.82143  23290885.9694   23290875.4924
        40.0004         19.5004
 -18520546.86548 -13369175.89746  21179305.9384   21179295.9884
        49.0004         38.7504
 -17725992.95547 -11946845.72646  20606319.4454   20606306.5084
        47.5004         38.5004
 -27021301.07648 -20445232.06447  20418119.5164   20418108.9804
        53.7504         43.5004
  -9044815.86747  -6102877.45044  22753421.2664   22753407.3914
        43.7504         27.2504
 -11983843.62446  -8980032.22644  23011697.6174   23011688.0204
        41.0004         25.2504
   -270277.618 5                  25193849.938
        35.750
  -3185842.57945  -1776724.58842  24675606.9774   24675600.8364
        33.5004         17.2504
   8753980.83346   5998172.42342  24656723.2424   24656715.4024
        37.2504         17.2504
  -6688024.39646  -4908445.33342  23942039.9064   23942030.0744
        37.5004         16.7504
 -11509028.64346  -8949259.48444  22847455.8444   22847446.3054
        40.0004         27.0004
 17  9 19  0 54 30.0000000  0 12G11G31G10G14G32G18G27G22G01G24G21G08
  -4931809.74246  -2562428.23843  23373296.1254   23373285.0044
        38.0004         20.2504
  -7505622.02646  -4310525.70443  23270755.2894   23270744.3444
        39.5004         20.5004
 -18491745.53048 -13346733.29846  21184786.2584   21184776.7774
        48.7504         39.0004
 -17746933.27047 -11963162.84946  20602334.3914   20602321.8634
        47.0004         38.5004
 -27011428.91548 -20437539.46347  20419997.8674   20419988.1524
        52.7504         43.7504
  -8994662.90447  -6063797.21144  22762964.1254   22762951.1294
        43.7504         25.7504
 -11902603.08346  -8916727.95044  23027157.2664   23027147.9024
        41.2504         26.5004
   -343804.195 5                  25179857.758
        35.250
  -3289397.95146  -1857417.05542  24655902.5634   24655894.1374
        36.7504         17.7504
   8831692.22646   6058726.72042  24671513.0394   24671503.2664
        38.5004         16.7504
  -6593614.63746  -4834879.35542  23960005.9844   23959995.1564
        37.0004         17.2504
 -11476543.36046  -8923946.27644  22853636.9844   22853627.9144
        41.5004         27.0004
 17  9 19  0 55  0.0000000  0 12G11G31G10G14G32G18G27G22G01G24G21G08
  -5018260.89646  -2629792.75543  23356845.0474   23356833.9264
        37.7504         19.2504
  -7611315.22746  -4392884.00043  23250643.2584   23250631.3754
        40.5004         20.5004
 -18462768.11048 -13324153.49146  21190300.4694   21190290.8714
        49.0004         39.0004
 -17767432.87947 -11979136.55546  20598433.6564   20598420.9534
        46.2504         38.0004
 -27001123.80948 -20429509.50747  20421958.7424   20421949.1454
        52.7504         43.2504
  -8944391.02547  -6024624.32344  22772529.8754   22772518.2854
        42.5004         26.2504
 -11821148.53546  -8853256.90644  23042656.5084   23042648.8444
        39.5004         26.0004
   -417353.172 6                  25165862.133
        37.250
  -3392887.48946  -1938058.21242  24636209.9774   24636201.1994
        36.0004         17.7504
   8909785.26546   6119578.45642  24686372.4534   24686363.6764
        36.5004         17.2504
  -6498991.25146  -4761146.92542  23978012.2344   23978002.2274
        36.5004         17.2504
 -11443587.56347  -8898266.44844  22859908.5004   22859899.1954
        42.5004         27.0004
 17  9 19  0 55 30.0000000  0 12G11G31G10G14G32G18G27G22G01G24G21G08
  -5104328.55046  -2696858.46243  23340468.3134   23340455.6684
        38.2504         21.0004
  -7716907.83646  -4475163.87842  23230550.0554   23230537.8204
        39.0004         17.2504
 -18433612.70748 -13301434.98946  21195848.9614   21195838.8364
        49.2504         39.2504
 -17787490.64947 -11994765.97346  20594616.9064   20594603.9104
        47.0004         37.5004
 -26990385.38048 -20421141.89947  20424002.3914   20423992.3244
        53.2504         43.7504
  -8893998.01547  -5985357.05944  22782120.5004   22782107.8554
        42.5004         25.7504
 -11739481.54846  -8789620.33544  23058197.8284   23058189.4024
        39.7504         26.0004
   -490923.182 6                  25151861.188
        36.000
  -3496307.30145  -2018645.06442  24616529.7974   24616521.0784
        35.0004         16.2504
   8988259.12046   6180726.86342  24701305.9694   24701297.2504
        36.0004         16.2504
  -6404154.31145  -4687248.09042  23996057.3364   23996048.8524
        35.0004         15.5004
 -11410161.46947  -8872220.15144  22866269.7584   22866260.5124
        42.7504         26.7504
 17  9 19  0 56  0.0000000  0 12G11G31G10G14G32G18G27G22G01G24G21G08
  -5190010.62146  -2763623.65743  23324162.9064   23324151.1994
        38.7504         20.0004
  -7822397.40146  -4557363.47043  23210476.3834   23210462.9184
        40.2504         19.5004
 -18404279.78748 -13278578.17746  21201430.6884   21201420.5044
        49.0004         38.2504
 -17807107.57747 -12010051.88146  20590883.7664   20590871.1214
        46.5004         38.0004
 -26979215.74948 -20412438.28947  20426127.9614   20426117.8364
        52.5004         43.2504
  -8843484.23047  -5945995.69044  22791733.0234   22791720.1454
        42.0004         26.5004
 -11657605.87946  -8725821.15844  23073778.0084   23073769.8754
        39.7504         25.2504
   -564514.640 6                  25137858.039
        36.250
  -3599655.96145  -2099176.44842  24596862.4534   24596855.3754
        35.7504         16.7504
   9067111.07946   6242169.92542  24716311.4144   24716302.7544
        37.5004         15.5004
  -6309106.33545  -4613184.80542  24014145.5704   24014136.0314
        35.2504         15.5004
 -11376267.74846  -8845809.48944  22872719.2344   22872709.9304
        41.2504         26.5004
 17  9 19  0 56 30.0000000  0 12G11G31G10G14G32G18G27G22G01G24G21G08
  -5275305.71746  -2830087.37242  23307931.7584   23307919.9924
        39.0004         17.7504
  -7927782.23446  -4639481.42743  23190420.3674   23190408.4264
        39.0004         19.7504
 -18374770.48748 -13255583.92146  21207045.7424   21207036.1454
        48.7504         39.0004
 -17826285.72947 -12024995.88346  20587233.9844   20587221.9264
        47.0004         38.0004
 -26967617.65648 -20403400.80947  20428334.8524   20428325.0204
        53.0004         43.5004
  -8792850.74146  -5906541.03744  22801367.6484   22801355.1804
        41.5004         25.0004
 -11575526.10746  -8661862.93143  23089398.0394   23089388.9694
        40.0004         23.7504
   -638128.723 5                  25123849.898
        35.750
  -3702932.65446  -2179651.74643  24577209.8674   24577202.6134
        36.7504         19.0004
   9146337.53546   6303904.87242  24731386.9774   24731378.9614
        37.0004         16.7504
  -6213850.49046  -4538959.48642  24032273.0784   24032263.4224
        37.2504         16.2504
 -11341909.68947  -8819036.98044  22879257.1644   22879247.9774
        43.0004         27.7504
 17  9 19  0 57  0.0000000  0 12G11G31G10G14G32G18G27G22G01G24G21G08
  -5360209.95446  -2896246.52143  23291775.1564   23291763.0984
        39.2504         19.5004
  -8033057.56046  -4721514.11243  23170387.9534   23170375.6024
        38.0004         21.0004
 -18345083.30948 -13232451.04246  21212695.2814   21212685.3914
        48.7504         39.0004
 -17845024.46847 -12039597.48746  20583668.4774   20583655.5394
        46.5004         38.2504
 -26955591.23148 -20394029.56447  20430623.7114   20430613.5274
        52.2504         44.0004
  -8742095.84346  -5866991.75944  22811026.9454   22811013.3054
        41.7504         24.7504
 -11493244.16746  -8597747.18544  23105055.8914   23105046.4104
        40.0004         26.0004
   -711764.444 5                  25109836.523
        33.000
  -3806133.93946  -2260068.29642  24557572.1884   24557563.4104
        37.0004         17.7504
   9225937.31146   6365930.67942  24746534.0164   24746526.4694
        37.0004         17.2504
  -6118387.42846  -4464572.74942  24050438.3914   24050429.3204
        36.2504         16.7504
 -11307088.12747  -8791903.32344  22885884.0004   22885874.8134
        43.5004         26.7504
 17  9 19  0 57 30.0000000  0 12G11G31G10G14G32G18G27G22G01G24G21G08
  -5444721.14546  -2962099.39543  23275694.2194   23275680.4614
        40.0004         18.5004
  -8138220.79046  -4803459.41743  23150377.6174   23150363.9774
        40.7504         19.0004
 -18315218.17948 -13209179.51746  21218378.6094   21218368.4844
        49.7504         38.7504
 -17863324.34047 -12053857.10746  20580186.3524   20580173.2974
        46.5004         38.2504
 -26943138.09148 -20384325.81447  20432993.1644   20432983.3324
        52.5004         43.7504
  -8691219.23546  -5827347.66644  22820707.9454   22820695.2424
        41.5004         26.0004
 -11410763.40346  -8533476.47944  23120751.5164   23120742.6804
        39.2504         25.2504
   -785422.390 5                  25095822.398
        34.000
  -3909257.86646  -2340424.56842  24537949.1254   24537939.2344
        36.5004         17.2504
   9305907.10645   6428244.79042  24761752.0634   24761744.2814
        34.2504         14.7504
  -6022719.12845  -4390026.06842  24068643.4614   24068634.6844
        35.2504         17.7504
 -11271805.61547  -8764410.47044  22892597.3594   22892588.5824
        42.5004         27.0004
 17  9 19  0 58  0.0000000  0 12G11G31G10G14G32G18G27G22G01G24G21G08
  -5528836.30946  -3027643.62343  23259687.0864   23259673.9734
        40.2504         19.7504
  -8243268.24846  -4885314.48243  23130386.0474   23130374.5744
        38.2504         20.2504
 -18285174.40648 -13185768.78746  21224095.9614   21224085.6604
        49.7504         39.0004
 -17881185.50547 -12067774.88346  20576786.5784   20576774.3444
        46.2504         38.0004
 -26930259.22648 -20374290.33147  20435443.8914   20435434.0004
        53.0004         43.2504
  -8640220.33146  -5787608.27644  22830412.1954   22830400.4884
        41.5004         25.2504
 -11328086.50546  -8469052.96544  23136484.0164   23136475.2384
        40.2504         25.0004
   -859102.146 5                  25081801.211
        35.000
  -4012301.70846  -2420718.42442  24518339.2974   24518330.2274
        36.5004         17.2504
   9386245.61245   6490846.17842  24777038.2584   24777033.2344
        34.7504         16.2504
  -5926846.85346  -4315320.48942  24086887.7344   24086878.3134
        36.0004         16.2504
 -11236063.45647  -8736559.45444  22899398.8594   22899389.8484
        42.7504         25.0004
 17  9 19  0 58 30.0000000  0 12G11G31G10G14G32G18G27G22G01G24G21G08
  -5612552.58546  -3092877.08443  23243756.4694   23243743.8244
        39.7504         19.2504
  -8348196.90546  -4967077.03143  23110418.5634   23110407.8524
        38.7504         18.2504
 -18254951.63648 -13162218.58446  21229847.0084   21229837.0004
        49.7504         39.0004
 -17898608.79847 -12081351.46746  20573471.1804   20573458.7704
        47.0004         38.0004
 -26916955.87148 -20363924.07347  20437975.6644   20437965.7154
        53.7504         43.5004
  -8589098.49046  -5747773.10244  22840140.7584   22840128.2304
        41.2504         25.5004
 -11245216.57646  -8404479.02944  23152254.1254   23152244.7624
        40.0004         24.5004
   -932803.390 5                  25067776.531
        35.500
  -4115263.22646  -2500948.24942  24498745.9774   24498737.7854
        36.5004         17.2504
   9466950.52546   6553733.16042  24792397.4384   24792390.4184
        36.0004         16.2504
  -5830772.56246  -4240457.47242  24105172.8134   24105160.4024
        37.2504         16.2504
 -11199863.65947  -8708351.83644  22906287.2424   22906278.5824
        42.0004         25.2504
 17  9 19  0 59  0.0000000  0 12G11G31G10G14G32G18G27G22G01G24G21G08
  -5695867.79146  -3157798.02243  23227902.3914   23227889.5124
        40.7504         19.5004
  -8453003.38346  -5048744.36043  23090474.4774   23090463.0634
        37.7504         19.2504
 -18224549.61348 -13138528.69946  21235632.1024   21235622.2114
        50.0004         39.2504
 -17915594.84547 -12094587.34246  20570238.9064   20570226.4384
        46.5004         37.7504
 -26903229.55548 -20353228.23147  20440587.6644   20440577.1884
        52.5004         44.0004
  -8537853.15446  -5707841.68844  22849892.0784   22849879.7274
        41.0004         24.2504
 -11162156.76146  -8339757.14644  23168059.1644   23168050.4454
        39.0004         24.0004
  -1006526.514 5                  25053746.367
        34.250
  -4218140.16345  -2581112.04142  24479167.1954   24479161.5234
        32.7504         15.5004
   9548019.10146   6616903.49242  24807825.1644   24807817.2074
        37.0004         17.2504
  -5734498.14646  -4165438.50042  24123491.7814   24123481.1294
        36.2504         16.7504
 -11163208.58447  -8679789.45344  22913263.2114   22913254.1994
        42.5004         25.5004
 17  9 19  0 59 30.0000000  0 12G11G31G10G14G32G18G27G22G01G24G21G08
  -5778778.60946  -3222403.81043  23212124.9144   23212111.9774
        40.2504         19.5004
  -8557683.98946  -5130313.59643  23070554.3674   23070543.3634
        38.7504         19.0004
 -18193967.78848 -13114698.70646  21241451.5554   21241441.7814
        49.7504         39.2504
 -17932143.71447 -12107482.55746  20567090.1484   20567077.5044
        46.5004         38.0004
 -26889081.39048 -20342203.67947  20443279.8914   20443269.9414
        52.7504         43.5004
  -8486483.44246  -5667813.36044  22859667.3674   22859655.6024
        40.2504         25.2504
 -11078909.90346  -8274889.51043  23183901.2274   23183892.6254
        40.5004         22.5004
  -1080271.107 6                  25039715.023
        36.500
  -4320930.06845  -2661208.03742  24459607.6024   24459600.2894
        33.5004         17.2504
   9629449.79946   6680356.02742  24823320.0234   24823312.9454
        37.0004         15.5004
  -5638024.89445  -4090264.58442  24141848.7274   24141838.7774
        35.7504         16.2504
 -11126099.96546  -8650873.68044  22920324.6094   22920315.4224
        41.5004         26.5004
 17  9 19  1  0  0.0000000  0 12G11G31G10G14G32G18G27G22G01G24G21G08
  -5861283.25346  -3286693.13243  23196423.9614   23196412.3134
        40.0004         20.0004
  -8662236.64446  -5211783.13143  23050657.8204   23050647.4024
        38.5004         19.0004
 -18163206.75848 -13090729.07546  21247305.4064   21247295.5744
        49.2504         39.5004
 -17948257.22247 -12120038.52046  20564023.2034   20564010.9104
        46.5004         38.0004
 -26874513.71348 -20330852.23847  20446052.0164   20446041.7734
        52.0004         43.0004
  -8434990.12146  -5627688.71844  22869466.5164   22869454.6334
        41.5004         25.5004
 -10995480.11346  -8209879.30344  23199775.8054   23199768.1414
        38.5004         24.0004
  -1154037.796 5                  25025675.648
        34.750
  -4423631.48545  -2741235.06842  24440063.0704   24440057.5164
        32.2504         16.7504
   9711239.05545   6744087.86842  24838883.7034   24838876.7424
        35.0004         15.5004
  -5541355.67246  -4014937.95342  24160245.7814   24160234.4844
        36.0004         16.2504
 -11088540.88647  -8621606.88644  22927471.5704   22927463.0274
        42.0004         25.5004
 17  9 19  1  0 30.0000000  0 12G11G31G10G14G32G18G27G22G01G24G21G08
  -5943378.20446  -3350663.24943  23180801.5314   23180789.7074
        39.7504         20.0004
  -8766657.23946  -5293149.73743  23030787.4924   23030776.8984
        39.0004         19.7504
 -18132265.26748 -13066618.83146  21253193.6334   21253183.4494
        49.7504         38.5004
 -17963934.57747 -12132254.62346  20561040.3444   20561027.5824
        46.7504         37.5004
 -26859526.96748 -20319174.24147  20448904.0084   20448893.7074
        53.0004         43.2504
  -8383371.87146  -5587466.70944  22879289.1644   22879276.0514
        41.0004         25.5004
 -10911869.49546  -8144728.22543  23215687.9924   23215678.4534
        40.0004         23.7504
  -1227826.042 5                  25011633.648
        34.500
  -4526241.23745  -2821190.71042  24420537.0394   24420531.0164
        34.5004         17.7504
   9793385.181 5                  24854515.875
        35.750
  -5444491.47346  -3939459.36942  24178677.7194   24178668.1804
        36.0004         15.5004
 -11050532.61246  -8591990.06444  22934704.1954   22934695.9454
        41.0004         24.5004
 17  9 19  1  1  0.0000000  0 12G11G31G10G14G32G18G27G22G01G24G21G08
  -6025061.36546  -3414312.40043  23165257.8984   23165245.8984
        40.2504         20.2504
  -8870943.06546  -5374411.35543  23010942.5864   23010932.0514
        40.7504         19.7504
 -18101143.47648 -13042368.08546  21259115.6884   21259105.9144
        50.0004         39.2504
 -17979177.00647 -12144131.83246  20558139.4694   20558127.0594
        46.5004         37.5004
 -26844123.06848 -20307171.20247  20451835.1724   20451824.9304
        52.7504         43.5004
  -8331628.72246  -5547147.38143  22889136.0314   22889122.8014
        41.0004         23.5004
 -10828081.63846  -8079439.03543  23231631.8524   23231622.6644
        39.5004         22.5004
  -1301635.886 5                  24997587.359
        33.250
  -4628757.47045  -2901073.47042  24401028.8284   24401022.8054
        34.7504         17.2504
   9875885.006 6                  24870214.672
        36.750
  -5347434.29446  -3863830.55942  24197147.5004   24197137.2584
        36.7504         16.7504
 -11012077.54147  -8562025.11344  22942022.9384   22942013.6914
        42.0004         25.7504
 17  9 19  1  1 30.0000000  0 12G11G31G10G14G32G18G27G22G01G24G21G08
  -6106330.05046  -3477638.67343  23149793.3444   23149779.9964
        41.7504         19.5004
  -8975090.58747  -5455565.20543  22991124.4534   22991112.9224
        42.0004         21.5004
 -18069841.09648 -13017976.62846  21265072.3524   21265062.4024
        48.5004         39.0004
 -17993985.45847 -12155670.87346  20555321.1414   20555309.3754
        46.0004         37.5004
 -26828303.55248 -20294844.29947  20454845.6334   20454835.2734
        53.2504         44.0004
  -8279760.04746  -5506730.25744  22899005.8364   22898992.9574
        40.5004         24.5004
 -10744119.80246  -8014014.25643  23247606.0784   23247600.3484
        39.5004         22.7504
                                  24983539.094
        35.000
  -4731177.96245  -2980881.66542  24381537.4064   24381533.6724
        32.5004         16.7504
   9958736.784 5                  24885980.219
        35.250
  -5250186.24446  -3788052.81242  24215652.9454   24215642.6454
        36.5004         14.7504
 -10973177.98946  -8531713.80744  22949424.4774   22949416.1684
        41.2504         24.5004
 17  9 19  1  2  0.0000000  0 12G11G31G10G14G32G18G27G22G01G24G21G08
  -6187183.52646  -3540641.34443  23134407.6334   23134394.5784
        41.7504         20.0004
  -9079098.65846  -5536610.38843  22971332.5474   22971320.1374
        41.0004         19.7504
 -18038359.57048 -12993445.57146  21271063.2114   21271053.0864
        49.5004         38.5004
 -18008362.34647 -12166873.63346  20552586.0164   20552573.3134
        46.7504         38.0004
 -26812071.56948 -20282195.98347  20457934.3594   20457924.4104
        52.5004         43.7504
  -8227766.79246  -5466216.04544  22908899.9224   22908887.2774
        40.2504         24.0004
 -10659988.73846  -7948457.63044  23263620.1724   23263610.4574
        38.2504         24.5004
    126096.784 5                  24969485.438
        34.250
  -4833502.18345  -3060614.76842  24362066.6094   24362061.8204
        34.5004         16.2504
  10041936.306 5                  24901812.086
        35.500
  -5152750.91246  -3712129.26242  24234194.6254   24234184.3834
        37.5004         17.2504
 -10933837.77147  -8501059.09944  22956910.9304   22956901.8594
        42.0004         25.5004
 17  9 19  1  2 30.0000000  0 12G11G31G10G14G32G18G27G22G01G24G21G08
  -6267616.99847  -3603316.75443  23119102.2114   23119088.5124
        42.2504         22.0004
  -9182961.28547  -5617542.23543  22951568.6094   22951555.0274
        42.0004         20.2504
 -18006696.20048 -12968772.82346  21277088.0944   21277078.4384
        49.2504         39.0004
 -18022305.74547 -12177738.60846  20549932.9694   20549920.3834
        47.0004         38.0004
 -26795426.21548 -20269225.57047  20461102.0784   20461091.7194
        53.2504         43.0004
  -8175646.80046  -5425603.09144  22918818.8284   22918806.5944
        40.7504         24.5004
 -10575689.27546  -7882769.77043  23279661.1414   23279652.5984
        40.5004         23.0004
     52220.07645    289508.13642  24955426.0864   24955413.4414
        34.7504         17.7504
  -4935725.40845  -3140269.16042  24342613.8834   24342608.6214
        34.7504         17.7504
  10125483.187 5                  24917711.719
        35.000
  -5055127.72446  -3636059.34542  24252772.6724   24252761.0234
        37.5004         15.5004
 -10894056.81546  -8470060.95744  22964480.9534   22964472.2934
        41.7504         25.0004
 17  9 19  1  3  0.0000000  0 12G11G31G10G14G32G18G27G22G01G24G21G08
  -6347628.94247  -3665663.68743  23103876.3054   23103862.3134
        42.0004         20.2504
  -9286676.88846  -5698359.55143  22931830.5554   22931819.0824
        39.0004         19.5004
 -17974851.63948 -12943958.87946  21283148.7504   21283138.0984
        50.0004         39.0004
 -18035817.54247 -12188267.26146  20547361.8364   20547348.8984
        46.2504         38.0004
 -26778369.95748 -20255934.98347  20464347.7034   20464337.2274
        53.0004         43.2504
  -8123401.07346  -5384892.15943  22928759.8674   22928747.7504
        40.7504         23.5004
 -10491225.47046  -7816953.87143  23295734.1884   23295724.2384
        39.0004         23.7504
    -21678.80155    231924.69052  24941363.7584   24941352.1094
        33.7504         16.2504
  -5037846.22446  -3219843.82142  24323181.6724   24323175.2384
        37.0004         17.7504
  10209374.007 6                  24933678.250
        36.500
  -4957319.78246  -3559845.43142  24271383.9924   24271373.7504
        38.0004         16.7504
 -10853838.47546  -8438722.02544  22972134.1094   22972125.2154
        41.0004         24.7504
 17  9 19  1  3 30.0000000  0 12G11G31G10G14G32G18G27G22G01G24G21G08
  -6427216.36146  -3727679.82743  23088731.8524   23088718.2704
        41.5004         22.0004
  -9390241.83546  -5779059.43843  22912122.8364   22912111.5394
        39.5004         21.2504
 -17942825.24548 -12919003.25346  21289242.7584   21289232.8094
        48.7504         39.0004
 -18048897.99047 -12198459.80646  20544871.8754   20544859.5824
        47.0004         37.7504
 -26760903.92948 -20242325.08047  20467671.2344   20467661.1094
        53.0004         43.0004
  -8071028.19446  -5344082.13643  22938726.2584   22938713.2034
        40.0004         22.7504
 -10406600.15146  -7751012.11343  23311837.8284   23311828.6994
        39.5004         22.2504
    -95599.58145    174324.14042  24927298.0394   24927284.6914
        35.0004         17.2504
  -5139862.09446  -3299336.66842  24303769.8204   24303762.3324
        38.7504         17.7504
  10293607.179 5                  24949703.953
        35.500
  -4859328.32846  -3483488.49542  24290031.8204   24290021.4024
        37.5004         16.2504
 -10813184.44946  -8407043.59044  22979871.1644   22979861.0394
        41.2504         24.0004
 17  9 19  1  4  0.0000000  0 12G11G31G10G14G32G18G27G22G01G24G21G08
  -6506377.10046  -3789363.50043  23073667.3984   23073654.8714
        41.5004         22.7504
  -9493652.86046  -5859639.34443  22892443.0784   22892433.6564
        39.0004         21.7504
 -17910616.93848 -12893905.88346  21295371.6484   21295361.4654
        49.2504         39.0004
 -18061548.33247 -12208317.20146  20542464.6484   20542452.1804
        47.2504         38.0004
 -26743029.87348 -20228397.23947  20471072.3984   20471062.3914
        53.0004         43.0004
  -8018527.95646  -5303172.87343  22948716.6024   22948703.5474
        39.2504         23.7504
 -10321816.68946  -7684947.10443  23327969.8444   23327961.4774
        39.7504         22.7504
   -169542.48645    116706.34143  24913226.0004   24913213.8244
        34.7504         19.0004
  -5241770.94946  -3378746.19343  24284377.4924   24284368.6564
        39.2504         18.5004
  10378179.535 6                  24965798.250
        38.750
  -4761155.64446  -3406990.37442  24308712.7424   24308702.4414
        37.5004         16.7504
 -10772097.08446  -8375027.49344  22987689.6804   22987680.6094
        41.5004         26.0004
 17  9 19  1  4 30.0000000  0 12G11G31G10G14G32G18G27G22G01G24G21G08
  -6585107.86446  -3850712.10843  23058684.6954   23058672.9304
        41.5004         22.5004
  -9596906.21146  -5940096.46143  22872794.2664   22872785.0204
        37.0004         20.5004
 -17878225.70347 -12868665.95646  21301535.4924   21301525.7774
        47.5004         39.0004
 -18073768.57847 -12217839.45946  20540139.6174   20540126.8554
        47.5004         38.0004
 -26724748.64348 -20214152.12447  20474551.2894   20474541.1054
        53.0004         43.2504
  -7965899.00946  -5262163.28743  22958731.5704   22958718.8094
        39.2504         22.5004
 -10236877.52146  -7618760.79243  23344133.7274   23344125.5944
        40.2504         22.7504
   -243506.78445     59071.92442  24899151.8444   24899139.4344
        34.2504         16.7504
  -5343569.78446  -3458069.88942  24265004.7344   24264997.5394
        38.5004         17.7504
  10463089.13146   6430589.09843  24981957.4614   24981947.8054
        39.5004         19.0004
  -4662802.88446  -3330351.90342  24327429.8984   24327418.0744
        36.7504         15.5004
 -10730578.32246  -8342675.24444  22995589.9774   22995581.3754
        41.5004         24.7504
 17  9 19  1  5  0.0000000  0 12G11G31G10G14G32G18G27G22G01G24G21G08
  -6663406.21046  -3911723.79943  23043785.0084   23043772.8324
        41.7504         21.7504
  -9699998.59946  -6020428.12043  22853176.6414   22853166.5164
        38.2504         19.5004
 -17845651.47748 -12843283.45246  21307734.1724   21307724.4574
        49.2504         39.2504
 -18085559.53147 -12227027.20346  20537896.3754   20537882.9104
        47.5004         38.5004
 -26706062.01148 -20199591.10847  20478107.7504   20478097.2734
        53.0004         43.0004
  -7913141.60646  -5221053.64043  22968770.5474   22968759.0164
        39.2504         22.5004
 -10151786.03546  -7552455.77443  23360327.0864   23360317.7234
        40.2504         22.2504
   -317492.76845      1420.52442  24885071.8054   24885059.8054
        33.7504         16.2504
  -5445256.32846  -3537306.14142  24245655.3134   24245646.1254
        40.0004         16.2504
  10548333.33246   6497013.17142  24998179.3984   24998169.5084
        37.5004         17.2504
  -4564272.24645  -3253574.83242  24346178.3594   24346168.6454
        35.5004         16.2504
 -10688630.70447  -8309988.80844  23003572.2114   23003563.8444
        42.0004         24.5004
 17  9 19  1  5 30.0000000  0 12G11G31G10G14G32G18G27G22G01G24G21G08
  -6741270.31646  -3972397.09343  23028967.7734   23028955.4224
        41.2504         21.7504
  -9802927.52146  -6100632.45643  22833592.1094   22833580.1094
        38.5004         21.5004
 -17812894.28948 -12817758.36846  21313967.3054   21313957.9414
        49.0004         39.2504
 -18096922.43647 -12235881.41046  20535733.5394   20535720.6024
        47.7504         38.2504
 -26686971.81548 -20184715.63447  20481739.6954   20481729.6884
        53.0004         43.2504
  -7860255.53546  -5179843.75343  22978834.2344   22978822.4104
        38.5004         21.5004
 -10066545.67646  -7486034.75144  23376548.4304   23376538.9494
        40.5004         24.5004
   -391500.57245    -56247.86342  24870989.0704   24870976.0744
        35.0004         17.2504
  -5546828.80746  -3616453.55042  24226327.4454   24226317.3794
        40.0004         17.2504
  10633909.37546   6563695.78042  25014463.1334   25014454.0044
        36.5004         16.2504
  -4465566.05645  -3176660.97042  24364960.8204   24364951.8094
        34.5004         13.7504
 -10646256.91346  -8276970.30144  23011635.9304   23011627.6214
        41.7504         25.5004
 17  9 19  1  6  0.0000000  0 12G11G31G10G14G32G18G27G22G01G24G21G08
  -6818697.77847  -4032730.17443  23014234.8674   23014221.5204
        42.0004         22.0004
  -9905690.00346  -6180707.02243  22814037.0234   22814024.9654
        40.7504         21.5004
 -17779954.13348 -12792090.72546  21320236.0864   21320226.4884
        48.7504         39.2504
 -18107858.66547 -12244403.13846  20533652.5314   20533639.3594
        47.0004         38.5004
 -26667479.97848 -20169527.17347  20485449.2814   20485439.3324
        52.2504         43.5004
  -7807240.79246  -5138533.57643  22988923.7274   22988910.1454
        38.7504         22.5004
  -9981159.95546  -7419500.46943  23392797.1724   23392787.2234
        40.0004         22.5004
   -465530.53345   -113933.52343  24856900.7424   24856888.2734
        34.5004         18.2504
  -5648285.02946  -3695510.33443  24207021.4454   24207010.7934
        41.0004         20.0004
  10719814.69046   6630635.06742  25030810.7894   25030802.4224
        37.0004         15.5004
  -4366686.450 5                  24383777.641
        35.750
 -10603459.38846  -8243621.58844  23019779.7814   23019771.2384
        41.5004         26.0004
 17  9 19  1  6 30.0000000  0 12G11G31G10G14G32G18G27G22G01G24G21G08
  -6895685.59446  -4092720.66843  22999583.3054   22999571.0704
        40.2504         21.5004
 -10008281.98046  -6260648.76343  22794514.2974   22794502.5904
        39.7504         20.5004
 -17746830.15148 -12766279.82746  21326539.7034   21326529.2854
        49.0004         39.2504
 -18118368.06447 -12252592.27946  20531652.8204   20531639.8834
        47.0004         38.5004
 -26647587.44848 -20154026.50847  20489234.2664   20489224.4344
        52.0004         43.2504
  -7754096.13146  -5097122.15743  22999035.4694   22999022.7074
        38.2504         22.5004
  -9895631.47946  -7352854.96043  23409072.4694   23409062.6954
        39.7504         22.7504
   -539582.23245   -171636.06642  24842809.2584   24842796.9654
        34.5004         17.2504
  -5749622.27046  -3774474.35542  24187736.6024   24187727.7074
        37.0004         17.2504
  10806047.00746   6697829.04643  25047219.5944   25047211.6954
        36.7504         18.5004
  -4267634.994 5                  24402627.141
        35.750
 -10560239.92446  -8209944.12043  23028004.6414   23027995.5704
        41.5004         23.5004
 17  9 19  1  7  0.0000000  0 12G11G31G10G14G32G18G27G22G01G24G21G08
  -6972231.12446  -4152366.49743  22985018.6644   22985005.1414
        41.7504         23.7504
 -10110700.26146  -6340455.14043  22775024.4384   22775012.7894
        38.7504         22.0004
 -17713521.81948 -12740325.29146  21332877.8134   21332867.6294
        50.0004         39.2504
 -18128451.19347 -12260449.25546  20529733.9844   20529721.1644
        47.5004         38.0004
 -26627295.63348 -20138214.70447  20493096.0704   20493085.9454
        52.0004         42.7504
  -7700821.29446  -5055609.33043  23009174.2734   23009161.1024
        39.2504         22.2504
  -9809963.07446  -7286100.39543  23425373.6334   23425364.5634
        39.7504         22.0004
   -613655.36545   -229355.31543  24828713.8674   24828700.8714
        35.0004         18.5004
  -5850837.84646  -3853343.57042  24168475.2504   24168467.2934
        36.2504         17.2504
  10892603.87146   6765275.91243  25063690.7894   25063682.7734
        37.5004         19.5004
  -4168413.070 6                  24421508.969
        36.000
 -10516601.01847  -8175939.78444  23036308.9844   23036299.9734
        42.0004         25.7504
 17  9 19  1  7 30.0000000  0 12G11G31G10G14G32G18G27G22G01G24G21G08
  -7048331.51347  -4211665.46943  22970537.0394   22970523.2234
        42.0004         22.7504
 -10212941.35146  -6420123.44643  22755568.1414   22755556.9614
        39.5004         22.2504
 -17680028.44048 -12714226.55646  21339251.5554   21339241.3134
        50.0004         38.2504
 -18138108.95547 -12267974.76846  20527896.0864   20527883.3244
        47.0004         38.5004
 -26606605.76348 -20122092.71647  20497033.0864   20497023.0204
        51.7504         43.2504
  -7647415.10746  -5013994.14443  23019337.4144   23019325.2384
        39.5004         22.5004
  -9724157.61946  -7219239.05643  23441702.8524   23441692.8444
        40.2504         22.7504
   -687749.39045   -287090.81343  24814614.5004   24814601.5044
        35.7504         18.5004
  -5951929.13146  -3932115.90242  24149239.9224   24149230.4414
        36.5004         17.2504
  10979483.23946   6832974.14842  25080223.2274   25080214.9774
        36.5004         17.2504
  -4069022.553 5                  24440422.336
        35.500
 -10472544.22847  -8141609.86044  23044692.8834   23044683.6954
        42.2504         25.0004
 17  9 19  1  8  0.0000000  0 12G11G31G10G14G32G18G27G22G01G24G21G08
  -7123985.19146  -4270616.37543  22956140.2344   22956127.1804
        41.2504         22.5004
 -10315003.09246  -6499652.01043  22736145.3984   22736134.7464
        39.2504         22.7504
 -17646350.75048 -12687984.20846  21345660.1724   21345650.1644
        50.5004         38.5004
 -18147342.97547 -12275170.09846  20526138.4064   20526126.4064
        46.5004         38.7504
 -26585520.41348 -20105662.58047  20501045.3594   20501035.7624
        51.7504         43.5004
  -7593878.44846  -4972277.27943  23029525.7274   23029514.0204
        39.7504         22.7504
  -9638219.23646  -7152274.13344  23458055.8914   23458046.6454
        39.5004         24.5004
   -761865.27346   -344843.41143  24800511.2034   24800497.3874
        37.0004         18.2504
  -6052894.68246  -4010790.39142  24130025.7974   24130017.4884
        36.2504         16.2504
  11066682.01946   6900921.24942  25096817.0784   25096808.7114
        37.5004         17.2504
  -3969466.361 5                  24459366.195
        34.500
 -10428073.48747  -8106957.35944  23053155.2034   23053146.4264
        42.7504         24.5004
 17  9 19  1  8 30.0000000  0 12G11G31G10G14G32G18G27G22G01G24G21G08
  -7199189.77846  -4329217.32443  22941828.6644   22941816.5474
        41.0004         22.5004
 -10416881.77246  -6579037.96243  22716759.0474   22716747.3404
        39.0004         20.7504
 -17612488.15948 -12661597.76746  21352104.2424   21352093.6484
        49.7504         39.2504
 -18156153.89247 -12282035.73446  20524461.7814   20524449.5474
        46.5004         38.5004
 -26564040.92948 -20088925.31647  20505133.2894   20505123.1054
        52.5004         43.0004
  -7540210.88946  -4930458.41543  23039736.2814   23039724.2234
        41.0004         22.5004
  -9552150.83946  -7085207.88643  23474434.0864   23474424.9574
        39.5004         22.5004
   -836002.88546   -402612.90542  24786404.1644   24786389.4694
        37.5004         16.2504
  -6153731.98746  -4089364.89842  24110838.2504   24110827.9494
        37.5004         16.7504
  11154197.40446   6969115.04542  25113470.2344   25113461.3984
        38.2504         16.7504
  -3869746.141 5                  24478342.523
        34.000
 -10383190.55246  -8071983.65644  23061695.7664   23061687.1054
        41.7504         25.2504
 17  9 19  1  9  0.0000000  0 12G11G31G10G14G32G18G27G22G01G24G21G08
  -7273941.96046  -4387465.76943  22927604.4454   22927591.5664
        41.7504         22.7504
 -10518573.61846  -6658278.25443  22697407.7034   22697396.1724
        40.0004         22.5004
 -17578439.59548 -12635066.41746  21358583.3594   21358573.2344
        50.0004         38.5004
 -18164542.09947 -12288571.98246  20522865.9304   20522853.5204
        46.0004         38.5004
 -26542168.15748 -20071881.58247  20509295.1334   20509284.6564
        52.2504         42.7504
  -7486410.89946  -4888536.35943  23049977.3594   23049962.4304
        41.5004         22.0004
  -9465954.74946  -7018042.17543  23490835.6724   23490827.2464
        39.0004         23.0004
   -910161.40645   -460398.73942  24772289.7664   24772277.8244
        34.2504         15.5004
  -6254437.80945  -4167836.96242  24091674.0084   24091663.6484
        35.0004         17.7504
  11242027.34546   7037554.00243  25130183.1334   25130174.5904
        38.5004         18.5004
  -3769863.196 5                  24497350.109
        34.000
 -10337897.18446  -8036690.13944  23070314.2274   23070305.9774
        41.5004         24.5004
 17  9 19  1  9 30.0000000  0 12G11G31G10G14G32G18G27G22G01G24G21G08
  -7348240.07646  -4445360.40643  22913464.9224   22913453.2734
        39.5004         22.2504
 -10620076.12347  -6737371.06443  22678094.4844   22678081.1374
        42.5004         23.0004
 -17544205.43048 -12608390.45146  21365097.8134   21365088.0394
        50.0004         39.0004
 -18172509.06547 -12294779.99346  20521349.9224   20521337.0434
        46.5004         39.0004
 -26519904.47248 -20054533.25747  20513531.5314   20513521.8754
        52.2504         43.0004
  -7432478.95346  -4846511.47443  23060235.6094   23060225.1914
        40.7504         22.0004
  -9379634.90046  -6950779.98543  23507262.1484   23507253.9574
        39.0004         23.7504
   -984341.59745   -518201.46642  24758174.5394   24758162.4804
        34.7504         16.2504
  -6355010.64845  -4246205.35342  24072533.2584   24072525.6524
        34.5004         16.7504
  11330169.33545   7106236.07042  25146956.9064   25146947.4264
        35.2504         17.7504
  -3669820.218 5                  24516387.836
        33.250
 -10292196.69347  -8001079.40144  23079011.9064   23079002.5434
        42.7504         26.2504
 17  9 19  1 10  0.0000000  0 12G11G31G10G14G32G18G27G22G01G24G21G08
  -7422080.95246  -4502898.74743  22899414.3134   22899401.5514
        40.7504         22.0004
 -10721385.21646  -6816313.13643  22658814.0394   22658802.5664
        41.0004         23.5004
 -17509784.45348 -12581568.91546  21371647.7424   21371637.6174
        50.0004         39.0004
 -18180054.76447 -12300659.75946  20519913.6174   20519901.3834
        46.2504         38.7504
 -26497250.54748 -20036880.83747  20517842.6484   20517832.5824
        52.0004         42.7504
  -7378413.87246  -4804382.89043  23070529.2504   23070514.2034
        40.0004         20.2504
  -9293193.46046  -6883423.08143  23523712.5004   23523703.3714
        37.7504         23.2504
  -1058542.28845   -576020.13542  24744054.6094   24744043.0204
        33.0004         14.7504
  -6455447.02646  -4324467.39042  24053422.9454   24053413.6414
        36.0004         17.7504
  11418621.44045   7175159.84542  25163788.1254   25163779.5234
        35.7504         17.2504
  -3569618.243 5                  24535456.039
        33.750
 -10246090.49747  -7965152.51144  23087785.2734   23087776.7304
        42.0004         24.2504
 17  9 19  1 10 30.0000000  0 12G11G31G10G14G32G18G27G22G01G24G21G08
  -7495462.58446  -4560079.22943  22885449.7034   22885437.3524
        40.7504         22.0004
 -10822497.87046  -6895102.17043  22639572.0784   22639561.4264
        41.0004         22.5004
 -17475176.91448 -12554602.00946  21378233.5864   21378223.1684
        50.7504         38.5004
 -18187180.80847 -12306212.50546  20518557.4224   20518544.9534
        46.2504         38.7504
 -26474208.59348 -20018926.06747  20522227.6414   20522217.3984
        52.2504         43.0004
  -7324215.70546  -4762150.55843  23080837.9534   23080827.5354
        40.0004         21.0004
  -9206634.11346  -6815974.28443  23540184.4844   23540175.0044
        38.7504         22.2504
  -1132764.25145   -633855.29942  24729929.3674   24729919.7704
        31.7504         14.7504
  -6555745.18746  -4402621.76343  24034336.2814   24034327.3874
        36.5004         19.2504
  11507380.60546   7244322.79542  25180679.0004   25180669.3444
        36.7504         17.7504
  -3469259.712 5                  24554550.633
        32.750
 -10199581.72547  -7928911.93044  23096635.4454   23096626.9024
        42.0004         25.7504
 17  9 19  1 11  0.0000000  0 12G11G31G10G14G32G18G27G22G01G24G21G08
  -7568383.26146  -4616900.51143  22871573.7664   22871560.4774
        41.5004         21.7504
 -10923411.37847  -6973736.00544  22620369.0234   22620358.6054
        42.0004         24.5004
 -17440382.77048 -12527489.69846  21384854.7194   21384844.3014
        49.5004         39.0004
 -18193888.21847 -12311439.04846  20517281.6254   20517268.5704
        47.2504         38.2504
 -26450780.52048 -20000670.43047  20526685.8444   20526675.4264
        52.2504         43.2504
  -7269884.04847  -4719814.21243  23091180.4614   23091166.4694
        42.0004         21.7504
  -9119960.37446  -6748436.36243  23556678.2274   23556668.5124
        38.5004         22.5004
  -1207007.386 5                  24715803.188
        33.250
  -6655903.08246  -4480666.80942  24015276.5784   24015266.9804
        36.7504         16.7504
  11596443.79245   7313722.70243  25197626.5704   25197618.2034
        34.0004         18.5004
  -3368747.000 5                  24573680.273
        33.500
 -10152673.19046  -7892359.84544  23105561.9454   23105553.3444
        41.5004         25.0004
 17  9 19  1 11 30.0000000  0 12G11G31G10G14G32G18G27G22G01G24G21G08
  -7640840.26746  -4673360.51543  22857784.7424   22857772.2734
        41.0004         22.0004
 -11024122.76747  -7052212.36743  22601204.0784   22601193.4264
        42.2504         23.2504
 -17405401.67448 -12500231.69846  21391510.8444   21391500.9534
        50.0004         39.0004
 -18200177.98048 -12316340.15746  20516084.3364   20516071.1644
        48.0004         38.5004
 -26426967.98348 -19982115.19847  20531217.0634   20531206.9964
        52.5004         42.5004
  -7215418.98346  -4677373.92543  23101544.4304   23101531.7274
        41.2504         22.2504
  -9033175.27446  -6680811.67543  23573192.2504   23573183.4144
        37.5004         22.7504
  -1281271.702 5                  24701671.102
        33.500
  -6755918.18246  -4558600.67943  23996245.0164   23996233.9534
        36.7504         18.2504
  11685808.65645   7383357.67542  25214631.8984   25214624.2934
        32.7504         16.2504
  -3268082.150 5                  24592836.742
        34.500
 -10105367.30046  -7855498.13144  23114563.3284   23114555.6054
        41.0004         25.0004
 17  9 19  1 12  0.0000000  0 12G11G31G10G14G32G18G27G22G01G24G21G08
  -7712830.96546  -4729457.16143  22844086.2584   22844073.0864
        41.5004         23.0004
 -11124628.32447  -7130528.31143  22582079.7114   22582067.7704
        43.0004         22.7504
 -17370232.94148 -12472827.48846  21398203.2584   21398193.7774
        49.7504         39.0004
 -18206050.74847 -12320916.32846  20514967.2664   20514954.6804
        47.2504         39.0004
 -26402772.26248 -19963261.39147  20535821.3524   20535811.4614
        52.5004         43.2504
  -7160819.39446  -4634828.83543  23111934.3984   23111920.3484
        40.5004         20.5004
  -8946281.55246  -6613102.31943  23589728.1254   23589718.5274
        38.0004         22.2504
  -1355556.961 5                  24687534.773
        33.500
  -6855787.79146  -4636421.14243  23977238.5704   23977230.2624
        36.2504         19.2504
  11775472.50445   7453225.69342  25231694.8754   25231686.9184
        33.5004         16.2504
  -3167266.763 5                  24612020.648
        34.500
 -10057666.51046  -7818328.69444  23123640.8834   23123632.5744
        41.2504         25.0004
 17  9 19  1 12 30.0000000  0 12G11G31G10G14G32G18G27G22G01G24G21G08
  -7784352.53246  -4785188.20343  22830475.7344   22830463.0314
        41.7504         22.5004
 -11224924.49047  -7208681.12743  22562994.6174   22562981.6804
        43.0004         23.7504
 -17334875.67248 -12445276.38546  21404931.9454   21404921.9964
        50.2504         38.7504
 -18211507.12147 -12325168.04846  20513927.8674   20513915.2814
        47.7504         38.7504
 -26378194.46448 -19944109.85547  20540498.9304   20540488.0434
        52.2504         43.5004
  -7106084.27546  -4592178.07943  23122349.4694   23122337.4694
        39.7504         21.0004
  -8859281.86746  -6545310.39343  23606282.8524   23606274.1334
        36.7504         22.2504
  -1429862.442 5                  24673394.266
        34.250
  -6955508.99046  -4714125.87243  23958264.0164   23958254.9454
        37.2504         19.2504
  27619633.75045  19799325.33842  25248813.5234   25248806.3874
        33.7504         16.7504
  -3066302.641 5                  24631232.414
        34.500
 -10009572.41847  -7780852.82844  23132792.9384   23132784.2194
        42.0004         24.0004
 17  9 19  1 13  0.0000000  0 12G11G31G10G14G32G18G27G22G01G24G21G08
  -7855403.44247  -4840552.54144  22816955.0864   22816943.1454
        42.0004         24.0004
 -11325008.20347  -7286668.35743  22543948.1954   22543936.2544
        42.5004         23.2504
 -17299330.61848 -12417578.94446  21411695.3364   21411685.8554
        50.0004         39.0004
 -18216548.89647 -12329096.69746  20512970.2974   20512955.4844
        47.0004         38.7504
 -26353237.35748 -19924662.75647  20545247.2974   20545237.4654
        52.0004         43.5004
  -7051214.82046  -4549422.68543  23132789.8594   23132776.5124
        39.0004         20.2504
  -8772180.35746  -6477439.15343  23622857.7894   23622848.9534
        37.0004         22.5004
  -1504188.936 6                  24659251.867
        36.750
  -7055080.31846  -4791713.86943  23939315.6254   23939307.1414
        36.7504         19.7504
  27709888.47645  19869653.70142  25265989.6094   25265981.3594
        32.7504         16.2504
  -2965192.331 5                  24650471.328
        33.250
  -9961088.67746  -7743073.31744  23142018.9844   23142010.7934
        41.2504         25.0004
 17  9 19  1 13 30.0000000  0 12G11G31G10G14G32G18G27G22G01G24G21G08
  -7925981.12147  -4895548.13243  22803524.6024   22803512.6024
        42.0004         23.0004
 -11424876.66547  -7364487.85744  22524943.5394   22524932.3594
        42.5004         24.0004
 -17263596.97048 -12389734.54746  21418496.1174   21418485.9924
        50.0004         38.7504
 -18221176.69047 -12332702.76046  20512089.1174   20512075.3014
        46.2504         38.7504
 -26327902.07848 -19904920.96647  20550068.6954   20550058.7464
        52.2504         43.0004
  -6996209.93446  -4506561.75943  23143257.8444   23143244.4384
        39.5004         21.5004
  -8684979.76946  -6409490.66943  23639451.4304   23639442.7114
        37.5004         22.0004
  -1578535.78646   -943519.47152  24645103.1954   24645087.4454
        37.2504         16.7504
  -7154498.95146  -4869182.91143  23920396.9144   23920388.3714
        37.5004         18.5004
  27800435.15645  19940209.54242  25283221.4304   25283212.2424
        34.2504         16.7504
  -2863937.576 5                  24669740.727
        34.000
  -9912217.40847  -7704991.82644  23151318.9144   23151310.3134
        42.0004         24.0004
 17  9 19  1 14  0.0000000  0 12G11G31G10G14G32G18G27G22G01G24G21G08
  -7996083.20347  -4950173.13843  22790185.4224   22790172.7194
        42.7504         22.7504
 -11524526.31646  -7442136.86044  22505979.6414   22505968.9304
        41.2504         26.0004
 -17227674.18348 -12361742.77546  21425331.0394   21425321.6174
        50.0004         38.0004
 -18225391.21847 -12335986.79946  20511286.5554   20511273.6764
        46.2504         38.2504
 -26302190.12348 -19884885.67247  20554961.6644   20554951.4224
        51.5004         42.7504
  -6941068.85046  -4463594.68443  23153750.1254   23153737.5984
        39.0004         21.0004
  -8597682.82046  -6341467.11843  23656062.9534   23656055.2304
        37.0004         23.0004
  -1652902.90746  -1001467.85642  24630951.1954   24630936.7934
        37.5004         16.2504
  -7253762.28845  -4946530.91843  23901506.6334   23901499.4964
        35.2504         19.2504
  27891270.60045  20010990.43942  25300505.1724   25300496.7464
        34.2504         17.2504
  -2762540.147 5                  24689037.773
        34.000
  -9862961.08047  -7666610.27644  23160692.9064   23160683.0164
        42.0004         25.5004
 17  9 19  1 14 30.0000000  0 12G11G31G10G14G32G18G27G22G01G24G21G08
  -8065707.79246  -5004426.02744  22776936.4224   22776923.6024
        41.7504         24.7504
 -11623953.92447  -7519612.85544  22487060.6414   22487048.8164
        43.5004         24.5004
 -17191562.40748 -12333603.72446  21432203.4384   21432193.2544
        50.0004         38.2504
 -18229194.14847 -12338950.10146  20510562.7194   20510550.3094
        44.5004         39.0004
 -26276103.68348 -19864558.57847  20559925.9774   20559915.9104
        51.7504         43.2504
  -6885791.78946  -4420521.66743  23164269.6644   23164257.0784
        37.7504         20.7504
  -8510293.18346  -6273371.35143  23672694.2344   23672684.6954
        37.7504         23.7504
  -1727290.66646  -1059432.26742  24616796.8834   24616782.2464
        37.0004         17.2504
  -7352868.28645  -5023756.31442  23882647.9924   23882639.9774
        35.2504         17.7504
  27982392.27545  20081994.35442  25317846.0704   25317836.5314
        35.0004         16.7504
  -2661002.499 5                  24708361.063
        34.750
  -9813322.92946  -7627931.20444  23170138.7114   23170129.3484
        41.7504         24.5004
 17  9 19  1 15  0.0000000  0 12G11G31G10G14G32G18G27G22G01G24G21G08
  -8134851.78447  -5058304.46744  22763778.7504   22763765.1684
        42.5004         24.2504
 -11723156.03147  -7596913.15344  22468183.1724   22468171.2304
        43.2504         25.2504
 -17155260.35348 -12305316.42346  21439111.3914   21439101.7344
        49.7504         38.5004
 -18232585.69047 -12341592.85246  20509917.5234   20509904.7034
        45.7504         39.2504
 -26249643.49248 -19843940.24647  20564960.7504   20564950.8594
        51.0004         43.2504
  -6830377.54046  -4377341.75543  23174814.8594   23174802.1564
        39.2504         22.0004
  -8422813.03846  -6205205.08343  23689340.2974   23689331.2854
        38.7504         22.7504
  -1801698.12646  -1117412.10742  24602636.6334   24602623.5784
        36.0004         17.2504
  -7451813.55646  -5100856.49843  23863819.3674   23863811.1764
        36.2504         18.2504
  28073798.43745  20153219.94842  25335237.5474   25335230.7624
        33.5004         16.7504
  -2559326.174 5                  24727709.086
        33.500
  -9763304.18947  -7588955.58844  23179656.6954   23179647.9184
        42.0004         24.7504
 17  9 19  1 15 30.0000000  0 12G11G31G10G14G32G18G27G22G01G24G21G08
  -8203513.42647  -5111807.01144  22750712.8914   22750699.8954
        42.5004         24.0004
 -11822129.88147  -7674035.59244  22449349.3754   22449336.0864
        43.0004         26.0004
 -17118768.25748 -12276881.03146  21446055.7344   21446045.6684
        49.5004         38.7504
 -18235567.59247 -12343916.39946  20509350.1024   20509337.3404
        44.7504         38.7504
 -26222811.80148 -19823032.44047  20570066.7504   20570056.6844
        51.5004         42.7504
  -6774826.15646  -4334054.97943  23185385.9924   23185372.4694
        38.5004         22.0004
  -8335246.09346  -6136971.14043  23706004.2734   23705995.1454
        38.5004         22.5004
  -1876125.69146  -1175407.57342  24588473.2734   24588460.3364
        36.5004         17.2504
  -7550596.26846  -5177829.99143  23845021.0084   23845013.6374
        37.0004         19.0004
  28165486.40145  20224665.11842  25352685.9144   25352678.7774
        33.7504         13.7504
  -2457513.366 5                  24747084.195
        32.500
  -9712908.57946  -7549686.31144  23189246.4924   23189238.1254
        41.2504         26.0004
 17  9 19  1 16  0.0000000  0 12G11G31G10G14G32G18G27G22G01G24G21G08
  -8271690.46346  -5164931.96544  22737739.1334   22737725.2584
        41.7504         24.0004
 -11920871.92047  -7750977.38744  22430559.0164   22430546.6054
        43.0004         25.0004
 -17082085.61148 -12248297.14846  21453036.6094   21453026.3674
        49.7504         38.2504
 -18238140.47147 -12345921.21946  20508860.7814   20508847.9614
        45.0004         39.0004
 -26195610.14648 -19801836.34147  20575243.1024   20575233.1524
        51.7504         43.5004
  -6719137.08546  -4290660.90843  23195983.0474   23195970.2854
        40.0004         22.7504
  -8247595.28746  -6068671.86943  23722682.6884   23722674.2034
        38.7504         22.0004
  -1950572.91346  -1233418.39542  24574306.6724   24574293.7344
        36.2504         17.2504
  -7649213.77246  -5254674.80543  23826254.9774   23826246.9614
        36.5004         18.5004
  28257453.049 6                  25370187.133
        36.000
  -2355566.055 5                  24766483.781
        31.750
  -9662137.93446  -7510124.80844  23198907.9384   23198898.8674
        40.2504         24.0004
 17  9 19  1 16 30.0000000  0 12G11G31G10G14G32G18G27G22G01G24G21G08
  -8339377.62147  -5217675.17044  22724858.9384   22724844.9454
        42.7504         24.5004
 -12019376.36647  -7827734.04944  22411814.3204   22411802.6724
        43.5004         26.7504
 -17045209.26848 -12219562.35246  21460053.5704   21460043.6214
        49.0004         39.2504
 -18240302.45247 -12347605.86446  20508448.8524   20508435.9734
        46.5004         38.5004
 -26168037.39948 -19780351.07547  20580489.7114   20580479.6454
        51.5004         43.2504
  -6663307.04046  -4247156.99743  23206606.6414   23206594.1724
        38.5004         22.5004
  -8159860.79446  -6000307.37043  23739377.6804   23739369.8404
        37.7504         21.0004
  -2025037.04846  -1291442.34743  24560137.5234   24560123.5314
        37.0004         18.2504
  -7747660.78845  -5331386.68243  23807520.9694   23807513.1884
        35.2504         19.5004
  28349698.734 6                  25387741.102
        37.000
  59187896.59314                  24785906.734
        28.250
  -9610992.37346  -7470271.15444  23208640.6024   23208631.5904
        40.0004         24.0004
 17  9 19  1 17  0.0000000  0 12G11G31G10G14G32G18G27G22G01G24G21G08
  -8406578.70446  -5270039.63143  22712069.8204   22712057.2344
        41.5004         22.7504
 -12117645.39447  -7904307.25944  22393113.7274   22393102.1954
        43.5004         26.7504
 -17008144.65948 -12190680.83746  21467106.5234   21467097.1604
        49.7504         38.5004
 -18242060.73747 -12348975.95046  20508114.4454   20508101.4494
        46.5004         38.7504
 -26140101.14348 -19758582.56347  20585806.0004   20585795.7584
        50.7504         42.2504
  -6607341.69746  -4203547.67343  23217257.3984   23217244.8134
        37.7504         21.5004
  -8072051.62346  -5931884.69943  23756087.5864   23756079.3364
        38.7504         21.5004
  -2099523.73046  -1349483.87143  24545962.3284   24545948.8634
        37.2504         19.0004
  -7845940.66745  -5407968.38842  23788817.6334   23788811.3754
        33.5004         17.7504
  28442214.885 6                  25405346.492
        37.500
                                  24805357.719
        28.000
  -9559480.43646  -7430132.01443  23218443.5004   23218434.1374
        41.0004         23.0004
 17  9 19  1 17 30.0000000  0 12G11G31G10G14G32G18G27G22G01G24G21G08
  -8473288.11647  -5322020.95543  22699375.9614   22699363.1414
        42.2504         22.7504
 -12215672.71947  -7980692.14044  22374459.7814   22374448.0744
        43.7504         26.0004
 -16970888.17648 -12161649.82246  21474196.5474   21474186.7734
        49.5004         38.0004
 -18243412.73047 -12350029.43846  20507856.7974   20507844.2704
        46.0004         38.7504
 -26111799.81748 -19736529.56947  20591191.9924   20591181.4574
        51.2504         43.0004
  -6551237.32846  -4159829.99643  23227933.3834   23227920.4454
        38.2504         22.0004
  -7984167.58446  -5863403.67943  23772812.6564   23772803.3524
        39.7504         22.0004
  -2174029.51146  -1407540.25743  24531784.1724   24531770.2974
        37.2504         18.5004
  -7944047.81345  -5484415.48043  23770148.4304   23770142.6414
        34.7504         19.2504
  28535001.984 5                  25423004.156
        35.000
                                  24824830.727
        28.750
  -9507601.38546  -7389706.79943  23228314.7584   23228306.6254
        39.5004         22.2504
 17  9 19  1 18  0.0000000  0 11G11G31G10G14G32G18G27G22G01G24G08
  -8539499.66047  -5373614.35844  22686777.0394   22686763.1644
        42.2504         24.0004
 -12313450.81147  -8056882.80744  22355854.5164   22355842.2814
        44.5004         26.7504
 -16933435.42448 -12132465.85946  21481323.2584   21481313.4844
        49.2504         38.2504
 -18244355.92947 -12350764.38746  20507677.3054   20507664.6024
        46.0004         38.5004
 -26083130.99148 -19714190.22547  20596646.8834   20596637.2854
        51.2504         42.7504
  -6494989.46546  -4116000.50943  23238637.4614   23238623.8794
        37.2504         22.2504
  -7896207.63046  -5794863.49743  23789551.2274   23789542.3914
        40.2504         21.5004
  -2248550.32046  -1465608.39642  24517604.3914   24517589.7544
        39.0004         17.2504
  -8041975.30045  -5560722.63242  23751513.1954   23751507.3484
        33.7504         17.2504
  28628062.442 5                  25440713.703
        32.000
  -9455354.22646  -7348994.75843  23238258.0554   23238249.2194
        40.7504         22.2504
 17  9 19  1 18 30.0000000  0 11G11G31G10G14G32G18G27G22G01G24G08
  -8605211.60646  -5424818.44944  22674270.2424   22674258.8874
        40.7504         24.5004
 -12410977.31447  -8132877.42644  22337295.5554   22337283.3204
        44.0004         27.7504
 -16895786.37248 -12103128.93746  21488487.7814   21488477.8324
        49.5004         38.0004
 -18244891.54047 -12351181.74546  20507575.9144   20507563.2114
        47.0004         39.0004
 -26054096.86148 -19691566.23047  20602172.2194   20602161.8594
        52.5004         42.7504
  -6438598.36746  -4072059.39943  23249368.7664   23249354.7734
        38.7504         22.2504
  -7808175.24346  -5726266.88043  23806303.1334   23806293.3594
        38.2504         21.5004
  -2323086.30346  -1523688.36843  24503419.8834   24503406.5354
        38.5004         18.5004
  -8139721.42045  -5636888.40742  23732914.0634   23732906.3984
        35.7504         17.7504
  28721393.129 4                  25458472.547
        27.250
  -9402741.66546  -7307997.96443  23248269.9384   23248261.2774
        40.7504         22.2504
 17  9 19  1 19  0.0000000  0 10G11G31G10G14G32G18G27G22G01G08
  -8670433.41046  -5475640.61844  22661859.0864   22661846.8524
        41.0004         24.5004
 -12508260.42447  -8208682.39644  22318781.7894   22318770.4924
        43.5004         27.5004
 -16857952.41748 -12073647.94446  21495687.1414   21495677.1334
        49.0004         38.0004
 -18245032.67547 -12351291.70746  20507548.8674   20507536.2814
        46.7504         38.7504
 -26024710.78448 -19668667.98447  20607763.9614   20607753.7194
        51.7504         42.0004
  -6382075.03446  -4028015.24543  23260123.9224   23260111.3364
        39.0004         22.7504
  -7720085.19846  -5657625.33443  23823065.4384   23823056.3674
        38.0004         21.5004
  -2397648.60646  -1581788.81443  24489231.3524   24489217.3594
        38.5004         18.2504
  -8237295.16445  -5712919.88943  23714346.0864   23714338.9494
        35.5004         18.5004
  -9349777.87546  -7266727.50644  23258348.5554   23258339.2504
        41.2504         25.5004
 17  9 19  1 19 30.0000000  0 10G11G31G10G14G32G18G27G22G01G08
  -8735155.26146  -5526073.21443  22649543.7584   22649531.2894
        40.5004         23.2504
 -12605289.20447  -8284289.19144  22300318.2034   22300306.3204
        43.2504         27.2504
 -16819925.40048 -12044016.50446  21502923.2424   21502913.5274
        48.5004         37.5004
 -18244772.49547 -12351088.95946  20507598.5004   20507585.7384
        47.7504         39.0004
 -25994966.75448 -19645490.81447  20613424.2974   20613413.6454
        51.0004         42.5004
  -6325411.59046  -3983861.93843  23270907.9694   23270893.9774
        38.7504         22.5004
  -7631932.74546  -5588935.14443  23839839.9224   23839831.1454
        36.5004         21.2504
  -2472229.53146  -1639903.76643  24475038.7504   24475025.2854
        38.7504         18.2504
  -8334686.30045  -5788809.07543  23695813.0474   23695805.7934
        35.5004         19.7504
  -9296458.05946  -7225179.62244  23268494.0164   23268486.6454
        41.2504         26.0004
 17  9 19  1 20  0.0000000  0 10G11G31G10G14G32G18G27G22G01G08
  -8799374.55946  -5576114.20144  22637323.4614   22637311.2854
        41.0004         24.7504
 -12702059.74847  -8359694.77744  22281902.5864   22281890.9964
        43.7504         27.7504
 -16781704.51048 -12014233.99946  21510196.8364   21510186.4774
        48.7504         37.0004
 -18244111.78947 -12350574.12746  20507724.4144   20507711.3014
        46.5004         38.5004
 -25964866.04348 -19622035.71247  20619152.1414   20619141.7234
        52.0004         42.5004
  -6268607.07746  -3939598.67943  23281715.6804   23281703.2704
        38.5004         21.7504
  -7543720.53746  -5520198.43843  23856626.3284   23856617.3164
        36.0004         20.7504
  -2546828.75746  -1698032.95143  24460842.0634   24460829.3014
        38.0004         19.2504
  -8431891.89546  -5864553.64743  23677315.5164   23677308.2034
        36.0004         19.7504
  -9242784.17146  -7183355.84344  23278709.7814   23278700.1254
        41.2504         25.2504
 17  9 19  1 20 30.0000000  0 11G11G31G10G14G32G18G27G22G01G24G08
  -8863094.87046  -5625766.38244  22625197.9774   22625185.8014
        40.7504         25.7504
 -12798574.80147  -8434901.26844  22263537.9774   22263524.9804
        45.5004         28.0004
 -16743295.11248 -11984304.60646  21517506.1254   21517495.4734
        49.2504         37.0004
 -18243057.34047 -12349752.46046  20507924.6804   20507912.0944
        47.5004         39.0004
 -25934416.07748 -19598308.45947  20624946.6884   20624936.0944
        52.2504         42.5004
  -6211666.76346  -3895229.66143  23292550.9534   23292539.3054
        37.5004         21.5004
  -7455457.29746  -5451421.92143  23873422.4144   23873413.1094
        36.5004         19.2504
  -2621451.78246  -1756180.77143  24446642.8134   24446628.8204
        38.2504         19.0004
  -8528915.07146  -5940156.08043  23658852.1254   23658844.8134
        36.5004         18.5004
    -43863.15915                  25530000.234
        31.750
  -9188764.72746  -7141262.79944  23288985.8364   23288979.6374
        40.5004         25.2504
 17  9 19  1 21  0.0000000  0 11G11G31G10G14G32G18G27G22G01G24G08
  -8926304.40046  -5675020.57744  22613169.2274   22613156.6994
        39.2504         24.5004
 -12894822.04847  -8509899.07144  22245222.9144   22245210.6804
        46.0004         29.0004
 -16704687.31348 -11954220.60046  21524852.4144   21524842.5824
        48.0004         37.2504
 -18241600.82847 -12348617.51346  20508202.0864   20508189.2074
        46.5004         38.7504
 -25903609.08048 -19574302.99647  20630808.8524   20630798.4344
        51.2504         43.0004
  -6154580.60646  -3850746.94043  23303414.8914   23303401.7194
        38.2504         22.0004
  -7367136.59446  -5382600.65243  23890229.6804   23890220.3164
        37.2504         20.5004
  -2696088.68946  -1814339.38542  24432439.0634   24432426.2424
        37.5004         17.7504
  -8625743.85446  -6015607.09943  23640427.8834   23640418.9884
        37.5004         20.5004
     50750.590 5                  25548006.047
        33.500
  -9134392.99846  -7098895.24444  23299335.8364   23299326.5904
        39.7504         25.5004
 17  9 19  1 21 30.0000000  0 11G11G31G10G14G32G18G27G22G01G24G08
  -8989004.92446  -5723878.12344  22601238.6254   22601225.3954
        40.5004         26.0004
 -12990801.33547  -8584688.04944  22226957.3834   22226945.2664
        45.5004         28.7504
 -16665884.10548 -11923984.33246  21532236.6334   21532226.5084
        49.0004         37.5004
 -18239746.87747 -12347172.86846  20508554.7894   20508541.7344
        47.0004         38.5004
 -25872450.18248 -19550023.33647  20636738.5004   20636728.1414
        52.0004         42.7504
  -6097351.99546  -3806153.26943  23314305.0944   23314292.4494
        39.0004         22.0004
  -7278764.82446  -5313739.55743  23907046.7424   23907037.3204
        36.5004         20.5004
  -2770742.48046  -1872511.13142  24418232.9454   24418219.9494
        36.0004         16.7504
  -8722379.16746  -6090907.32443  23622038.6884   23622030.4964
        38.5004         20.0004
    145615.672 5                  25566058.188
        30.250
  -9079675.33746  -7056258.12944  23309748.4844   23309738.4774
        40.0004         24.5004
 17  9 19  1 22  0.0000000  0 11G11G31G10G14G32G18G27G22G01G24G08
  -9051194.20146  -5772337.29244  22589403.2114   22589391.5044
        41.2504         25.0004
 -13086509.44247  -8659265.75344  22208747.0164   22208734.0204
        45.0004         28.5004
 -16626885.33548 -11893595.69146  21539657.8364   21539647.9454
        49.0004         37.5004
 -18237496.85547 -12345419.60246  20508982.5004   20508969.8554
        45.2504         38.5004
 -25840941.33548 -19525470.98447  20642734.3284   20642723.9104
        51.2504         43.2504
  -6039980.35746  -3761448.10543  23325223.1414   23325209.6764
        39.2504         21.5004
  -7190345.18246  -5244841.23243  23923871.8444   23923863.1254
        37.0004         19.0004
  -2845413.36346  -1930696.22442  24404023.6254   24404010.3364
        37.5004         17.2504
  -8818818.47946  -6166054.79543  23603688.1024   23603678.4454
        38.0004         20.2504
    240729.638 5                  25584158.680
        32.250
  -9024614.53546  -7013353.64144  23320223.3984   23320216.4964
        39.0004         25.7504
 17  9 19  1 22 30.0000000  0 11G11G31G10G14G32G18G27G22G01G24G08
  -9112864.81046  -5820392.33744  22577669.1094   22577655.8204
        40.7504         27.0004
 -13181938.32447  -8733625.87244  22190585.6024   22190572.9574
        44.5004         27.7504
 -16587685.35948 -11863050.25146  21547117.4304   21547107.4804
        49.2504         37.0004
 -18234846.41147 -12343354.30546  20509487.4534   20509474.3984
        44.5004         39.0004
 -25809078.98448 -19500643.17547  20648797.2974   20648787.0554
        50.5004         43.0004
  -5982460.42646  -3716627.38043  23336167.8054   23336155.5704
        38.7504         21.2504
  -7101875.49945  -5175903.88143  23940707.1254   23940698.9344
        35.5004         19.0004
  -2920095.93746  -1988890.37142  24389812.0474   24389798.7584
        38.0004         17.7504
  -8915054.23746  -6241043.66643  23585372.7814   23585365.0004
        38.2504         21.5004
    336094.62214                  25602305.781
        28.500
  -8969208.07846  -6970179.81544  23330768.5704   23330759.8524
        38.5004         24.0004
 17  9 19  1 23  0.0000000  0 10G11G31G10G14G32G18G27G22G01G08
  -9174025.92446  -5868050.30744  22566029.8204   22566017.5274
        41.2504         25.2504
 -13277095.23447  -8807774.06544  22172477.1094   22172464.8754
        44.2504         28.5004
 -16548294.75248 -11832356.27746  21554612.7894   21554603.3094
        48.5004         37.5004
 -18231807.71947 -12340986.49246  20510065.5634   20510052.8594
        46.5004         38.0004
 -25776875.85848 -19475549.83547  20654925.3674   20654915.4184
        51.5004         42.5004
  -5924802.79046  -3671699.36343  23347139.8134   23347127.1684
        38.5004         21.0004
  -7013369.67846  -5106938.34343  23957548.6174   23957540.1914
        36.0004         19.0004
  -2994800.68746  -2047101.84643  24375596.7194   24375583.0204
        37.7504         19.0004
  -9011094.63446  -6315880.29843  23567097.5634   23567088.6684
        37.5004         20.0004
  -8913469.65046  -6926747.31843  23341374.4454   23341366.5474
        37.5004         23.0004
 17  9 19  1 23 30.0000000  0 10G11G31G10G14G32G18G27G22G01G08
  -9234670.96446  -5915306.18944  22554489.6724   22554477.2034
        41.5004         26.2504
 -13371972.68147  -8881704.50144  22154422.5944   22154410.8284
        44.2504         28.5004
 -16508708.67448 -11801509.99146  21562145.9384   21562136.1644
        48.7504         36.5004
 -18228377.96247 -12338313.95046  20510718.0864   20510704.9734
        45.0004         38.2504
 -25744329.22148 -19450188.82147  20661118.8914   20661108.7074
        51.2504         42.5004
  -5867002.45846  -3626660.18343  23358138.7344   23358126.5594
        38.5004         21.5004
  -6924826.30446  -5037943.52643  23974398.0944   23974389.5514
        36.2504         18.2504
  -3069523.52146  -2105327.35043  24361377.1094   24361363.8204
        40.0004         20.0004
  -9106932.75246  -6390559.36643  23548861.0084   23548851.5864
        38.0004         22.2504
  -8857397.53946  -6883054.79443  23352044.4774   23352036.5204
        37.2504         22.7504
 17  9 19  1 24  0.0000000  0 10G11G31G10G14G32G18G27G22G01G08
  -9294797.28646  -5962157.86144  22543047.1254   22543034.9494
        41.5004         25.0004
 -13466567.01147  -8955414.30844  22136421.5164   22136410.5124
        44.5004         28.0004
 -16468926.10648 -11770510.58146  21569715.9844   21569706.4454
        49.0004         37.0004
 -18224557.40847 -12335336.89546  20511445.0944   20511431.9804
        47.0004         38.5004
 -25711440.20948 -19424561.02847  20667377.3134   20667366.8954
        51.2504         42.5004
  -5809058.45046  -3581509.05343  23369165.2894   23369153.3484
        38.5004         21.0004
  -6836247.75546  -4968921.37443  23991255.2194   23991245.2114
        37.0004         18.2504
  -3144262.88046  -2163565.80043  24347155.9384   24347141.3594
        40.0004         19.7504
  -9202565.36146  -6465078.23343  23530663.2894   23530653.7504
        40.0004         21.7504
  -8800993.82946  -6839103.87943  23362778.1334   23362770.0004
        37.2504         22.7504
 17  9 19  1 24 30.0000000  0 10G11G31G10G14G32G18G27G22G01G08
  -9354403.23946  -6008604.06644  22531705.2194   22531692.6334
        41.0004         25.0004
 -13560875.19347  -9028901.14645  22118476.0164   22118464.1334
        44.5004         30.0004
 -16428946.89348 -11739357.95546  21577323.8594   21577314.0274
        49.0004         36.7504
 -18220347.40447 -12332056.36546  20512246.1334   20512232.9614
        46.5004         38.5004
 -25678210.75848 -19398667.93547  20673700.9844   20673690.8014
        51.5004         42.5004
  -5750970.75846  -3536245.93943  23380219.2344   23380206.4144
        37.5004         21.5004
  -6747637.23845  -4899874.22942  24008115.4064   24008108.2114
        35.5004         16.7504
  -3219019.06146  -2221817.33143  24332929.5164   24332915.5824
        39.2504         18.5004
  -9297990.08646  -6539435.12543  23512505.5004   23512495.1414
        39.5004         22.7504
  -8744261.35346  -6794896.78043  23373574.6254   23373565.6134
        37.0004         22.0004
 17  9 19  1 25  0.0000000  0 10G11G31G10G14G32G18G27G22G01G08
  -9413486.36546  -6054642.85544  22520461.8984   22520448.9614
        40.7504         25.5004
 -13654893.53647  -9102162.15944  22100584.2034   22100572.6134
        44.0004         28.7504
 -16388770.42748 -11708051.62446  21584969.9304   21584959.8054
        48.7504         36.7504
 -18215749.14747 -12328473.29746  20513121.6094   20513108.3794
        46.7504         39.2504
 -25644642.43648 -19372510.79647  20680088.8284   20680078.5864
        52.5004         43.0004
  -5692738.60646  -3490870.25143  23391301.0314   23391288.3874
        40.0004         22.2504
  -6658997.49646  -4830804.37842  24024984.1174   24024976.3954
        36.5004         16.7504
  -3293791.40446  -2280081.46543  24318701.0394   24318686.8714
        40.2504         18.5004
  -9393204.27846  -6613627.96743  23494386.8444   23494377.3634
        40.0004         22.7504
  -8687202.86246  -6750435.63543  23384431.9534   23384423.5274
        38.0004         22.2504
 17  9 19  1 25 30.0000000  0 10G11G31G10G14G32G18G27G22G01G08
  -9472044.68846  -6100272.72244  22509318.2114   22509305.2154
        40.7504         25.5004
 -13748618.81547  -9175194.79044  22082748.9694   22082737.6134
        44.0004         29.7504
 -16348396.03948 -11676591.06646  21592652.8364   21592642.6524
        49.2504         36.5004
 -18210763.52947 -12324588.38846  20514069.9144   20514057.2704
        47.0004         39.2504
 -25610736.69148 -19346090.73547  20686540.7274   20686530.4264
        52.0004         43.0004
  -5634361.36446  -3445381.51343  23402410.0474   23402397.0514
        39.5004         22.2504
  -6570331.19846  -4761713.87642  24041856.0784   24041848.9414
        36.2504         17.7504
  -3368579.40746  -2338357.77643  24304468.8984   24304454.7304
        40.0004         18.2504
  -9488204.97146  -6687654.47043  23476306.2504   23476299.1724
        39.0004         22.7504
  -8629821.18946  -6705722.67343  23395351.4384   23395343.1294
        37.7504         22.2504
 17  9 19  1 26  0.0000000  0 10G11G31G10G14G32G18G27G22G01G08
  -9530075.58246  -6145491.60144  22498275.6094   22498262.9654
        41.7504         26.5004
 -13842047.29447  -9247996.15945  22064970.0474   22064958.6334
        43.7504         30.0004
 -16307822.67148 -11644975.46146  21600373.4144   21600363.1134
        49.0004         36.5004
 -18205391.09547 -12320402.07346  20515092.1724   20515079.4694
        47.0004         39.5004
 -25576494.61548 -19319408.58747  20693056.6254   20693046.6764
        52.5004         42.2504
  -5575838.30746  -3399779.16143  23413545.5474   23413533.6644
        39.5004         21.7504
  -6481640.86445  -4692604.50742  24058732.7894   24058726.2384
        35.0004         16.7504
  -3443382.37346  -2396645.73643  24290233.9614   24290220.7894
        39.2504         18.5004
  -9582988.92546  -6761512.05143  23458269.7114   23458262.2234
        39.0004         22.5004
  -8572117.99146  -6660759.18443  23406332.7974   23406323.5514
        38.0004         22.7504
 17  9 19  1 26 30.0000000  0 10G11G31G10G14G32G18G27G22G01G08
  -9587577.81547  -6190298.50644  22487333.2504   22487320.8984
        42.5004         26.5004
 -13935176.42747  -9320564.26544  22047248.4304   22047236.8404
        44.5004         29.7504
 -16267050.83248 -11613205.20746  21608131.8204   21608121.6954
        48.5004         36.2504
 -18199634.03247 -12315916.03846  20516188.0554   20516174.9414
        47.0004         39.2504
 -25541918.86448 -19292466.44247  20699636.3914   20699626.2664
        52.0004         42.5004
  -5517169.51346  -3354063.19743  23424709.1564   23424697.6254
        38.5004         20.0004
  -6392930.07345  -4623479.30542  24075615.0554   24075607.2734
        35.7504         16.7504
  -3518200.60246  -2454945.64043  24275996.6484   24275982.9494
        39.5004         19.0004
  -9677554.48046  -6835199.48943  23440275.0394   23440266.0864
        39.5004         22.0004
  -8514096.98846  -6615548.03343  23417373.3594   23417364.1724
        38.0004         22.2504
 17  9 19  1 27  0.0000000  0 10G11G31G10G14G32G18G27G22G01G08
  -9644549.22946  -6234691.82744  22476492.6094   22476478.7344
        41.5004         26.0004
 -14028002.72347  -9392896.39645  22029584.2274   22029572.6374
        45.0004         30.0004
 -16226079.75548 -11581279.68546  21615928.7584   21615918.6334
        49.2504         36.7504
 -18193493.12648 -12311130.92946  20517356.9384   20517343.7074
        48.0004         39.2504
 -25507010.83948 -19265265.38547  20706279.2734   20706268.9144
        52.7504         43.2504
  -5458354.59046  -3308233.44043  23435901.1094   23435889.9304
        37.0004         21.2504
  -6304201.56945  -4554340.28542  24092499.6564   24092491.9344
        35.7504         15.5004
  -3593033.50846  -2513256.98043  24261755.7344   24261741.9774
        37.7504         18.2504
  -9771898.59946  -6908714.33643  23422321.5784   23422312.6844
        40.0004         23.0004
  -8455760.84546  -6570091.34443  23428473.6724   23428465.7734
        38.0004         22.0004
 17  9 19  1 27 30.0000000  0 10G11G31G10G14G32G18G27G22G01G08
  -9700988.15547  -6278670.19744  22465752.2344   22465739.5314
        42.7504         26.5004
 -14120523.29247  -9464990.28845  22011977.5634   22011966.7934
        44.7504         30.7504
 -16184909.28648 -11549198.80345  21623762.7584   21623752.6334
        48.5004         35.7504
 -18186970.11247 -12306048.05546  20518598.2974   20518585.1844
        46.2504         39.5004
 -25471772.46548 -19237806.90947  20712984.8284   20712974.9384
        52.0004         42.5004
  -5399393.38946  -3262289.66443  23447122.1094   23447109.6414
        38.2504         20.5004
  -6215458.49045  -4485189.81242  24109387.4384   24109379.0124
        35.7504         16.7504
  -3667881.29646  -2571579.89043  24247513.1414   24247498.6804
        38.7504         19.0004
  -9866019.05946  -6982054.93744  23404411.8984   23404402.1844
        39.7504         25.2504
  -8397112.68846  -6524391.50743  23439635.3984   23439625.6844
        39.2504         22.5004
 17  9 19  1 28  0.0000000  0 10G11G31G10G14G32G18G27G22G01G08
  -9756893.31846  -6322232.65444  22455113.4924   22455101.0234
        41.5004         26.0004
 -14212735.45347  -9536843.88644  21994430.6484   21994418.5904
        45.5004         29.5004
 -16143539.58148 -11516962.68545  21631635.1954   21631625.2464
        48.5004         35.5004
 -18180066.76247 -12300668.81946  20519911.4844   20519898.7814
        45.7504         40.0004
 -25436206.16048 -19210092.90347  20719752.8204   20719742.6954
        51.2504         42.7504
  -5340286.31246  -3216232.25343  23458369.0234   23458357.2584
        38.0004         20.0004
  -6126704.34045  -4416030.81042  24126276.1804   24126268.1054
        35.5004         17.2504
  -3742744.09646  -2629914.48743  24233266.5234   24233252.8244
        37.2504         20.2504
  -9959913.73846  -7055219.58244  23386543.6644   23386535.4144
        39.0004         24.0004
  -8338155.61246  -6478450.95143  23450854.1334   23450845.1214
        39.7504         21.5004
 17  9 19  1 28 30.0000000  0 10G11G31G10G14G32G18G27G22G01G08
  -9812263.19247  -6365378.00344  22444577.0314   22444564.8554
        43.0004         27.2504
 -14304636.54947  -9608455.08245  21976943.0394   21976930.2774
        46.0004         31.0004
 -16101970.48848 -11484571.18646  21639545.7114   21639535.5274
        48.5004         36.5004
 -18172784.78747 -12294994.52946  20521297.1644   20521284.4614
        47.5004         39.5004
 -25400313.84148 -19182124.86347  20726582.6254   20726572.3834
        52.5004         42.5004
  -5281032.91346  -3170060.77843  23469645.4384   23469633.0274
        39.2504         20.0004
  -6037942.39245  -4346865.72843  24143167.1954   24143159.7664
        35.5004         18.2504
  -3817621.71846  -2688260.64843  24219019.3444   24219004.1804
        38.2504         19.0004
 -10053580.21946  -7128206.44544  23368719.1484   23368711.3674
        37.7504         24.5004
  -8278892.67146  -6432272.07943  23462131.2664   23462122.3134
        38.7504         21.5004
 17  9 19  1 29  0.0000000  0 10G11G31G10G14G32G18G27G22G01G08
  -9867095.68047  -6408104.60644  22434142.7424   22434130.6844
        42.2504         26.7504
 -14396222.74047  -9679820.91945  21959514.9304   21959501.9924
        46.7504         30.7504
 -16060201.25948 -11452023.74646  21647493.8984   21647484.0664
        49.5004         36.2504
 -18165124.46147 -12289025.43146  20522754.8834   20522742.0634
        45.5004         39.7504
 -25364096.95648 -19153903.90647  20733474.7034   20733464.2854
        52.2504         42.2504
  -5221632.50346  -3123774.79143  23480948.6804   23480936.8554
        38.5004         20.7504
  -5949175.10546  -4277696.50242  24160060.4304   24160051.8874
        36.5004         17.7504
  -3892513.72446  -2746617.97443  24204768.3524   24204753.3634
        39.5004         19.7504
 -10147015.67846  -7201013.25644  23350940.1804   23350931.2274
        39.2504         24.0004
  -8219326.61346  -6385856.99143  23473466.2664   23473458.3094
        39.2504         22.0004
 17  9 19  1 29 30.0000000  0 10G11G31G10G14G32G18G27G22G01G08
  -9921388.52647  -6450410.72044  22423811.9924   22423798.9964
        42.5004         28.0004
 -14487490.82447  -9750938.85145  21942146.6254   21942134.6844
        46.0004         30.5004
 -16018231.36948 -11419319.93646  21655480.6884   21655470.3874
        48.5004         36.0004
 -18157087.32547 -12282762.71646  20524284.1804   20524271.3594
        45.5004         39.5004
 -25327557.12448 -19125431.30547  20740428.1954   20740417.9534
        52.0004         43.0004
  -5162084.70246  -3077373.87643  23492281.2974   23492268.7704
        39.5004         21.5004
  -5860405.32545  -4208525.27442  24176952.8444   24176944.4774
        35.2504         17.2504
  -3967419.30546  -2804985.91543  24190513.4614   24190499.0004
        39.0004         21.0004
 -10240217.31146  -7273637.86943  23333203.6804   23333194.6684
        38.7504         22.5004
  -8159460.06146  -6339207.76743  23484859.0704   23484850.1764
        39.2504         22.5004
 17  9 19  1 30  0.0000000  0 10G11G31G10G14G32G18G27G22G01G08
  -9975139.46947  -6492294.56444  22413582.8834   22413570.5904
        42.7504         27.5004
 -14578437.38247  -9821806.25145  21924840.7814   21924827.3164
        47.0004         30.7504
 -15976060.32848 -11386459.38046  21663505.8204   21663495.6954
        48.5004         36.2504
 -18148674.44947 -12276207.22046  20525884.8674   20525872.3404
        46.5004         39.7504
 -25290696.06048 -19096708.40347  20747442.6484   20747432.1724
        52.2504         43.0004
  -5102388.96946  -3030857.76243  23503639.9384   23503627.6454
        38.7504         19.5004
  -5771635.95045  -4139354.40242  24193843.2734   24193836.4304
        35.0004         16.7504
  -4042337.79346  -2863363.90743  24176256.5084   24176242.9264
        38.2504         20.2504
 -10333182.37646  -7346078.16643  23315513.4454   23315504.0824
        39.2504         22.7504
  -8099295.71446  -6292326.51543  23496307.0234   23496298.7154
        40.0004         22.0004
 17  9 19  1 30 30.0000000  0 10G11G31G10G14G32G18G27G22G01G08
 -10028346.12947  -6533754.29844  22403458.2814   22403445.4614
        43.0004         26.7504
 -14669058.18347  -9892419.82645  21907595.4064   21907583.0554
        46.2504         31.0004
 -15933686.55147 -11353440.85445  21671568.8984   21671558.8324
        47.0004         35.5004
 -18139885.94047 -12269359.03546  20527557.7194   20527544.8404
        45.7504         40.0004
 -25253514.27748 -19067735.58247  20754518.1954   20754507.4264
        52.7504         42.5004
  -5042543.82346  -2984225.19043  23515027.3134   23515016.1334
        37.5004         20.5004
  -5682868.66745  -4070185.09542  24210735.3284   24210728.9534
        34.7504         15.5004
  -4117268.11646  -2921751.12643  24161997.7194   24161983.9024
        37.7504         18.5004
 -10425907.11446  -7418331.20843  23297867.5004   23297858.7814
        38.5004         23.7504
  -8038835.19346  -6245214.43143  23507813.0864   23507804.1334
        39.5004         22.5004
 17  9 19  1 31  0.0000000  0 10G11G31G10G14G32G18G27G22G01G08
 -10081007.74447  -6574789.29544  22393436.4384   22393424.1454
        42.5004         25.2504
 -14759351.08647  -9962777.89545  21890413.6644   21890400.6094
        47.0004         30.5004
 -15891110.71847 -11320264.88946  21679670.6024   21679660.8874
        47.5004         36.0004
 -18130724.36447 -12262220.16146  20529301.0554   20529288.5274
        45.0004         39.2504
 -25216014.64748 -19038515.07647  20761654.0944   20761643.5594
        51.7504         42.7504
  -4982550.01046  -2937476.79643  23526444.6484   23526432.7074
        38.7504         20.0004
  -5594107.28345  -4001020.45642  24227626.0784   24227618.9414
        34.2504         15.5004
  -4192211.15546  -2980148.23443  24147736.8834   24147722.7734
        38.0004         19.5004
 -10518389.96946  -7490395.74143  23280269.6094   23280260.4804
        37.5004         22.7504
  -7978082.66746  -6197874.81843  23519373.5864   23519365.1604
        40.5004         22.5004
 17  9 19  1 31 30.0000000  0 10G11G31G10G14G32G18G27G22G01G08
 -10133123.21247  -6615398.75844  22383518.8984   22383506.6054
        42.5004         24.2504
 -14849313.86547 -10032878.72145  21873293.6644   21873281.4304
        46.5004         30.7504
 -15848333.02147 -11286931.61945  21687811.4844   21687801.3594
        47.5004         35.0004
 -18121191.67747 -12254792.07846  20531115.1564   20531102.2194
        46.0004         39.5004
 -25178199.54648 -19009048.77147  20768849.8914   20768839.5904
        51.7504         42.7504
  -4922408.04746  -2890612.95343  23537890.0864   23537877.4414
        39.5004         19.5004
  -5505355.53945  -3931863.32142  24244516.0084   24244507.7584
        35.0004         17.7504
  -4267167.13046  -3038555.46743  24133472.4224   24133458.7234
        38.2504         19.2504
 -10610628.93246  -7562270.24943  23262716.5944   23262707.8754
        37.0004         22.7504
  -7917041.47546  -6150310.30143  23530989.0554   23530981.3324
        40.0004         23.0004
 17  9 19  1 32  0.0000000  0 10G11G31G10G14G32G18G27G22G01G08
 -10184689.39347  -6655580.18244  22373707.1024   22373694.1054
        42.5004         25.7504
 -14938941.97947 -10102718.77345  21856238.3674   21856225.6054
        46.7504         31.2504
 -15805351.81947 -11253439.78245  21695989.7894   21695980.3674
        47.0004         35.5004
 -18111287.93047 -12247074.86646  20533000.0864   20532986.9734
        46.0004         40.0004
 -25140069.48748 -18979337.03647  20776105.9844   20776095.5084
        51.7504         42.2504
  -4862116.32946  -2843632.40243  23549363.3984   23549349.7584
        39.5004         19.7504
  -5416615.03645  -3862714.94742  24261402.9774   24261394.8444
        33.5004         15.5004
  -4342134.28446  -3096971.37943  24119205.3284   24119192.6254
        36.5004         19.2504
 -10702620.17446  -7633951.67943  23245211.0554   23245202.9224
        39.2504         22.7504
  -7855713.09546  -6102521.96743  23542659.8204   23542651.1604
        39.5004         21.7504
 17  9 19  1 32 30.0000000  0 10G11G31G10G14G32G18G27G22G01G08
 -10235706.34446  -6695333.65243  22363997.8984   22363985.8984
        41.5004         23.0004
 -15028234.03547 -10172296.95645  21839246.4924   21839234.3754
        46.0004         30.5004
 -15762168.50548 -11219790.45246  21704208.1564   21704198.0314
        48.0004         36.0004
 -18101016.21647 -12239070.92646  20534954.5004   20534941.3284
        45.5004         39.5004
 -25101627.99948 -18949382.62547  20783421.0164   20783410.6564
        51.5004         42.2504
  -4801676.31146  -2796536.35543  23560865.2584   23560850.9734
        39.2504         19.2504
  -5327890.40745  -3793578.93642  24278284.7034   24278279.0904
        32.5004         17.2504
  -4417113.90146  -3155397.02243  24104938.5234   24104923.8874
        38.0004         18.2504
 -10794362.77446  -7705439.41344  23227752.9454   23227744.1684
        39.0004         24.2504
  -7794102.16546  -6054513.46443  23554383.5084   23554375.3164
        39.7504         22.5004
 17  9 19  1 33  0.0000000  0 10G11G31G10G14G32G18G27G22G01G08
 -10286171.17746  -6734656.88144  22354395.6954   22354382.6994
        41.5004         27.2504
 -15117185.45147 -10241609.70145  21822319.3594   21822307.3014
        47.2504         30.5004
 -15718781.31648 -11185982.25846  21712464.0554   21712454.1644
        48.2504         36.0004
 -18090376.62247 -12230780.31746  20536978.8444   20536965.7894
        45.5004         39.5004
 -25062875.53148 -18919185.89647  20790794.9224   20790784.9144
        51.5004         42.5004
  -4741086.00246  -2749323.11943  23572392.7504   23572380.8094
        38.5004         19.0004
  30995477.05445  24510343.70442  24295166.5084   24295158.9024
        33.2504         16.2504
  -4492104.46146  -3213831.20443  24090668.4614   24090653.7074
        36.7504         18.2504
 -10885852.78846  -7776730.29844  23210343.5784   23210334.1564
        38.7504         25.2504
  -7732210.49346  -6006286.19943  23566162.0704   23566153.4104
        39.5004         22.0004
 17  9 19  1 33 30.0000000  0 10G11G31G10G14G32G18G27G22G01G08
 -10336083.14747  -6773549.32544  22344898.0394   22344884.5744
        42.0004         26.5004
 -15205793.93847 -10310655.24845  21805457.4224   21805445.1884
        46.7504         31.5004
 -15675190.68847 -11152015.54645  21720759.0634   21720749.3484
        47.0004         35.0004
 -18079371.17447 -12222204.64746  20539072.6954   20539060.2854
        46.5004         39.5004
 -25023814.63048 -18888748.83347  20798228.4924   20798218.1914
        51.0004         42.5004
  -4680346.08846  -2701993.36142  23583952.3674   23583939.7814
        38.0004         17.7504
  31084163.34845  24579449.82342  24312042.6884   24312035.7274
        32.0004         15.5004
  -4567106.33146  -3272274.12142  24076396.3054   24076381.7274
        37.7504         17.7504
 -10977088.32646  -7847822.91944  23192981.8364   23192973.5274
        39.5004         25.0004
  -7670041.71746  -5957843.05243  23577992.8594   23577984.1414
        40.5004         22.0004
 17  9 19  1 34  0.0000000  0 10G11G31G10G14G32G18G27G22G01G08
 -10385439.58347  -6812008.87244  22335505.4304   22335492.7854
        42.0004         26.0004
 -15294056.18047 -10379430.97145  21788662.3284   21788649.4494
        47.0004         31.5004
 -15631395.42448 -11117889.36145  21729092.8524   21729083.1954
        48.0004         35.2504
 -18068000.37947 -12213344.27746  20541236.6484   20541223.7114
        44.0004         39.0004
 -24984446.32848 -18858072.22747  20805719.9774   20805709.9104
        51.7504         42.5004
  -4619455.23146  -2654545.95243  23595539.5784   23595527.3444
        38.5004         18.5004
  31172826.39045  24648537.86242  24328916.3834   24328907.1374
        34.5004         17.7504
  -4642118.26246  -3330724.97443  24062122.0164   24062107.0864
        38.2504         18.5004
 -11068066.08546  -7918714.66943  23175667.8674   23175660.1454
        38.0004         22.7504
  -7607597.49746  -5909185.21043  23589876.0234   23589866.2504
        39.7504         22.5004
 17  9 19  1 34 30.0000000  0 10G11G31G10G14G32G18G27G22G01G08
 -10434239.63246  -6850034.86744  22326218.5864   22326206.4104
        40.7504         25.7504
 -15381969.35647 -10447934.72145  21771933.1804   21771920.5354
        47.2504         32.2504
 -15587395.95848 -11083604.06445  21737466.5554   21737455.5514
        48.5004         35.7504
 -18056266.51447 -12204201.00646  20543469.3444   20543456.8754
        46.0004         39.0004
 -24944773.19948 -18827158.10546  20813269.2424   20813258.9414
        52.0004         41.5004
  -4558414.12046  -2606981.44943  23607155.3834   23607143.2074
        38.0004         18.5004
  31261462.68145  24717605.04542  24345781.7114   24345773.6954
        34.2504         17.2504
  -4717140.89346  -3389184.13643  24047844.2344   24047830.8874
        37.0004         19.5004
 -11158784.16846  -7989404.06843  23158406.2734   23158396.4414
        40.0004         23.7504
  -7544882.19146  -5860316.17443  23601809.3674   23601800.7664
        39.0004         21.7504
 17  9 19  1 35  0.0000000  0 10G11G31G10G14G32G18G27G22G01G08
 -10482481.78846  -6887626.15144  22317038.5394   22317026.2464
        41.2504         25.5004
 -15469529.93847 -10516163.69145  21755270.6024   21755257.7814
        46.0004         31.5004
 -15543191.64447 -11049159.14345  21745878.1484   21745867.7894
        47.2504         35.2504
 -18044170.59747 -12194775.61746  20545771.6024   20545758.6644
        44.7504         39.5004
 -24904796.73348 -18796007.60547  20820876.1484   20820866.7274
        51.0004         42.5004
  -4497222.50646  -2559299.73742  23618799.8134   23618786.7584
        37.2504         17.7504
  31350069.53845  24786649.26543  24362641.7584   24362635.6764
        33.5004         18.2504
  -4792173.47846  -3447651.02143  24033567.2034   24033551.8054
        37.7504         19.7504
 -11249239.74746  -8059888.92843  23141191.9454   23141183.0514
        37.5004         22.5004
  -7481898.40146  -5811237.91543  23613794.1564   23613786.4344
        39.0004         21.7504
 17  9 19  1 35 30.0000000  0 10G11G31G10G14G32G18G27G22G01G08
 -10530164.11246  -6924781.21444  22307965.6884   22307952.8094
        41.0004         26.0004
 -15556735.09247 -10584115.70645  21738676.4614   21738663.8754
        47.2504         33.0004
 -15498781.96647 -11014554.21345  21754328.2734   21754318.9104
        45.0004         35.7504
 -18031714.06747 -12185069.22446  20548141.8834   20548128.8284
        45.5004         38.7504
 -24864518.60248 -18764622.05747  20828541.5704   20828530.8594
        51.5004         42.2504
  -4435879.58746  -2511500.07443  23630473.7894   23630460.4414
        38.0004         19.0004
  31438644.28145  24855668.50242  24379499.9614   24379491.1254
        35.2504         16.7504
  -4867215.14546  -3506125.07843  24019287.1334   24019272.7894
        37.0004         21.2504
 -11339429.97346  -8130167.04143  23124031.0864   23124021.6054
        40.2504         22.7504
  -7418648.50146  -5761952.29943  23625830.2664   23625822.3674
        38.5004         22.5004
 17  9 19  1 36  0.0000000  0 10G11G31G10G14G32G18G27G22G01G08
 -10577285.03946  -6961498.80144  22298998.4844   22298985.2544
        41.2504         25.2504
 -15643581.47747 -10651788.17145  21722149.8594   21722137.2734
        47.5004         33.0004
 -15454166.64847 -10979789.02846  21762818.6024   21762808.8284
        46.7504         36.5004
 -18018898.34747 -12175082.94346  20550580.5634   20550567.6254
        46.2504         39.2504
 -24823940.64448 -18733002.86647  20836263.1254   20836252.8244
        51.0004         42.5004
  -4374385.43746  -2463582.54043  23642174.8364   23642162.5434
        37.5004         20.2504
  31527183.91145  24924660.33642  24396345.3134   24396340.4654
        33.0004         17.2504
  -4942266.00846  -3564606.20443  24005006.1884   24004990.9654
        38.5004         20.2504
 -11429352.33846  -8200236.38243  23106918.6254   23106909.7894
        39.5004         23.0004
  -7355135.73646  -5712461.85143  23637916.4774   23637908.8714
        39.0004         21.7504
 17  9 19  1 36 30.0000000  0 10G11G31G10G14G32G18G27G22G01G08
 -10623842.34847  -6997777.23944  22290138.9694   22290125.6804
        42.5004         26.5004
 -15730065.44847 -10719178.25145  21705691.6804   21705679.6804
        47.5004         31.5004
 -15409344.50847 -10944862.69545  21771347.8754   21771337.8094
        47.2504         35.7504
 -18005724.09747 -12164817.27946  20553087.6884   20553074.5744
        45.7504         39.5004
 -24783063.95248 -18701150.89846  20844041.6414   20844031.2234
        52.2504         41.5004
  -4312738.86346  -2415546.27042  23653905.5864   23653893.6454
        38.5004         17.7504
  31615686.35745  24993623.25042  24413189.0554   24413181.7424
        34.7504         17.2504
  -5017324.59446  -3623093.38143  23990723.0704   23990708.1994
        38.7504         21.0004
 -11519003.55446  -8270094.47344  23089858.1724   23089849.9224
        40.0004         24.7504
  -7291362.27046  -5662768.27943  23650051.9454   23650044.2234
        38.2504         20.2504
 17  9 19  1 37  0.0000000  0 10G11G31G10G14G32G18G27G22G01G08
 -10669834.85647  -7033615.53344  22281386.8524   22281373.3874
        42.5004         26.7504
 -15816184.11448 -10786283.68445  21689304.4064   21689291.9964
        48.5004         33.2504
 -15364315.38147 -10909775.07046  21779916.7584   21779907.2774
        47.0004         36.5004
 -17992192.75747 -12154273.37746  20555662.3054   20555649.6604
        44.5004         39.7504
 -24741890.46048 -18669067.65747  20851876.8594   20851866.6764
        50.5004         42.0004
  -4250939.59446  -2367391.02143  23665664.8524   23665653.3204
        37.5004         19.0004
  31704148.67845  25062554.80742  24430024.1564   24430015.4964
        35.0004         17.2504
  -5092391.05646  -3681586.70443  23976437.0864   23976424.0314
        39.0004         20.7504
 -11608381.00546  -8339739.22144  23072849.9304   23072842.6764
        39.2504         25.5004
  -7227331.45246  -5612874.15043  23662237.0554   23662228.2774
        38.2504         20.0004
 17  9 19  1 37 30.0000000  0 10G11G31G10G14G32G18G27G22G01G08
 -10715262.04547  -7069013.34444  22272742.4614   22272728.9964
        43.0004         27.2504
 -15901935.76048 -10853103.11145  21672986.6024   21672974.3674
        48.2504         33.5004
 -15319080.04947 -10874526.77246  21788524.8444   21788514.4844
        45.0004         36.0004
 -17978307.36647 -12143453.59146  20558304.7894   20558291.9694
        45.7504         38.5004
 -24700423.13548 -18636755.45747  20859767.8134   20859757.5704
        50.5004         42.2504
  -4188988.70746  -2319117.61943  23677455.0554   23677441.7664
        38.0004         19.5004
  31792566.83345  25131452.04143  24446848.1414   24446841.0044
        35.0004         19.0004
  -5167465.80746  -3740086.48743  23962149.9304   23962137.4614
        36.7504         19.7504
 -11697483.34946  -8409169.59644  23055895.4844   23055886.7074
        40.5004         25.0004
  -7163047.13846  -5562782.48843  23674469.2424   23674461.9884
        38.2504         19.7504
 17  9 19  1 38  0.0000000  0 10G11G31G10G14G32G18G27G22G01G08
 -10760121.03147  -7103968.38344  22264205.6564   22264192.6604
        43.5004         27.5004
 -15987315.83947 -10919632.98545  21656738.8754   21656726.7584
        47.2504         32.5004
 -15273636.67547 -10839116.36345  21797172.2194   21797162.8554
        47.5004         35.7504
 -17964067.27147 -12132357.40846  20561014.8674   20561001.5784
        44.7504         39.5004
 -24658662.27548 -18604214.52547  20867714.5634   20867704.3204
        52.0004         42.0004
  -4126884.58446  -2270724.80043  23689272.8914   23689260.0124
        37.0004         19.2504
  31880939.39145  25200313.75742  24463665.3364   24463658.0824
        34.7504         17.2504
  -5242546.96546  -3798591.24643  23947863.8834   23947849.1884
        37.7504         20.0004
 -11786306.41646  -8478382.32944  23038992.5234   23038984.3324
        40.5004         24.5004
  -7098511.05546  -5512494.68343  23686751.0164   23686742.6484
        38.2504         20.7504
 17  9 19  1 38 30.0000000  0 10G11G31G10G14G32G18G27G22G01G08
 -10804412.31847  -7138481.06544  22255777.4614   22255765.1684
        43.5004         27.0004
 -16072323.09848 -10985872.36245  21640562.2664   21640550.5594
        48.2504         32.7504
 -15227986.64248 -10803544.90945  21805859.4144   21805849.6414
        48.0004         35.5004
 -17949475.99747 -12120987.57546  20563791.2734   20563778.4534
        45.0004         39.5004
 -24616611.44748 -18571447.64346  20875716.7664   20875706.1134
        51.5004         41.7504
  -4064628.40646  -2222213.52343  23701120.0634   23701107.2424
        38.0004         18.2504
  31969261.82545  25269136.34142  24480472.7114   24480465.2234
        34.7504         16.2504
  -5317635.83246  -3857102.03043  23933573.9694   23933559.7424
        36.5004         19.0004
 -11874849.45346  -8547376.87244  23022142.6564   23022134.8164
        39.5004         24.5004
  -7033727.60946  -5462014.11243  23699079.7504   23699070.5044
        39.0004         21.0004
 17  9 19  1 39  0.0000000  0 10G11G31G10G14G32G18G27G22G01G08
 -10848133.56447  -7172549.55244  22247457.8204   22247445.4104
        44.0004         28.2504
 -16156953.50848 -11051818.08845  21624458.5944   21624445.6564
        49.5004         34.0004
 -15182128.73047 -10767811.46645  21814585.9844   21814575.8014
        47.7504         35.7504
 -17934534.05847 -12109344.51346  20566634.6564   20566621.7774
        45.7504         39.2504
 -24574271.57548 -18538455.53247  20883773.5474   20883763.1884
        51.5004         42.2504
  -4002219.38446  -2173583.13642  23712995.6254   23712983.7424
        37.0004         17.7504
  32057532.30745  25337918.46842  24497269.4774   24497262.1644
        33.7504         17.2504
  -5392731.20745  -3915617.90043  23919283.4304   23919270.1414
        35.0004         20.2504
 -11963108.89146  -8616150.43344  23005347.6334   23005339.3244
        40.5004         26.0004
  -6968699.13046  -5411342.59343  23711453.4534   23711445.0274
        38.2504         20.0004
 17  9 19  1 39 30.0000000  0 10G11G31G10G14G32G18G27G22G01G08
 -10891282.48547  -7206172.07944  22239246.2664   22239234.2664
        43.7504         28.0004
 -16241203.02448 -11117467.03345  21608425.6564   21608412.8954
        48.7504         34.0004
 -15136061.77948 -10731915.14445  21823352.2894   21823342.2234
        48.2504         35.5004
 -17919242.22947 -12097428.79646  20569544.5784   20569531.4064
        46.7504         39.5004
 -24531643.61848 -18505238.94047  20891885.6174   20891875.1994
        52.5004         42.2504
  -3939656.03146  -2124832.49143  23724901.2664   23724889.5594
        37.2504         18.5004
  32145748.70545  25406658.42742  24514057.0164   24514048.6484
        35.0004         17.2504
  -5467831.84445  -3974137.84843  23904992.5474   23904978.6134
        35.5004         20.2504
 -12051081.31046  -8684700.33544  22988608.1254   22988599.2894
        40.5004         25.5004
  -6903427.68446  -5360481.76243  23723873.2274   23723865.2114
        38.0004         21.5004
 17  9 19  1 40  0.0000000  0 10G11G31G10G14G32G18G27G22G01G08
 -10933859.04647  -7239348.60744  22231145.0864   22231132.2664
        44.2504         28.2504
 -16325070.74448 -11182818.48045  21592466.2584   21592453.6134
        48.5004         34.0004
 -15089786.83647 -10695856.75046  21832157.8054   21832148.4414
        46.0004         36.0004
 -17903603.33047 -12085242.63146  20572520.6094   20572507.6134
        46.5004         39.7504
 -24488730.80948 -18471800.38746  20900051.2974   20900041.1724
        50.2504         41.7504
  -3876939.93646  -2075962.83442  23736835.8054   23736823.5704
        36.5004         17.2504
  32233906.84845  25475353.04342  24530832.1094   24530825.6174
        34.7504         16.2504
  -5542938.82746  -4032662.71443  23890700.2974   23890686.3634
        36.0004         19.5004
 -12138765.49146  -8753025.64944  22971921.8914   22971913.2894
        40.0004         26.0004
  -6837917.91046  -5309435.20343  23736340.7814   23736331.4774
        38.2504         20.7504
 17  9 19  1 40 30.0000000  0 10G11G31G10G14G32G18G27G22G01G08
 -10975861.35047  -7272077.65144  22223151.5314   22223139.0634
        44.2504         29.0004
 -16408552.62048 -11247869.25945  21576580.0314   21576568.0314
        48.7504         34.7504
 -15043302.65647 -10659635.32645  21841003.6954   21840993.3364
        47.5004         35.0004
 -17887617.75947 -12072786.33846  20575562.7734   20575549.8364
        45.7504         39.2504
 -24445534.07948 -18438140.59946  20908271.5554   20908261.1954
        51.5004         41.7504
  -3814070.13246  -2026973.36842  23748799.7504   23748787.1054
        37.0004         17.2504
  32322004.80145  25544000.68942  24547597.5084   24547588.7304
        35.0004         17.2504
  -5618050.59246  -4091191.34643  23876407.6094   23876393.0314
        37.5004         20.0004
 -12226157.95446  -8821123.65144  22955291.8204   22955282.2234
        41.2504         25.5004
  -6772171.39146  -5258204.19243  23748852.5944   23748842.6454
        38.7504         20.5004
 17  9 19  1 41  0.0000000  0 10G11G31G10G14G32G18G27G22G01G08
 -11017287.44247  -7304357.72744  22215269.3524   22215255.4184
        45.0004         29.0004
 -16491644.99248 -11312616.52145  21560768.2424   21560755.5984
        49.7504         34.7504
 -14996608.50847 -10623250.27545  21849889.5944   21849879.1174
        47.0004         35.5004
 -17871286.60247 -12060060.75846  20578669.9454   20578657.2424
        45.7504         39.5004
 -24402054.77948 -18404260.61446  20916545.1884   20916534.9454
        51.0004         41.5004
  -3751045.76546  -1977863.48342  23760792.3674   23760779.7234
        37.0004         17.7504
  32410040.13345  25612599.57842  24564348.0474   24564341.9654
        34.0004         17.7504
  -5693166.28846  -4149723.03643  23862112.3524   23862099.0634
        37.5004         21.0004
 -12313255.75746  -8888992.01144  22938717.0164   22938708.1804
        40.2504         26.5004
  -6706190.97846  -5206790.92543  23761406.8284   23761398.4614
        37.5004         21.0004
 17  9 19  1 41 30.0000000  0 10G11G31G10G14G32G18G27G22G01G08
 -11058136.65847  -7336188.25844  22207495.8134   22207482.2894
        44.5004         28.2504
 -16574345.76948 -11377058.64845  21545030.8594   21545018.3914
        49.7504         34.2504
 -14949704.73448 -10586701.87945  21858814.9224   21858804.5044
        48.0004         35.5004
 -17854612.23447 -12047067.73046  20581843.2734   20581830.1604
        46.7504         39.2504
 -24358295.45548 -18370162.44447  20924872.2974   20924862.3484
        51.5004         42.0004
  -3687867.24346  -1928633.53042  23772814.3134   23772802.8404
        36.5004         16.7504
  32498009.33145  25681147.02642  24581090.5944   24581082.3444
        35.0004         17.7504
  -5768286.26946  -4208258.06543  23847818.5634   23847804.1024
        38.0004         19.7504
 -12400056.90046  -8956629.24844  22922199.0554   22922190.5124
        41.0004         26.2504
  -6639980.47946  -5155198.36743  23774006.2894   23773997.7464
        37.5004         21.0004
 17  9 19  1 42  0.0000000  0 10G11G31G10G14G32G18G27G22G01G08
 -11098408.30347  -7367568.75044  22199831.8204   22199818.7074
        44.5004         27.2504
 -16656651.98148 -11441193.31745  21529368.3284   21529355.7424
        49.2504         34.5004
 -14902591.14547 -10549989.99945  21867780.0784   21867770.3054
        47.2504         35.7504
 -17837596.39447 -12033808.63346  20585081.4614   20585068.5824
        47.0004         39.7504
 -24314258.03548 -18335847.56046  20933252.2194   20933242.0354
        51.2504         41.7504
  -3624534.44446  -1879283.25443  23784867.5234   23784855.0554
        38.0004         18.2504
  32585909.65245  25749640.67342  24597817.6804   24597808.3754
        35.7504         17.7504
  -5843410.19446  -4266796.14943  23833523.2974   23833508.7774
        38.5004         21.0004
 -12486558.89147  -9024033.35944  22905739.1024   22905729.9144
        42.0004         26.0004
  -6573542.97246  -5103428.90043  23786648.8364   23786640.7034
        36.5004         21.7504
 17  9 19  1 42 30.0000000  0 10G11G31G10G14G32G18G27G22G01G08
 -11138100.47247  -7398497.71444  22192278.9454   22192265.5394
        44.5004         28.5004
 -16738560.59548 -11505018.19145  21513782.1254   21513768.0164
        49.5004         34.2504
 -14855267.15947 -10513114.16645  21876786.1174   21876775.8164
        46.7504         35.5004
 -17820240.09747 -12020284.24646  20588384.5944   20588370.9534
        47.5004         40.0004
 -24269944.08748 -18301317.20346  20941685.0164   20941674.8324
        51.2504         41.5004
  -3561046.97446  -1829812.49742  23796949.0864   23796935.4454
        37.7504         17.7504
  32673738.40145  25818078.58442  24614528.7584   24614521.3874
        35.0004         16.7504
  -5918537.17446  -4325336.64843  23819226.0394   23819212.3984
        37.0004         19.2504
 -12572758.96146  -9091202.22244  22889335.3524   22889326.5164
        41.5004         26.5004
  -6506881.21346  -5051484.73443  23799334.9774   23799325.8484
        36.2504         21.5004
 17  9 19  1 43  0.0000000  0 10G11G31G10G14G32G18G27G22G01G08
 -11177211.86647  -7428974.11744  22184836.0784   22184823.4344
        43.7504         28.7504
 -16820068.44348 -11568530.76945  21498271.1484   21498258.3874
        49.7504         34.5004
 -14807732.14947 -10476073.89845  21885831.3444   21885821.1024
        47.5004         35.5004
 -17802544.69147 -12006495.60846  20591751.4844   20591738.4884
        47.5004         39.0004
 -24225355.09348 -18266572.52846  20950169.7424   20950159.7934
        52.0004         41.5004
  -3497404.49646  -1780220.99743  23809058.2584   23809047.2544
        37.7504         18.2504
  32761493.13446  25886458.86443  24631230.9304   24631220.6884
        36.5004         18.2504
  -5993666.45146  -4383878.91943  23804930.7274   23804915.5634
        38.2504         19.7504
 -12658654.15946  -9158133.51244  22872989.7734   22872981.2894
        40.7504         24.7504
  -6439998.16846  -4999368.11343  23812061.5704   23812053.8484
        37.0004         21.2504
 17  9 19  1 43 30.0000000  0 11G11G31G10G14G32G18G27G22G01G25G08
 -11215742.37847  -7458997.89244  22177504.4384   22177490.8554
        44.5004         28.0004
 -16901173.63648 -11631729.58245  21482837.4844   21482824.8984
        49.5004         35.0004
 -14759986.83547 -10438869.75745  21894917.0864   21894907.1954
        47.5004         35.5004
 -17784512.60647 -11992444.63146  20595182.9064   20595169.5594
        47.5004         39.5004
 -24180493.95548 -18231615.79246  20958706.6884   20958696.6804
        52.0004         41.5004
  -3433607.73946  -1730509.24543  23821199.8594   23821187.0394
        39.5004         18.5004
  32849170.06045  25954778.46242  24647913.2814   24647905.9104
        35.7504         17.7504
  -6068798.81346  -4442423.55143  23790634.0704   23790618.2624
        39.5004         20.7504
 -12744242.99146  -9224826.10044  22856702.8594   22856694.3164
        40.7504         26.0004
   -233520.36015                  25608060.438
        32.500
  -6372897.67546  -4947082.07943  23824830.9774   23824822.7854
        36.7504         21.5004
 17  9 19  1 44  0.0000000  0 12G11G31G10G14G32G18G27G22G01G25G03G08
 -11253694.06447  -7488570.62444  22170282.7894   22170269.3244
        44.5004         28.5004
 -16981876.69048 -11694615.05045  21467479.7034   21467467.6454
        49.5004         34.7504
 -14712034.35347 -10401504.18845  21904041.7424   21904032.4384
        46.5004         35.5004
 -17766148.67647 -11978135.06646  20598677.3984   20598664.4614
        47.2504         39.5004
 -24135365.86348 -18196451.04546  20967294.2814   20967284.3324
        51.7504         41.0004
  -3369659.86046  -1680679.73343  23833369.0864   23833356.2074
        39.5004         19.5004
  32936762.98345  26023032.70942  24664582.2424   24664574.4614
        33.7504         17.7504
  -6143937.15246  -4500972.91843  23776333.8204   23776320.1214
        39.0004         20.2504
 -12829526.26346  -9291280.56144  22840473.7114   22840465.3444
        40.7504         27.7504
   -290589.082 4                  25597197.539
        29.750
   -318534.540 5                  25680757.461
        32.500
  -6305586.00246  -4894631.47443  23837639.9534   23837631.9964
        36.5004         21.7504
 17  9 19  1 44 30.0000000  0 12G11G31G10G14G32G18G27G22G01G25G03G08
 -11291051.37547  -7517680.20044  22163173.3134   22163160.1994
        45.2504         28.7504
 -17062160.18848 -11757173.58345  21452202.7194   21452190.2504
        50.0004         35.5004
 -14663859.76847 -10363965.55245  21913209.2894   21913199.5164
        47.5004         34.7504
 -17747440.14247 -11963556.97746  20602237.3444   20602224.4064
        46.5004         39.5004
 -24089958.09848 -18161068.35346  20975935.0634   20975924.9384
        51.2504         41.5004
  -3305546.38946  -1630721.16643  23845569.5864   23845556.1214
        40.0004         18.2504
  33024283.75345  26091230.58942  24681237.3054   24681228.9964
        35.0004         15.5004
  -6219066.50946  -4559515.24043  23762038.4454   23762023.2814
        39.5004         21.5004
 -12914486.84246  -9357483.58044  22824306.3134   22824298.0634
        41.0004         25.2504
                                  25586382.859
        29.250
   -399944.64815                  25665266.992
        33.750
  -6238051.87446  -4842007.52043  23850490.5004   23850482.6024
        36.2504         21.2504
 17  9 19  1 45  0.0000000  0 12G11G31G10G14G32G18G27G22G01G25G03G08
 -11327829.33147  -7546338.34544  22156174.3204   22156162.1454
        44.7504         29.0004
 -17142037.36148 -11819415.51845  21437002.1644   21436989.9884
        50.0004         35.5004
 -14615478.75647 -10326266.07245  21922416.0234   21922405.7814
        47.5004         35.0004
 -17728404.45947 -11948723.98246  20605859.4304   20605846.7854
        46.2504         39.7504
 -24044288.40648 -18125481.57246  20984625.9774   20984615.8524
        50.7504         41.0004
  -3241282.99746  -1580645.83442  23857797.3674   23857785.0744
        40.0004         16.7504
  33111713.62145  26159357.69842  24697875.3524   24697866.6914
        35.0004         16.2504
  -6294202.13146  -4618062.43543  23747739.4384   23747725.6804
        39.7504         21.0004
 -12999138.03046  -9423445.51344  22808197.1564   22808189.0234
        40.5004         25.5004
                                  25575605.031
        26.250
   -481427.303 5                  25649760.820
        31.250
  -6170314.19646  -4789224.95743  23863380.8674   23863373.3794
        36.5004         22.0004
 17  9 19  1 45 30.0000000  0 12G11G31G10G14G32G18G27G22G01G25G03G08
 -11364025.11647  -7574542.84644  22149286.4454   22149273.6844
        45.2504         29.5004
 -17221503.62148 -11881337.25045  21421880.3984   21421867.9884
        49.7504         35.7504
 -14566889.37347 -10288404.21545  21931662.0314   21931652.4344
        47.7504         35.5004
 -17709041.40847 -11933635.87746  20609544.4224   20609531.4844
        47.5004         39.2504
 -23998356.95248 -18089690.83446  20993366.4384   20993356.2544
        51.5004         41.0004
  -3176867.90546  -1530452.30042  23870056.4064   23870042.7074
        39.5004         15.5004
  33199051.50845  26227413.11942  24714493.4304   24714486.7624
        34.2504         17.7504
  -6369341.82046  -4676612.79543  23733441.1334   23733426.4964
        39.5004         21.7504
 -13083475.71647  -9489163.14644  22792148.6644   22792139.9454
        42.0004         25.5004
   -460469.24215                  25564872.211
        32.000
   -562980.794 5                  25634241.961
        30.500
  -6102374.57546  -4736285.05243  23876309.6884   23876301.2624
        36.0004         21.7504
 17  9 19  1 46  0.0000000  0 11G11G31G10G14G32G18G27G22G01G25G08
 -11399628.57347  -7602285.81444  22142511.2664   22142498.9144
        45.0004         29.2504
 -17300547.00848 -11942929.47446  21406839.1094   21406826.1724
        50.0004         36.2504
 -14518082.31547 -10250372.74045  21940949.5314   21940940.1684
        46.2504         35.2504
 -17689343.56947 -11918286.90146  20613292.5944   20613280.1844
        47.0004         39.2504
 -23952156.55348 -18053690.50646  21002157.7584   21002147.8674
        51.5004         41.2504
  -3112291.86546  -1480133.26943  23882344.2114   23882330.9224
        39.0004         18.2504
  33286303.60845  26295401.71142  24731096.2584   24731090.5274
        33.2504         16.2504
  -6444476.03046  -4735158.90843  23719143.1804   23719130.1844
        38.2504         22.5004
 -13167488.22846  -9554627.43544  22776161.6094   22776152.6564
        41.5004         26.5004
   -516649.009 5                  25554180.703
        31.750
  -6034226.78746  -4683182.91943  23889277.9454   23889269.8714
        36.2504         21.7504
 17  9 19  1 46 30.0000000  0 12G11G31G10G14G32G18G27G22G01G25G03G08
 -11434644.02247  -7629570.59144  22135848.2114   22135835.2734
        44.5004         29.5004
 -17379170.11348 -12004194.18746  21391877.0004   21391865.3524
        50.0004         36.2504
 -14469062.64848 -10212175.59845  21950278.6254   21950268.0904
        48.0004         35.7504
 -17669317.87147 -11902682.46146  20617103.0474   20617090.5784
        47.0004         39.2504
 -23905694.35448 -18017486.19146  21010999.0784   21010989.1294
        51.0004         41.0004
  -3047559.97846  -1429692.94643  23894661.9534   23894650.3634
        38.2504         18.5004
  33373461.85945  26363317.20842  24747683.3524   24747675.5124
        34.2504         16.7504
  -6519609.75746  -4793704.66843  23704846.6024   23704832.6094
        39.7504         23.2504
 -13251178.35746  -9619840.52144  22760236.2894   22760227.3364
        40.7504         26.5004
   -572601.030 4                  25543534.906
        29.000
   -652977.46246   -502744.49853  25603169.0634   25603158.2344
        41.5004         22.0004
  -5965879.50046  -4629925.33443  23902283.3914   23902275.5514
        37.7504         21.5004
 17  9 19  1 47  0.0000000  0 12G11G31G10G14G32G18G27G22G01G25G03G08
 -11469069.41347  -7656395.56644  22129297.6954   22129284.6414
        44.0004         28.7504
 -17457369.26648 -12065128.55546  21376996.4454   21376984.1524
        50.5004         36.0004
 -14419828.86248 -10173811.60846  21959647.4614   21959637.3364
        48.7504         36.0004
 -17648964.74047 -11886822.86846  20620976.3914   20620963.6294
        47.5004         39.5004
 -23858971.02748 -17981078.40646  21019890.5784   21019880.5124
        50.7504         41.0004
  -2982671.22146  -1379130.22942  23907008.6174   23906997.8484
        39.0004         17.2504
  33460524.79545  26431158.34942  24764252.2344   24764243.6334
        35.2504         17.2504
  -6594741.46346  -4852248.77243  23690549.7584   23690535.8834
        39.5004         22.7504
 -13334542.40547  -9684799.49344  22744372.6174   22744363.6054
        42.0004         26.0004
   -628321.17415                  25532930.055
        31.750
   -734725.10746   -566443.95743  25587612.3754   25587603.0124
        37.5004         20.2504
  -5897334.36646  -4576513.59343  23915328.3834   23915319.0784
        37.5004         20.2504
 17  9 19  1 47 30.0000000  0 12G11G31G10G14G32G18G27G22G01G25G03G08
 -11502899.40147  -7682756.59444  22122859.7034   22122846.9414
        44.5004         28.5004
 -17535136.92348 -12125726.70246  21362198.3984   21362185.0514
        50.7504         36.2504
 -14370376.30747 -10135277.15245  21969057.5474   21969047.4804
        47.0004         35.5004
 -17628281.19647 -11870705.81346  20624912.2344   20624899.8244
        46.2504         39.5004
 -23811983.98348 -17944465.12046  21028831.6804   21028821.3794
        51.5004         41.0004
  -2917620.81446  -1328441.61642  23919388.5784   23919375.8754
        39.2504         17.7504
  33547493.97545  26498926.50942  24780800.3984   24780793.2034
        35.7504         16.2504
  -6669866.19746  -4910787.50844  23676252.4844   23676239.6644
        36.7504         24.2504
 -13417573.37646  -9749498.92544  22728571.9534   22728563.2934
        41.0004         26.5004
                                  25522372.711
        32.000
   -816533.74245   -630190.97542  25572044.6644   25572035.3014
        35.7504         17.7504
  -5828590.22746  -4522946.77343  23928409.5474   23928401.2974
        38.7504         22.0004
 17  9 19  1 48  0.0000000  0 12G11G31G10G14G32G18G27G22G01G25G03G08
 -11536142.75447  -7708660.51045  22116533.9774   22116520.3954
        43.5004         30.0004
 -17612480.17248 -12185994.14946  21347480.0004   21347467.0634
        49.7504         36.0004
 -14320714.50447 -10096579.64345  21978507.5234   21978497.9844
        45.7504         35.5004
 -17607278.71247 -11854340.23646  20628909.3984   20628896.4024
        47.0004         39.5004
 -23764744.82648 -17907655.39546  21037821.1564   21037810.8554
        51.7504         41.7504
  -2852418.69546  -1277634.79542  23931796.7894   23931783.0904
        38.7504         16.7504
  33634356.91845  26566611.81542  24797331.0944   24797322.9614
        35.5004         16.2504
  -6744992.92346  -4969327.77143  23661956.8594   23661943.8054
        39.7504         22.2504
 -13500278.55246  -9813944.52044  22712833.8284   22712825.6374
        41.5004         27.7504
   -739050.989 4                  25511858.445
        27.250
   -898413.01146   -693992.95343  25556463.5164   25556454.3284
        37.7504         20.0004
  -5759660.01646  -4469234.97443  23941526.8674   23941518.1484
        38.7504         22.0004
 17  9 19  1 48 30.0000000  0 12G11G31G10G14G32G18G27G22G01G25G03G08
 -11568792.68447  -7734102.02144  22110321.5164   22110307.4064
        44.5004         27.7504
 -17689390.53648 -12245924.27246  21332844.3754   21332831.9064
        50.0004         37.0004
 -14270837.22047 -10057714.24045  21987998.9224   21987989.5594
        47.0004         35.5004
 -17585952.79347 -11837722.61846  20632967.5084   20632954.4534
        46.5004         39.0004
 -23717249.41648 -17870645.98646  21046859.1484   21046849.0824
        51.0004         41.5004
  -2787058.82946  -1226705.00343  23944233.6414   23944221.4064
        37.5004         18.2504
  33721116.84445  26634216.86742  24813839.8984   24813832.5864
        35.2504         17.7504
  -6820115.24246  -5027864.60643  23647662.8754   23647648.0634
        41.2504         22.7504
 -13582649.39447  -9878129.57344  22697159.1804   22697150.5204
        42.0004         28.2504
                                  25501391.813
        28.500
   -980356.98346   -757845.37343  25540869.0084   25540860.9924
        37.0004         18.2504
  -5690541.00946  -4415376.02243  23954679.1884   23954670.8794
        38.5004         21.7504
 17  9 19  1 49  0.0000000  0 12G11G31G10G14G32G18G27G22G01G25G03G08
 -11600849.73647  -7759081.51744  22104220.4844   22104207.1374
        43.5004         29.0004
 -17765866.74948 -12305516.10046  21318291.1804   21318278.5354
        50.0004         36.5004
 -14220745.73547 -10018681.91345  21997531.0634   21997521.4654
        42.5004         34.7504
 -17564306.86547 -11820855.66746  20637086.3444   20637073.8754
        47.0004         39.2504
 -23669501.13148 -17833439.52246  21055945.9534   21055935.5354
        49.0004         41.2504
  -2721542.26046  -1175653.13242  23956700.5944   23956689.3554
        36.5004         16.7504
  33807769.54845  26701738.42842  24830327.2974   24830322.2154
        33.5004         17.7504
  -6895234.45646  -5086399.01843  23633367.1414   23633352.5634
        40.0004         22.2504
 -13664684.94247  -9942053.36344  22681547.9924   22681540.3284
        42.0004         28.7504
                                  25490970.367
        31.000
  -1062367.16646   -821749.34243  25525262.6804   25525254.4884
        37.5004         18.2504
  -5621237.29446  -4361373.15943  23967866.5864   23967859.4494
        38.7504         20.7504
 17  9 19  1 49 30.0000000  0 12G11G31G10G14G32G18G27G22G01G25G03G08
 -11632312.77447  -7783598.17344  22098233.5634   22098220.6254
        44.5004         29.2504
 -17841905.48748 -12364767.02546  21303821.9694   21303809.3244
        49.7504         36.5004
 -14170439.27247  -9979482.07445  22007104.5554   22007094.5474
        45.7504         34.2504
 -17542342.10247 -11803740.26646  20641266.2344   20641253.3554
        46.5004         39.0004
 -23621501.24548 -17796037.00746  21065079.7034   21065069.3444
        51.2504         41.0004
  -2655869.06046  -1124479.24542  23969197.9774   23969186.6214
        36.5004         16.7504
  33894312.85445  26769174.75842  24846797.7194   24846790.6994
        35.0004         15.5004
  -6970349.21446  -5144929.96143  23619072.8054   23619058.8134
        39.0004         22.5004
 -13746382.12447 -10005713.47744  22666001.9924   22665993.2154
        43.0004         29.2504
                                  25480594.492
        27.250
  -1144442.92246   -885704.37842  25509644.8284   25509636.1094
        36.7504         17.7504
  -5551751.67546  -4307228.58843  23981090.1804   23981081.9304
        39.0004         20.5004
 17  9 19  1 50  0.0000000  0 12G11G31G10G14G32G18G27G22G01G25G03G08
 -11663179.57847  -7807650.22244  22092359.4844   22092346.4304
        43.7504         28.2504
 -17917502.63748 -12423673.85546  21289435.9774   21289423.4494
        49.0004         37.0004
 -14119916.38947  -9940113.60745  22016718.2114   22016709.0234
        46.5004         34.2504
 -17520058.64247 -11786376.51446  20645506.4384   20645494.1454
        46.5004         39.2504
 -23573250.44048 -17758438.97146  21074261.5004   21074250.6724
        51.5004         40.5004
  -2590037.34346  -1073181.74542  23981725.8054   23981714.2154
        37.0004         16.7504
  33980745.17446  26836524.52542  24863246.2424   24863238.2854
        36.5004         17.2504
  -7045457.93746  -5203456.21343  23604780.0394   23604765.9884
        39.0004         23.0004
 -13827737.23847 -10069107.07544  22650521.1254   22650512.1724
        43.0004         28.7504
                                  25470265.563
        27.250
  -1226582.99745   -949709.59442  25494014.7894   25494005.4264
        35.5004         16.7504
  -5482086.13246  -4252943.76043  23994347.1564   23994339.0824
        39.2504         20.2504
 17  9 19  1 50 30.0000000  0 12G11G31G10G14G32G18G27G22G01G25G03G08
 -11693450.93747  -7831238.29944  22086598.0554   22086585.8794
        43.7504         28.7504
 -17992657.18648 -12482235.81946  21275134.8364   21275121.8984
        49.7504         36.7504
 -14069178.32447  -9900577.46445  22026372.9454   22026363.5234
        45.5004         34.0004
 -17497459.60147 -11768766.86746  20649806.8444   20649794.1414
        47.0004         39.2504
 -23524751.94548 -17720647.92946  21083490.3054   21083480.0634
        50.0004         40.5004
  -2524048.64046  -1021761.99842  23994283.3984   23994271.1644
        38.0004         14.7504
  34067062.43645  26903784.64242  24879672.1094   24879664.1524
        35.5004         16.7504
  -7120561.46246  -5261978.37743  23590487.7034   23590474.0044
        38.7504         22.2504
 -13908749.20447 -10132233.27444  22635104.6884   22635095.6174
        42.7504         28.5004
    563787.396 4                  25459991.547
        28.750
  -1308788.72745  -1013765.89442  25478370.0704   25478361.6454
        35.5004         16.7504
  -5412245.07546  -4198522.20943  24007636.5864   24007629.7424
        38.7504         20.7504
 17  9 19  1 51  0.0000000  0 11G11G31G10G14G32G18G27G22G01G03G08
 -11723126.43947  -7854362.06344  22080952.3524   22080938.7114
        44.7504         29.0004
 -18067366.54648 -12540450.87446  21260917.8594   21260905.3324
        49.0004         36.5004
 -14018224.93747  -9860873.52245  22036069.0004   22036059.3444
        45.0004         34.5004
 -17474546.69247 -11750912.64746  20654167.0394   20654154.4534
        47.0004         39.7504
 -23476007.76048 -17682665.43946  21092765.4844   21092755.4774
        50.2504         40.5004
  -2457902.98446   -970219.89642  24006870.3204   24006858.4384
        38.7504         15.5004
  34153261.71445  26970952.84442  24896074.5394   24896067.1684
        35.0004         16.2504
  -7195659.38146  -5320496.21443  23576197.0944   23576183.3364
        39.5004         23.2504
 -13989415.70847 -10195090.26444  22619754.7894   22619745.7194
        43.5004         29.0004
  -1391060.11245  -1077873.41442  25462715.1094   25462706.2154
        34.2504         17.2504
  -5342231.66646  -4143966.32443  24020960.9384   24020952.7464
        39.0004         19.5004
 17  9 19  1 51 30.0000000  0 11G11G31G10G14G32G18G27G22G01G03G08
 -11752203.22247  -7877019.29744  22075419.0554   22075405.4734
        44.7504         28.5004
 -18141626.57848 -12598315.80146  21246786.2194   21246773.7504
        48.5004         36.0004
 -13967054.34447  -9821000.32845  22045807.4924   22045797.1914
        45.2504         33.7504
 -17451319.83447 -11732813.78846  20658587.1954   20658574.0824
        47.2504         39.5004
 -23427017.99148 -17644491.58746  21102088.1334   21102077.9494
        50.2504         41.5004
  -2391598.90246   -918554.39642  24019488.0864   24019475.2074
        39.2504         16.7504
  34239342.11146  27038028.40542  24912456.6414   24912447.2774
        36.5004         16.7504
  -7270749.52146  -5379007.99143  23561909.0234   23561894.1524
        41.2504         22.2504
 -14069732.47047 -10257674.75644  22604471.7424   22604461.7344
        44.5004         29.0004
  -1473395.40245  -1142030.74542  25447045.2194   25447038.0824
        30.2504         13.7504
  -5272047.64346  -4089277.51343  24034316.7504   24034308.0314
        38.7504         20.0004
 17  9 19  1 52  0.0000000  0 11G11G31G10G14G32G18G27G22G01G03G08
 -11780681.93547  -7899210.51044  22070000.4614   22069986.5864
        44.5004         29.5004
 -18215435.93548 -12655829.56246  21232741.1094   21232728.4064
        48.2504         36.0004
 -13915667.52747  -9780958.64845  22055585.8364   22055575.3594
        45.7504         33.5004
 -17427781.85747 -11714472.49846  20663065.8054   20663053.2774
        47.5004         39.5004
 -23377785.66248 -17606128.73446  21111456.9844   21111446.7424
        49.7504         40.7504
  -2325137.46646   -866766.37142  24032133.0704   24032123.0044
        37.7504         16.7504
  34325299.71245  27105008.32742  24928812.5704   24928805.3164
        34.7504         16.2504
  -7345832.37846  -5437514.08343  23547621.2504   23547606.6134
        41.0004         22.0004
 -14149698.20347 -10319985.69544  22589254.0704   22589244.7664
        43.7504         29.5004
     19624.39555     21361.29552  25431366.0784   25431358.7074
        31.0004         16.2504
  -5201697.09346  -4034458.96743  24047703.2194   24047695.4964
        38.7504         20.0004
 17  9 19  1 52 30.0000000  0 12G11G31G10G14G32G18G27G22G01G25G03G08
 -11808569.08647  -7920940.75444  22064692.9924   22064679.8204
        44.5004         28.5004
 -18288798.78548 -12712995.38546  21218780.5864   21218768.0004
        48.7504         36.7504
 -13864071.23047  -9740753.75345  22065404.1484   22065393.7304
        45.0004         33.5004
 -17403941.42347 -11695895.53346  20667602.4454   20667590.1524
        47.5004         39.2504
 -23328319.68448 -17567583.81846  21120869.6724   21120860.0164
        50.7504         41.0004
  -2258525.90546   -814861.28942  24044810.0164   24044798.8954
        37.2504         15.5004
  34411124.72645  27171884.89642  24945144.3364   24945136.8484
        35.7504         16.2504
  -7420914.59947  -5496019.69243  23533334.2424   23533318.6684
        42.0004         22.7504
 -14229317.48747 -10382026.68145  22574102.9454   22574093.8164
        44.2504         30.0004
    194371.018 5                  25419359.344
        32.500
    -62847.840 4                  25415669.859
        29.000
  -5131190.32546  -3979518.66243  24061121.6644   24061112.6524
        39.2504         19.5004
 17  9 19  1 53  0.0000000  0 12G11G31G10G14G32G18G27G22G01G25G03G08
 -11835847.84447  -7942196.93644  22059501.1334   22059489.2504
        44.2504         29.0004
 -18361696.49347 -12769798.75746  21204908.5474   21204895.8444
        47.7504         37.0004
 -13812249.36247  -9700373.07245  22075265.8444   22075255.1334
        46.0004         33.0004
 -17379784.55047 -11677071.97946  20672199.5554   20672186.5004
        47.5004         39.7504
 -23278605.85448 -17528845.77246  21130330.7584   21130320.3404
        50.2504         41.0004
  -2191747.84146   -762826.43142  24057517.4614   24057506.1644
        37.2504         16.7504
  34496830.57245  27238668.54042  24961454.2664   24961446.5434
        35.7504         16.2504
  -7495979.31346  -5554511.63243  23519048.4304   23519034.2624
        40.0004         22.7504
 -14308571.83647 -10443783.30244  22559020.9614   22559011.9494
        44.7504         29.5004
    141654.936 5                  25409328.297
        33.500
   -145375.69314                  25399967.281
        29.250
  -5060514.56346  -3924446.65243  24074569.0164   24074562.0554
        38.7504         20.0004
 17  9 19  1 53 30.0000000  0 12G11G31G10G14G32G18G27G22G01G25G03G08
 -11862526.05347  -7962985.13344  22054424.7814   22054411.9024
        45.0004         29.5004
 -18434134.78548 -12826244.14046  21191124.1564   21191111.2774
        49.0004         37.5004
 -13760209.84847  -9659822.80945  22085168.7814   22085158.0124
        42.7504         33.5004
 -17355320.86847 -11658009.36346  20676854.8364   20676841.9574
        47.5004         39.2504
 -23228654.19148 -17489922.39046  21139835.9694   21139825.7854
        48.7504         40.5004
  -2124811.08745   -710667.90942  24070253.3914   24070243.9104
        33.5004         16.7504
  34582406.39046  27305350.97742  24977738.6484   24977731.1604
        36.0004         16.7504
  -7571034.54146  -5612996.20543  23504767.1254   23504751.4344
        41.2504         22.2504
 -14387466.96547 -10505260.02044  22544008.4304   22543998.6564
        44.5004         29.5004
     89207.989 5                  25399347.188
        33.500
   -227967.35714                  25384250.031
        28.500
  -4989681.13246  -3869251.81343  24088048.7894   24088040.8324
        38.5004         18.2504
 17  9 19  1 54  0.0000000  0 12G11G31G10G14G32G18G27G22G01G25G03G08
 -11888602.65447  -7983304.56144  22049462.7344   22049449.3874
        45.5004         29.7504
 -18506111.03948 -12882329.50446  21177427.3364   21177414.6334
        49.5004         37.0004
 -13707952.30647  -9619102.61745  22095112.6724   22095102.1374
        44.5004         32.5004
 -17330551.73847 -11638708.73246  20681569.0704   20681556.4264
        47.5004         39.5004
 -23178466.34748 -17450814.97446  21149386.2424   21149375.6484
        50.5004         41.0004
  -2057715.87646   -658385.94842  24083022.8204   24083011.9344
        36.0004         16.2504
  34667849.67045  27371930.03342  24993996.0314   24993990.8284
        34.5004         15.5004
  -7646079.49146  -5671472.75343  23490485.6954   23490471.3524
        41.0004         23.0004
 -14466000.24447 -10566454.75544  22529062.2814   22529053.6804
        43.7504         29.5004
     37033.152 5                  25389419.859
        31.500
                                  25368521.703
        28.250
  -4918692.74046  -3813936.25843  24101558.7734   24101549.4694
        39.0004         18.5004
 17  9 19  1 54 30.0000000  0 11G11G31G10G14G32G18G27G22G01G25G08
 -11914070.23847  -8003149.41545  22044616.8754   22044603.7624
        45.5004         30.0004
 -18577615.60548 -12938047.31446  21163820.2734   21163807.3954
        48.5004         37.5004
 -13655469.34847  -9578206.81745  22105099.7424   22105090.2034
        45.0004         33.0004
 -17305471.74847 -11619165.86846  20686341.1254   20686328.3634
        47.7504         39.7504
 -23128036.92748 -17411519.31746  21158982.8984   21158972.3054
        49.5004         41.0004
  -1990455.17146   -605975.01542  24095822.4614   24095810.9304
        37.5004         16.7504
  34753164.92746  27438409.45042  25010231.9924   25010226.0864
        36.0004         15.5004
  -7721106.23446  -5729935.10643  23476208.8134   23476193.6484
        39.5004         22.2504
 -14544161.95547 -10627359.96744  22514188.8594   22514180.6684
        44.0004         28.5004
                                  25379544.195
        27.500
  -4847545.10846  -3758496.55942  24115097.3834   24115087.9614
        38.0004         17.7504
 17  9 19  1 55  0.0000000  0 10G11G31G10G14G32G18G27G22G01G08
 -11938942.65347  -8022530.51844  22039883.1094   22039870.5824
        44.5004         29.7504
 -18648660.35848 -12993406.84646  21150301.3444   21150288.1724
        48.5004         37.2504
 -13602775.47747  -9537146.68045  22115127.4304   22115117.2464
        45.7504         34.0004
 -17280097.31047 -11599393.57746  20691169.2664   20691156.5634
        47.5004         39.2504
 -23077382.45348 -17372048.29246  21168621.7344   21168611.3164
        49.0004         40.5004
  -1923043.68346   -553446.56942  24108650.7974   24108638.0944
        39.0004         17.7504
  34838334.86146  27504775.55442  25026440.8364   25026432.7034
        37.5004         14.7504
  -7796128.93246  -5788394.30343  23461932.5554   23461917.7424
        41.0004         23.2504
 -14621964.41347 -10687985.25244  22499384.5314   22499375.1684
        44.2504         28.5004
  -4776256.66146  -3702947.16542  24128662.0394   24128653.6724
        38.0004         17.7504
 17  9 19  1 55 30.0000000  0 11G11G31G10G14G32G18G27G22G01G25G08
 -11963218.49147  -8041446.75044  22035263.5634   22035250.9184
        45.7504         29.5004
 -18719241.47148 -13048405.09046  21136869.7504   21136857.3984
        48.5004         37.2504
 -13549869.32747  -9495921.09745  22125195.5704   22125184.8594
        45.7504         34.5004
 -17254428.56048 -11579391.94846  20696054.4304   20696041.0824
        48.0004         39.5004
 -23026503.52948 -17332402.37046  21178303.4774   21178293.7624
        50.0004         40.5004
  -1855480.14946   -500799.65342  24121507.8524   24121495.2074
        38.7504         17.2504
  34923358.02745  27571027.32442  25042619.5864   25042613.2114
        35.0004         17.2504
  -7871145.59647  -5846848.80043  23447657.6094   23447642.5634
        42.0004         23.7504
 -14699403.90047 -10748327.68344  22484648.7504   22484638.9184
        43.7504         28.5004
   -221203.544 5                  25359950.047
        35.500
  -4704828.91146  -3647289.20142  24142254.3134   24142246.2974
        36.7504         17.7504
 17  9 19  1 56  0.0000000  0 11G11G31G10G14G32G18G27G22G01G25G08
 -11986884.35947  -8059887.68444  22030759.9614   22030747.3754
        45.0004         29.2504
 -18789344.12048 -13103030.49646  21123529.3674   21123517.0164
        49.7504         37.2504
 -13496738.06447  -9454520.12545  22135304.8524   22135294.6094
        42.7504         32.2504
 -17228454.81848 -11559152.66246  20700996.8284   20700983.9494
        48.0004         39.2504
 -22975389.37348 -17292573.15546  21188030.2114   21188020.4964
        49.0004         40.7504
  -1787751.88946   -448024.42042  24134396.0234   24134383.4964
        38.7504         16.7504
  35008244.41045  27637172.46942  25058772.8284   25058766.1024
        35.0004         15.5004
  -7946143.31646  -5905288.53043  23433386.1174   23433371.0124
        41.5004         22.7504
 -14776465.38747 -10808375.57444  22469983.8524   22469974.4304
        44.0004         29.7504
   -272262.401 6                  25350235.156
        36.000
  -4633252.39245  -3591515.29242  24155874.8134   24155866.7974
        35.7504         16.2504
 17  9 19  1 56 30.0000000  0 11G11G31G10G14G32G18G27G22G01G25G08
 -12009945.96447  -8077857.75144  22026372.1414   22026358.5594
        45.2504         29.2504
 -18858971.95448 -13157285.92346  21110279.5784   21110267.3444
        49.2504         38.0004
 -13443387.51847  -9412948.27645  22145457.5554   22145447.1374
        44.5004         33.0004
 -17202183.62647 -11538681.60346  20705996.2584   20705983.2624
        47.5004         39.5004
 -22924047.78448 -17252566.71446  21197800.7194   21197790.6524
        50.5004         40.5004
  -1719864.91446   -395125.40342  24147313.6094   24147302.4304
        37.7504         16.7504
  35092985.46145  27703204.38542  25074900.7504   25074892.6174
        35.0004         16.7504
  -8021127.40747  -5963717.65644  23419116.3984   23419102.3484
        42.5004         25.5004
 -14853152.42347 -10868131.68544  22455391.3134   22455380.6604
        44.0004         29.0004
   -323035.078 6                  25340572.727
        36.250
  -4561536.42046  -3535632.81042  24169522.4534   24169514.2624
        36.5004         16.2504
 17  9 19  1 57  0.0000000  0 11G11G31G10G14G32G18G27G22G01G25G08
 -12032401.98447  -8095355.94245  22022098.9064   22022085.3834
        45.2504         30.2504
 -18928121.68448 -13211168.79846  21097120.9774   21097108.6844
        49.7504         38.0004
 -13389817.01047  -9371205.02045  22155651.7194   22155641.4184
        42.0004         33.2504
 -17175616.04247 -11517979.58646  20711051.7664   20711038.9454
        47.0004         39.2504
 -22872480.03748 -17212384.04546  21207613.6564   21207603.2384
        48.5004         41.0004
  -1651818.60145   -342102.38942  24160262.3284   24160251.5004
        35.0004         14.7504
  35177579.09145  27769121.45442  25090994.5164   25090990.1374
        32.5004         14.7504
  -8096096.38847  -6022135.00944  23404851.1804   23404836.6604
        42.0004         25.5004
 -14929462.03147 -10927593.69344  22440869.3914   22440860.1454
        43.5004         29.0004
   -373518.249 5                  25330963.352
        35.500
  -4489683.49645  -3479643.57342  24183194.8204   24183187.5084
        35.5004         16.2504
 17  9 19  1 57 30.0000000  0 11G11G31G10G14G32G18G27G22G01G25G08
 -12054252.38847  -8112382.23444  22017940.5554   22017927.2664
        45.5004         28.0004
 -18996790.85748 -13264677.21546  21084054.1954   21084041.4924
        50.5004         38.2504
 -13336026.18847  -9329290.08845  22165888.0784   22165877.6604
        42.5004         34.0004
 -17148753.88147 -11497048.02346  20716163.6254   20716150.6294
        47.7504         39.5004
 -22820687.78048 -17172026.44446  21217469.3914   21217458.8554
        49.7504         40.7504
  -1583612.924 6                  24173242.508
        36.000
  35262022.67145  27834921.58342  25107066.4454   25107059.6024
        33.5004         16.2504
  -8171049.73047  -6080540.17544  23390587.5004   23390573.2734
        42.0004         26.2504
 -15005391.64547 -10986759.60344  22426420.0944   22426410.9064
        43.0004         29.2504
   -423709.004 6                  25321414.430
        37.000
  -4417696.49445  -3423549.81442  24196895.0554   24196885.9844
        35.5004         15.5004
 17  9 19  1 58  0.0000000  0 11G11G31G10G14G32G18G27G22G01G25G08
 -12075496.74247  -8128936.25344  22013898.8284   22013885.0704
        46.0004         28.5004
 -19064976.91948 -13317809.18546  21071078.5864   21071066.0004
        50.5004         38.5004
 -13282014.72047  -9287203.24445  22176168.0784   22176156.9574
        44.5004         32.5004
 -17121598.49647 -11475887.97746  20721330.4384   20721317.9104
        47.2504         39.0004
 -22768672.61148 -17131495.14246  21227367.5234   21227357.3984
        51.2504         40.5004
  -1515247.815 6                  24186251.461
        37.000
  35346314.11145  27900603.18342  25123103.8364   25123098.9304
        33.2504         14.7504
  -8245986.66247  -6138932.56644  23376327.2734   23376312.5204
        42.0004         24.7504
 -15080938.64847 -11045627.39044  22412044.5864   22412034.7544
        43.0004         28.5004
   -473604.452 6                  25311919.031
        38.250
  -4345578.45545  -3367353.98742  24210619.0314   24210609.9614
        35.2504         14.7504
 17  9 19  1 58 30.0000000  0 12G11G31G10G14G32G18G27G22G01G25G03G08
 -12096133.65847  -8145016.96744  22009971.1414   22009958.5554
        46.0004         29.7504
 -19132676.85448 -13370562.35446  21058195.8364   21058183.0744
        51.2504         38.0004
 -13227781.76847  -9244943.81545  22186484.7194   22186476.0594
        43.5004         31.2504
 -17094151.11147 -11454500.39746  20726554.0474   20726541.2854
        46.5004         39.7504
 -22716435.69748 -17090791.05146  21237307.8674   21237297.5084
        51.2504         40.7504
  -1446723.11046   -443812.61753  24199290.6804   24199278.9144
        37.2504         20.0004
  35430451.24445  27966164.48142  25139115.9534   25139111.3404
        32.5004         16.7504
  -8320905.94647  -6197311.21644  23362070.4304   23362055.9694
        42.7504         25.5004
 -15156099.98247 -11104194.63444  22397741.1954   22397732.3594
        43.0004         28.7504
   -523201.268 6                  25302480.961
        38.500
   -649007.154 5                  25226428.602
        32.500
  -4273331.74046  -3311057.88342  24224367.2274   24224358.1564
        36.7504         15.5004
 17  9 19  1 59  0.0000000  0 12G11G31G10G14G32G18G27G22G01G25G03G08
 -12116165.46647  -8160626.17945  22006158.9844   22006146.2814
        46.2504         30.2504
 -19199890.67948 -13422936.73446  21045404.8204   21045392.2344
        50.2504         38.0004
 -13173329.86947  -9202513.76345  22196847.3204   22196836.9024
        44.5004         33.2504
 -17066415.85848 -11432888.50946  20731831.7114   20731819.0084
        48.0004         39.2504
 -22663981.47248 -17049917.62646  21247289.6804   21247279.1454
        50.5004         41.0004
  -1378040.64546   -390293.89443  24212361.0634   24212349.4144
        37.2504         18.2504
  35514428.99546  28031601.67442  25155097.6484   25155091.3914
        36.0004         15.5004
  -8395809.52247  -6255677.60244  23347815.9144   23347801.7464
        42.0004         24.2504
 -15230875.87347 -11162461.54044  22383510.9144   22383502.7814
        42.7504         28.2504
   -572499.375 6                  25293100.602
        38.500
   -732282.590 5                  25210580.055
        33.750
  -4200962.44645  -3254666.23442  24238137.0554   24238130.2114
        34.7504         15.5004
 17  9 19  1 59 30.0000000  0 12G11G31G10G14G32G18G27G22G01G25G03G08
 -12135590.28747  -8175762.40044  22002462.7274   22002449.7894
        45.2504         29.0004
 -19266614.16148 -13474929.02746  21032707.8674   21032695.6334
        50.0004         38.5004
 -13118657.05447  -9159911.55745  22207252.2894   22207241.8134
        45.0004         33.2504
 -17038392.66947 -11411052.24946  20737164.2194   20737151.4574
        47.2504         39.5004
 -22611309.89548 -17008874.83646  21257312.3524   21257302.5204
        51.0004         40.2504
  -1309199.17846   -336651.17343  24225462.4144   24225450.0044
        37.5004         18.5004
  38749086.52455  30552113.93452  25171046.4844   25171042.4574
        34.5004         15.5004
  -8470694.79247  -6314029.74244  23333566.3674   23333551.2034
        42.5004         24.5004
 -15305262.13647 -11220424.85044  22369356.0314   22369347.1954
        42.2504         26.7504
   -621494.253 6                  25283777.305
        38.000
   -815618.467 5                  25194722.844
        34.000
  -4128471.69045  -3198180.00342  24251932.1024   24251925.3164
        35.2504         14.7504
 17  9 19  2  0  0.0000000  0 12G11G31G10G14G32G18G27G22G01G25G03G08
 -12154407.85247  -8190425.44644  21998881.7894   21998868.4414
        45.5004         27.5004
 -19332845.25848 -13526537.64046  21020104.7114   21020092.3014
        50.0004         38.2504
 -13063763.13846  -9117137.08745  22217697.8984   22217687.6564
        41.5004         33.2504
 -17010083.27148 -11388992.97346  20742551.6884   20742538.5164
        48.0004         39.0004
 -22558422.75848 -16967664.06246  21267376.1334   21267366.4774
        48.2504         40.7504
  -1240198.95146   -282884.86742  24238592.4144   24238579.4774
        37.0004         17.2504
  40408161.23255  31844899.36052  25186964.1024   25186961.1884
        33.5004         15.5004
  -8545561.37146  -6372367.31944  23319319.8134   23319304.2974
        41.2504         24.5004
 -15379256.32247 -11278082.63344  22355275.8594   22355266.7894
        42.5004         27.0004
   -670183.196 6                  25274511.102
        36.000
   -899014.333 5                  25178853.414
        34.750
  -4055862.33746  -3141601.31442  24265749.0634   24265742.1024
        36.0004         16.2504
 17  9 19  2  0 30.0000000  0 12G11G31G10G14G32G18G27G22G01G25G03G08
 -12172617.91947  -8204615.10544  21995416.1884   21995403.5434
        45.5004         29.5004
 -19398581.79148 -13577760.88446  21007595.6954   21007583.0514
        49.0004         38.7504
 -13008648.16047  -9074190.36545  22228185.1724   22228175.6914
        44.0004         34.0004
 -16981489.14347 -11366711.83546  20747992.8594   20747979.8054
        47.5004         39.5004
 -22505322.01348 -16926286.86246  21277481.2814   21277471.2734
        50.0004         39.7504
  -1171040.01946   -228994.78142  24251752.4304   24251740.4304
        37.2504         16.7504
  40491650.455 5                  25202855.531
        34.750
  -8620408.33947  -6430689.60644  23305077.0474   23305061.4144
        42.0004         25.5004
 -15452856.26747 -11335433.22044  22341269.2974   22341260.6374
        42.7504         28.0004
   -718563.702 6                  25265305.656
        36.500
   -982470.187 5                  25162972.703
        34.750
  -3983137.78546  -3084932.86442  24279587.8364   24279580.7584
        37.0004         17.2504
 17  9 19  2  1  0.0000000  0 12G11G31G10G14G32G18G27G22G01G25G03G08
 -12190219.36847  -8218330.50944  21992066.8524   21992053.7384
        44.7504         28.7504
 -19463820.19948 -13628595.98646  20995180.6254   20995168.4494
        49.2504         38.2504
 -12953311.00247  -9031070.51445  22238716.0554   22238706.2814
        45.0004         33.0004
 -16952611.26148 -11344209.58046  20753487.8594   20753474.8634
        48.0004         38.7504
 -22452008.42148 -16884743.79046  21287626.0944   21287616.3794
        49.0004         39.7504
  -1101721.36846   -174980.28642  24264945.0864   24264931.0354
        38.5004         17.2504
  40574972.782 5                  25218710.906
        34.000
  -8695234.06647  -6488995.35144  23290837.7974   23290823.2774
        42.0004         25.0004
 -15526058.58647 -11392473.97844  22327339.8834   22327331.2234
        43.5004         28.2504
   -766632.279 5                  25256158.188
        35.750
  -1065984.874 5                  25147079.266
        34.000
  -3910300.50446  -3028176.60342  24293448.6724   24293441.1844
        36.0004         16.7504
 17  9 19  2  1 30.0000000  0 12G11G31G10G14G32G18G27G22G01G25G03G08
 -12207212.94047  -8231572.24744  21988832.9304   21988819.8164
        45.0004         29.2504
 -19528558.85248 -13679041.66946  20982861.6884   20982848.9264
        49.7504         38.5004
 -12897752.30547  -8987778.00645  22249289.3524   22249277.8204
        45.5004         33.0004
 -16923452.24948 -11321488.26946  20759037.0084   20759023.4264
        48.0004         39.0004
 -22398484.53948 -16843036.86646  21297811.5314   21297801.4064
        49.0004         39.5004
  -1032244.07346   -120842.15242  24278164.9534   24278152.5434
        37.2504         17.2504
                                  25234531.563
        31.500
  -8770038.92647  -6547284.82544  23276602.9534   23276588.6684
        42.0004         25.0004
 -15598861.67147 -11449203.62644  22313486.7194   22313476.5354
        44.2504         27.7504
   -814386.820 5                  25247068.891
        32.000
  -1149558.796 5                  25131177.391
        35.500
  -3837354.21546  -2971335.38742  24307330.2584   24307322.5944
        36.0004         16.7504
 17  9 19  2  2  0.0000000  0 12G11G31G10G14G32G18G27G22G01G25G03G08
 -12223597.87147  -8244339.72444  21985714.9694   21985702.6174
        44.7504         29.2504
 -19592795.44948 -13729096.13146  20970637.8444   20970625.0234
        48.7504         38.0004
 -12841971.49847  -8944312.43345  22259902.9384   22259893.1644
        44.5004         32.5004
 -16894013.08947 -11298548.66246  20764639.4064   20764625.7074
        47.5004         39.0004
 -22344751.71948 -16801167.13546  21308036.5474   21308026.3634
        49.2504         40.0004
   -962607.50946    -66579.90842  24291415.3754   24291403.9614
        37.7504         16.2504
  40741104.129 5                  25250323.211
        31.500
  -8844821.78346  -6605557.19244  23262372.2344   23262357.8914
        41.5004         26.7504
 -15671262.71247 -11505619.99044  22299708.8594   22299699.8484
        43.5004         29.0004
   -861824.286 5                  25238042.438
        34.750
  -1233191.308 5                  25115261.352
        34.750
  -3764301.67645  -2914411.41642  24321230.4844   24321224.1684
        34.0004         16.7504
 17  9 19  2  2 30.0000000  0 12G11G31G10G14G32G18G27G22G01G25G03G08
 -12239373.16547  -8256632.16444  21982713.0314   21982700.3874
        45.0004         29.2504
 -19656526.52048 -13778756.66546  20958510.4064   20958497.5864
        49.2504         38.2504
 -12785967.53347  -8900672.98845  22270560.3914   22270550.4414
        43.7504         32.7504
 -16864294.79347 -11275391.52746  20770294.1804   20770281.3594
        47.5004         39.5004
 -22290810.77648 -16759135.22746  21318301.6174   21318290.6724
        50.0004         39.7504
   -892811.01146    -12193.07242  24304696.8444   24304686.4844
        36.7504         16.2504
  40823909.784 5                  25266080.930
        32.750
  -8919580.89947  -6663811.01944  23248146.7814   23248132.0864
        42.5004         25.5004
 -15743258.44947 -11561720.55644  22286009.4694   22285999.1684
        44.7504         29.0004
   -908941.215 6                  25229076.172
        36.000
  -1316881.205 6                  25099335.555
        37.000
  -3691145.10845  -2857406.30742  24335151.5394   24335145.3984
        34.7504         16.2504
 17  9 19  2  3  0.0000000  0 12G11G31G10G14G32G18G27G22G01G25G03G08
 -12254539.74347  -8268450.27744  21979827.4304   21979814.6684
        45.5004         29.2504
 -19719750.98048 -13828022.45046  20946478.9064   20946466.3794
        48.5004         38.5004
 -12729741.24347  -8856860.29845  22281259.8284   22281249.7624
        44.2504         33.0004
 -16834299.93547 -11252018.89846  20776001.9384   20775989.0594
        47.5004         38.5004
 -22236664.42748 -16716943.26746  21328605.7504   21328594.2774
        49.2504         39.7504
   -822855.65946     42317.67942  24318009.3984   24317997.9844
        38.2504         17.2504
  40906537.910 5                  25281804.695
        31.500
  -8994316.50847  -6722046.53744  23233925.1334   23233910.0274
        42.7504         28.0004
 -15814847.48747 -11617504.20544  22272386.2424   22272376.2934
        44.2504         29.7504
   -955735.819 5                  25220171.531
        34.500
  -1400629.154 5                  25083397.664
        33.750
  -3617888.47345  -2800323.24642  24349093.0394   24349085.2584
        34.7504         16.7504
 17  9 19  2  3 30.0000000  0 12G11G31G10G14G32G18G27G22G01G25G03G08
 -12269097.84547  -8279794.26945  21977056.8444   21977044.1414
        45.0004         30.0004
 -19782466.73048 -13876891.84146  20934544.1334   20934531.6054
        49.0004         38.7504
 -12673292.95547  -8812874.63845  22292002.0394   22291991.9734
        42.5004         33.2504
 -16804030.43447 -11228432.26646  20781762.0394   20781748.6914
        46.7504         39.2504
 -22182314.85648 -16674592.94846  21338947.4224   21338937.5314
        48.2504         39.5004
   -752742.07945     96951.64042  24331351.0554   24331340.5204
        34.7504         16.2504
  40988985.674 4                  25297493.828
        29.250
  -9069028.15447  -6780263.38044  23219707.0474   23219693.2894
        42.5004         27.2504
 -15886027.88147 -11672969.43745  22258841.3754   22258831.1914
        46.5004         30.0004
  -1002205.998 6                  25211329.328
        36.500
  -1484435.199 5                  25067449.984
        35.250
  -3544535.08345  -2743164.84842  24363051.6564   24363044.1684
        34.5004         16.2504
 17  9 19  2  4  0.0000000  0 12G11G31G10G14G32G18G27G22G01G25G03G08
 -12283044.89047  -8290662.10945  21974403.0784   21974390.4344
        45.2504         30.2504
 -19844669.48348 -13925361.48246  20922707.6334   20922694.6374
        49.0004         38.7504
 -12616620.16247  -8768714.02145  22302786.5314   22302775.6454
        44.5004         32.2504
 -16773485.62747 -11204631.11046  20787574.4454   20787561.5084
        46.0004         39.0004
 -22127761.44948 -16632083.79846  21349328.9144   21349318.6134
        50.2504         39.5004
   -682468.03245    151710.62442  24344723.1334   24344712.7734
        33.7504         14.7504
                                  25313147.328
        27.500
  -9143713.06647  -6838459.38844  23205495.7734   23205481.3134
        43.2504         27.5004
 -15956794.95347 -11728112.58344  22245374.8594   22245364.6174
        44.5004         29.7504
  -1048346.786 6                  25202548.234
        36.000
  -1568296.869 6                  25051492.781
        36.250
  -3471086.13345  -2685931.94342  24377027.8444   24377020.8834
        34.0004         15.5004
 17  9 19  2  4 30.0000000  0 12G11G31G10G14G32G18G27G22G01G25G03G08
 -12296383.93947  -8301056.17344  21971864.5004   21971851.8554
        44.7504         29.5004
 -19906359.53948 -13973431.63846  20910968.7894   20910955.6764
        49.2504         39.0004
 -12559725.42046  -8724380.45045  22313612.8134   22313602.6294
        41.7504         33.0004
 -16742669.99947 -11180618.92746  20793438.5394   20793425.7194
        45.7504         39.0004
 -22073008.56148 -16589419.20646  21359748.3444   21359737.5744
        48.2504         39.5004
   -612035.97045    206592.78042  24358124.8364   24358116.5864
        32.7504         16.2504
  41153334.897 4                  25328769.281
        28.000
  -9218373.10347  -6896635.99044  23191287.6414   23191273.8244
        42.2504         26.0004
 -16027149.02947 -11782933.92445  22231986.6024   22231976.8874
        44.5004         30.7504
  -1094158.108 6                  25193831.914
        37.500
  -1652216.333 6                  25035521.969
        36.250
  -3397547.03245  -2628628.80642  24391022.0944   24391014.9574
        33.5004         16.7504
 17  9 19  2  5  0.0000000  0 11G11G31G10G14G32G18G22G01G25G03G08
 -12309113.01847  -8310974.94245  21969442.3204   21969429.5004
        44.5004         30.2504
 -19967532.98248 -14021099.22946  20899327.5314   20899314.7704
        48.5004         39.5004
 -12502606.80547  -8679872.43245  22324482.2114   22324472.0274
        42.0004         33.2504
 -16711583.43547 -11156395.62546  20799354.2664   20799340.9774
        46.2504         39.5004
 -22018056.14047 -16546599.13546  21370204.9064   21370194.7814
        47.0004         39.0004
   -541444.59745    261598.96942  24371558.8984   24371548.6564
        34.7504         14.7504
  -9293005.49047  -6954791.05544  23177085.5474   23177071.7304
        42.2504         27.5004
 -16097086.00047 -11837430.25045  22218677.2664   22218668.0784
        44.2504         32.0004
  -1139635.698 6                  25185177.320
        37.000
  -1736191.584 6                  25019542.070
        37.500
  -3323919.05345  -2571256.40342  24405033.3524   24405026.3324
        33.7504         16.2504
 17  9 19  2  5 30.0000000  0 11G11G31G10G14G32G18G22G01G25G03G08
 -12321232.28947  -8320418.53645  21967135.8754   21967123.1134
        44.0004         30.0004
 -20028187.68848 -14068362.61346  20887785.0944   20887772.8594
        49.0004         38.7504
 -12445264.27947  -8635189.96645  22335394.7814   22335384.5394
        44.5004         32.7504
 -16680227.65347 -11131962.53546  20805320.9694   20805307.8554
        46.7504         38.7504
 -21962905.94248 -16503624.95746  21380699.7894   21380690.1334
        49.5004         39.2504
   -470694.01545    316729.35242  24385021.6174   24385011.8444
        34.5004         16.7504
  -9367609.50347  -7012924.04444  23162888.1954   23162874.3794
        42.5004         27.2504
 -16166603.53747 -11891599.75345  22205449.2424   22205440.1134
        43.7504         32.7504
  -1184776.827 5                  25176585.281
        34.750
  -1820222.31746  -1369593.43442  25003552.2274   25003543.0394
        38.0004         17.7504
  -3250205.60245  -2513817.43542  24419058.8364   24419052.9304
        34.5004         17.2504
 17  9 19  2  6  0.0000000  0 11G11G31G10G14G32G18G22G01G25G03G08
 -12332742.39647  -8329387.43745  21964945.7034   21964932.8834
        44.0004         30.5004
 -20088321.78848 -14115220.33646  20876342.2894   20876329.7034
        50.2504         38.7504
 -12387698.23247  -8590333.29245  22346348.4694   22346338.4024
        44.0004         32.2504
 -16648604.88447 -11107321.40846  20811338.1644   20811325.6374
        46.7504         39.0004
 -21907560.19548 -16460498.41046  21391231.7114   21391221.7624
        50.0004         39.0004
   -399784.64845    371983.35342  24398517.4534   24398505.3954
        35.0004         14.7504
  -9442185.02547  -7071034.78244  23148697.5704   23148682.8164
        43.0004         27.2504
 -16235699.86947 -11945441.03345  22192300.3674   22192290.7704
        44.5004         32.5004
  -1229579.737 5                  25168061.172
        35.000
  -1904308.70046  -1435115.22543  24987551.8364   24987542.4734
        37.2504         18.2504
  -3176410.15845  -2456314.54842  24433102.7114   24433096.2194
        35.2504         17.7504
 17  9 19  2  6 30.0000000  0 11G11G31G10G14G32G18G22G01G25G03G08
 -12343643.61447  -8337881.90145  21962871.3524   21962858.4734
        45.0004         30.5004
 -20147934.10148 -14161671.46246  20864998.3524   20864985.7074
        50.5004         39.2504
 -12329909.03147  -8545302.75245  22357345.7584   22357335.4574
        43.0004         31.7504
 -16616717.35247 -11082473.96746  20817406.5314   20817393.6524
        46.5004         39.0004
 -21852021.05248 -16417221.13946  21401800.7274   21401790.0164
        49.2504         38.5004
   -328717.56246    427360.30142  24412041.2114   24412029.4454
        36.2504         14.7504
  -9516731.63347  -7129123.03044  23134511.4064   23134497.5314
        42.5004         26.2504
 -16304373.14747 -11998952.66845  22179232.6094   22179223.1884
        44.5004         31.7504
  -1274042.120 5                  25159599.734
        34.750
  -1988450.80646  -1500680.50742  24971539.4694   24971531.1024
        37.2504         15.5004
  -3102536.38045  -2398750.60442  24447160.5704   24447153.7854
        35.0004         17.2504
 17  9 19  2  7  0.0000000  0 11G11G31G10G14G32G18G22G01G25G03G08
 -12353935.21547  -8345901.32044  21960912.9614   21960900.4344
        45.5004         29.5004
 -20207021.39148 -14207713.49346  20853754.3444   20853741.7584
        50.5004         39.0004
 -12271895.53547  -8500097.42345  22368385.6644   22368374.8364
        43.5004         30.7504
 -16584565.40747 -11057420.49746  20823524.6334   20823511.9304
        47.5004         38.5004
 -21796289.25448 -16373793.76146  21412405.6724   21412395.4304
        50.2504         39.0004
   -257491.48546    482861.07042  24425595.1024   24425583.2194
        37.5004         16.2504
  -9591247.66147  -7187187.42644  23120332.2114   23120317.5164
        43.2504         26.5004
 -16372620.07647 -12052132.08545  22166245.6024   22166235.7114
        44.7504         33.0004
  -1318160.440 5                  25151203.039
        33.500
  -2072647.26546  -1566288.09843  24955517.2424   24955509.2274
        39.0004         18.2504
  -3028586.12846  -2341127.09843  24461234.2814   24461225.7384
        38.2504         19.0004
 17  9 19  2  7 30.0000000  0 11G11G31G10G14G32G18G22G01G25G03G08
 -12363616.66847  -8353445.30445  21959070.4384   21959057.6174
        45.0004         31.2504
 -20265581.08348 -14253344.38946  20842610.5784   20842597.9344
        49.5004         39.5004
 -12213657.24747  -8454716.94045  22379468.0164   22379457.5984
        45.0004         32.0004
 -16552150.34247 -11032161.99546  20829693.0634   20829680.2424
        47.5004         39.5004
 -21740365.95748 -16330217.16446  21423047.7034   21423037.2854
        49.2504         38.5004
   -186106.26446    538485.98542  24439178.5784   24439167.8674
        37.2504         16.7504
  -9665731.89347  -7245227.06844  23106158.3204   23106143.3324
        43.2504         26.5004
 -16440437.87547 -12104977.10445  22153340.6094   22153330.6604
        44.7504         33.0004
  -1361931.707 5                  25142874.422
        33.500
  -2156897.29746  -1631937.38342  24939485.3834   24939476.4304
        38.0004         17.7504
  -2954562.39646  -2283446.30243  24475318.1024   24475312.2544
        36.2504         18.2504
 17  9 19  2  8  0.0000000  0 11G11G31G10G14G32G18G22G01G25G03G08
 -12372686.36047  -8360512.58545  21957344.4224   21957331.6024
        44.5004         30.7504
 -20323608.85948 -14298560.80946  20831568.7584   20831555.6454
        50.0004         39.2504
 -12155191.95647  -8409159.55245  22390592.7424   22390583.3794
        44.7504         32.7504
 -16519471.77048 -11006698.16746  20835911.8674   20835898.8714
        48.5004         39.0004
 -21684250.79548 -16286491.05646  21433725.7814   21433715.4804
        49.2504         38.0004
   -114559.81645    594236.40242  24452792.4224   24452782.8834
        35.2504         16.2504
  -9740181.08147  -7303239.39944  23091991.7734   23091976.4924
        44.0004         26.2504
 -16507822.18447 -12157484.34045  22140517.5234   22140507.8094
        45.0004         33.0004
                                  25134610.367
        31.750
  -2241198.40146  -1697626.50243  24923444.1254   24923434.4104
        37.7504         18.5004
  -2880465.59746  -2225708.60543  24489419.4924   24489412.5314
        37.7504         19.7504
 17  9 19  2  8 30.0000000  0 11G11G31G10G14G32G18G22G01G25G03G08
 -12381152.59847  -8367109.65245  21955733.7504   21955721.2234
        44.5004         30.0004
 -20381110.84148 -14343367.52346  20820626.2664   20820613.5044
        49.5004         39.0004
 -12096507.86947  -8363431.69345  22401759.6174   22401750.4304
        44.0004         31.5004
 -16486539.69247 -10981036.80846  20842178.6804   20842165.7424
        47.7504         39.0004
 -21627953.70048 -16242623.18446  21444438.8444   21444428.7774
        49.5004         38.5004
    -42860.87145    650105.74042  24466436.4924   24466426.0744
        35.2504         16.7504
  -9814603.32147  -7361230.73544  23077829.0084   23077813.9614
        44.5004         26.0004
 -16574778.99647 -12209658.46345  22127775.9384   22127766.1054
        43.2504         32.2504
    126995.355 5                  25126415.508
        32.250
  -2325558.52245  -1763361.58843  24907389.6334   24907381.5004
        34.0004         18.2504
  -2806307.63046  -2167923.23843  24503531.7194   24503524.2304
        37.7504         18.5004
 17  9 19  2  9  0.0000000  0 11G11G31G10G14G32G18G22G01G25G03G08
 -12389006.86647  -8373229.84144  21954239.2344   21954225.9454
        44.5004         29.2504
 -20438076.22148 -14387756.10246  20809786.2274   20809773.2894
        50.7504         39.2504
 -12037595.95047  -8317526.33745  22412970.1564   22412960.6764
        44.5004         31.5004
 -16453346.84747 -10955172.25246  20848494.4304   20848481.9024
        47.7504         39.0004
 -21571467.51248 -16198607.96746  21455188.1414   21455177.4884
        49.0004         39.0004
     28999.49546    706100.81742  24480112.4144   24480101.1174
        36.7504         15.5004
  -9888988.35447  -7419193.07844  23063673.6484   23063659.7734
        43.2504         27.0004
 -16641297.19547 -12261490.81545  22115117.3444   22115108.3324
        43.7504         31.7504
     84279.224 5                  25118287.953
        35.000
  -2409968.39845  -1829135.37642  24891327.1414   24891319.0084
        35.0004         16.7504
  -2732082.14846  -2110085.24543  24517657.1724   24517648.6884
        39.0004         19.7504
 17  9 19  2  9 30.0000000  0 11G11G31G10G14G32G18G22G01G25G03G08
 -12396252.84847  -8378876.05545  21952860.0164   21952847.6644
        45.2504         30.0004
 -20494506.93648 -14431728.06546  20799047.4384   20799034.6174
        50.0004         39.2504
 -11978459.96547  -8271446.34145  22424224.2894   22424213.6954
        45.0004         30.5004
 -16419898.74148 -10929108.78446  20854859.8834   20854846.4774
        48.5004         39.5004
 -21514797.56948 -16154449.56446  21465971.6024   21465961.4184
        48.5004         38.0004
    101017.20846    762218.42042  24493816.6804   24493805.7934
        36.5004         14.7504
  -9963338.88747  -7477128.53344  23049524.8204   23049510.7114
        44.5004         26.2504
 -16707378.26847 -12312982.53445  22102542.7894   22102532.7814
        44.7504         31.7504
     41919.257 6                  25110226.766
        36.250
  -2494431.32545  -1894950.64742  24875254.5784   24875246.6804
        34.7504         16.2504
  -2657796.45746  -2052200.35543  24531792.7584   24531785.3874
        37.7504         19.5004
 17  9 19  2 10  0.0000000  0 11G11G31G10G14G32G18G22G01G25G03G08
 -12402889.13847  -8384047.18445  21951597.2274   21951583.9384
        44.7504         30.0004
 -20550398.95148 -14475280.26346  20788411.8444   20788398.7894
        51.2504         39.0004
 -11919097.93047  -8225190.19945  22435520.1094   22435510.2774
        45.5004         31.5004
 -16386195.13647 -10902846.22446  20861273.6254   20861260.5704
        47.7504         39.2504
 -21457943.73748 -16110147.87846  21476790.5554   21476780.3714
        48.7504         39.0004
    173194.17446    818460.19742  24507551.9844   24507539.8674
        36.7504         16.2504
 -10037652.81747  -7535035.45944  23035383.8914   23035369.4304
        43.7504         27.0004
 -16773018.11447 -12364130.45545  22090054.2894   22090043.1684
        44.7504         31.5004
       -80.272 6                  25102233.750
        37.250
  -2578945.02045  -1960805.44042  24859170.3984   24859164.5514
        35.0004         16.2504
  -2583451.77046  -1994269.46843  24545940.9614   24545932.6524
        38.7504         19.5004
 17  9 19  2 10 30.0000000  0 11G11G31G10G14G32G18G22G01G25G03G08
 -12408917.17447  -8388744.34345  21950449.9694   21950436.8554
        45.0004         30.0004
 -20605751.50248 -14518412.09346  20777878.6024   20777865.3714
        50.7504         39.0004
 -11859510.89647  -8178758.72845  22446859.8914   22446849.1804
        42.2504         31.0004
 -16352238.72748 -10876386.67546  20867735.0164   20867722.0784
        48.0004         39.0004
 -21400908.75047 -16065705.02846  21487643.9774   21487633.9104
        47.5004         38.7504
    245528.96346    874825.02042  24521316.4924   24521305.4884
        36.5004         15.5004
 -10111930.26347  -7592913.95444  23021250.6174   23021234.9844
        45.2504         28.0004
 -16838215.54747 -12414933.62845  22077646.7194   22077636.6524
        44.7504         32.5004
    -41717.885 6                  25094310.633
        39.000
  -2663510.24446  -2026700.34243  24843078.8134   24843071.0314
        36.2504         18.2504
  -2509051.88546  -1936295.60743  24560097.5554   24560090.7704
        38.2504         20.0004
 17  9 19  2 11  0.0000000  0 11G11G31G10G14G32G18G22G01G25G03G08
 -12414336.04147  -8392966.83145  21949419.0084   21949405.7774
        44.5004         30.5004
 -20660561.48948 -14561121.15546  20767448.5704   20767435.5164
        50.7504         39.5004
 -11799697.57947  -8132150.95845  22458241.2974   22458231.4064
        45.5004         31.0004
 -16318029.82447 -10849730.39046  20874245.1414   20874232.0274
        47.5004         39.0004
 -21343693.01648 -16021121.33246  21498531.9774   21498521.5594
        48.2504         39.0004
    318022.25846    931313.20542  24535111.1884   24535100.3594
        37.0004         14.7504
 -10186168.79547  -7650762.13744  23007122.2974   23007107.8954
        44.0004         27.2504
 -16902967.17747 -12465389.42945  22065323.9844   22065313.7424
        43.5004         31.0004
    -82989.99146   -520144.43942  25086455.6414   25086445.8674
        38.7504         17.2504
  -2748125.21345  -2092634.02442  24826977.3204   24826968.9534
        34.5004         16.2504
  -2434598.63746  -1878280.15643  24574266.9224   24574258.2034
        39.5004         20.0004
 17  9 19  2 11 30.0000000  0 11G11G31G10G14G32G18G22G01G25G03G08
 -12419147.01947  -8396715.64244  21948503.1644   21948490.6954
        44.0004         29.5004
 -20714827.87248 -14603406.62246  20757122.0084   20757109.3054
        50.0004         39.7504
 -11739658.95447  -8085367.62645  22469666.7734   22469656.4144
        45.0004         31.2504
 -16283571.26547 -10822879.55446  20880801.6414   20880789.0554
        46.2504         39.0004
 -21286299.23148 -15976398.90546  21509453.7734   21509443.4734
        48.0004         39.0004
    390673.27045    987924.39042  24548936.4454   24548925.5004
        35.5004         16.2504
 -10260368.67547  -7708580.19844  22993002.3984   22992987.7034
        43.2504         28.2504
 -16967271.84247 -12515496.94745  22053087.2424   22053077.2934
        43.5004         32.2504
   -123895.07046   -552018.50042  25078672.7734   25078662.5314
        39.5004         15.5004
  -2832790.75045  -2158607.12542  24810865.0784   24810857.8834
        33.5004         16.7504
  -2360096.08446  -1820226.26743  24588444.4694   24588436.1604
        39.0004         20.5004
 17  9 19  2 12  0.0000000  0 11G11G31G10G14G32G18G22G01G25G03G08
 -12423350.43547  -8399991.00644  21947703.2974   21947690.4774
        42.5004         29.7504
 -20768548.62848 -14645266.92146  20746898.7584   20746886.3484
        51.0004         39.0004
 -11679394.70747  -8038408.47445  22481134.2504   22481124.3594
        45.7504         31.7504
 -16248864.59647 -10795835.39146  20887406.2974   20887393.5944
        47.5004         39.0004
 -21228728.78548 -15931538.80746  21520408.9614   21520398.6604
        48.7504         38.7504
    463481.98045   1044658.42542  24562790.6954   24562780.9224
        34.5004         14.7504
 -10334528.90047  -7766367.36344  22978889.8914   22978875.4884
        43.2504         28.5004
 -17031127.05647 -12565254.25245  22040934.9224   22040925.4414
        42.5004         30.5004
   -164430.47046   -583604.45142  25070958.6254   25070949.7304
        39.2504         16.7504
  -1342086.02345   -997018.91942  24794744.9614   24794737.0044
        34.5004         16.7504
  -2285547.38746  -1762136.40543  24602629.6174   24602622.5984
        38.7504         20.2504
 17  9 19  2 12 30.0000000  0 11G11G31G10G14G32G18G22G01G25G03G08
 -12426946.45947  -8402793.11145  21947018.1254   21947007.0634
        43.0004         30.2504
 -20821721.76748 -14686700.51646  20736780.4844   20736767.5474
        49.7504         39.7504
 -11618904.76647  -7991273.44645  22492645.1024   22492635.0354
        44.5004         31.0004
 -16213911.39447 -10768599.12546  20894057.8984   20894044.7854
        46.2504         38.7504
 -21170983.24948 -15886542.27846  21531398.0704   21531387.4184
        48.7504         39.0004
    536448.275 5                  24576675.031
        35.500
 -10408648.58347  -7824122.92444  22964784.8284   22964771.9494
        42.5004         28.0004
 -17094530.58647 -12614659.57945  22028869.2734   22028860.2034
        43.0004         30.7504
   -204593.72146   -614900.45642  25063315.4224   25063306.7034
        39.0004         16.7504
  -1426850.47145  -1063069.11142  24778616.1094   24778606.3364
        34.7504         14.7504
  -2210954.94746  -1704012.48843  24616825.0234   24616816.7734
        39.0004         19.7504
 17  9 19  2 13  0.0000000  0 11G11G31G10G14G32G18G22G01G25G03G08
 -12429935.93547  -8405122.56244  21946449.8284   21946437.4184
        43.0004         29.7504
 -20874345.63948 -14727706.10246  20726765.8594   20726753.6254
        50.5004         40.0004
 -11558189.42147  -7943962.80545  22504198.5164   22504188.2154
        44.2504         31.5004
 -16178713.57747 -10741172.25046  20900755.4384   20900743.1454
        46.2504         38.7504
 -21113064.58048 -15841410.84646  21542418.7274   21542409.1884
        49.0004         38.7504
    609571.513 5                  24590591.672
        35.250
 -10482727.24347  -7881846.53544  22950689.0634   22950675.0124
        43.5004         28.2504
 -17157480.61647 -12663711.54245  22016890.4534   22016881.2074
        42.2504         30.2504
   -244382.75746   -645904.86642  25055744.3524   25055735.5164
        39.5004         17.2504
  -1511664.15246  -1129157.63542  24762477.6564   24762466.3014
        37.5004         16.2504
  -2136322.76846  -1645857.59943  24631026.2974   24631018.5744
        38.5004         21.0004
 17  9 19  2 13 30.0000000  0 11G11G31G10G14G32G18G22G01G25G03G08
 -12432318.55347  -8406979.13845  21945996.7584   21945984.4064
        45.0004         30.0004
 -20926417.75148 -14768281.75146  20716857.5004   20716844.3874
        50.5004         39.7504
 -11497247.81847  -7896475.83645  22515795.3524   22515785.5204
        43.7504         30.0004
 -16143271.84147 -10713555.30146  20907499.9224   20907487.3364
        46.5004         38.5004
 -21054973.63248 -15796145.16546  21553473.4774   21553463.2344
        49.0004         38.7504
    682852.009 5                  24604535.805
        33.500
 -10556762.81747  -7939536.57844  22936600.7424   22936585.7544
        44.2504         27.7504
 -17219974.15947 -12712407.79145  22004998.2814   22004989.2704
        43.5004         30.5004
   -283794.36146   -676615.19542  25048244.6884   25048235.3244
        37.5004         16.7504
  -1596525.62246  -1195283.41942  24746328.4144   24746318.5824
        36.5004         17.7504
  -2061652.75346  -1587673.21643  24645235.6254   24645228.0784
        38.2504         20.0004
 17  9 19  2 14  0.0000000  0 11G11G31G10G14G32G18G22G01G25G03G08
 -12434094.59947  -8408363.07644  21945658.1884   21945646.4224
        44.2504         29.0004
 -20977935.99848 -14808425.81646  20707053.9224   20707040.9264
        51.2504         39.0004
 -11436079.48847  -7848812.20745  22527435.0784   22527425.3054
        43.2504         31.5004
 -16107587.43347 -10685749.27346  20914290.5234   20914277.6454
        47.0004         38.7504
 -20996711.53148 -15750746.12446  21564560.7664   21564550.1724
        49.0004         38.5004
    756289.885 5                  24618510.938
        34.750
 -10630754.25047  -7997192.22644  22922520.7504   22922505.3524
        44.2504         28.2504
 -17282008.63047 -12760746.33245  21993194.3204   21993184.8984
        44.0004         30.7504
   -322825.70246   -707029.15542  25040817.2034   25040808.6604
        37.2504         17.2504
  -1681434.10845  -1261445.82842  24730170.5704   24730160.9734
        35.0004         16.7504
  -1986947.39746  -1529461.30443  24659451.3134   24659444.2344
        38.0004         19.7504
 17  9 19  2 14 30.0000000  0 11G11G31G10G14G32G18G22G01G25G03G08
 -12435264.16647  -8409274.43744  21945436.0784   21945423.7274
        43.5004         29.7504
 -21028898.36848 -14848136.73546  20697356.0554   20697343.0594
        50.7504         39.5004
 -11374684.39047  -7800971.88545  22539119.0704   22539108.3014
        42.5004         31.2504
 -16071662.31647 -10657755.67446  20921126.8134   20921114.0514
        46.5004         38.7504
 -20938279.85948 -15705214.94946  21575679.4774   21575669.2934
        48.0004         39.0004
    829885.281 5                  24632515.430
        34.000
 -10704700.33447  -8054812.51744  22908448.6094   22908434.7344
        43.5004         27.0004
 -17343581.88547 -12808725.47345  21981476.8284   21981467.6414
        43.0004         31.5004
   -361474.34645   -737144.90742  25033461.2974   25033454.5704
        35.5004         17.2504
  -1766389.05045  -1327644.38842  24714004.6724   24713994.4304
        35.5004         17.2504
  -1912210.05346  -1471224.44743  24673672.8054   24673665.9614
        37.7504         18.5004
 17  9 19  2 15  0.0000000  0 11G11G31G10G14G32G18G22G01G25G03G08
 -12435828.72347  -8409714.35044  21945329.3364   21945316.1644
        44.2504         29.0004
 -21079303.87748 -14887413.73646  20687764.4844   20687751.4884
        51.2504         39.5004
 -11313063.19447  -7752955.37645  22550844.3524   22550834.4024
        43.5004         30.0004
 -16035498.50748 -10629576.06846  20928008.4454   20927995.8014
        48.2504         39.0004
 -20879680.85848 -15659553.39346  21586830.8204   21586820.2274
        49.2504         38.7504
    903637.139 5                  24646550.023
        34.250
 -10778600.86747  -8112397.32944  22894385.7274   22894371.0904
        43.2504         27.0004
 -17404692.38447 -12856344.04345  21969848.1884   21969839.0594
        43.7504         31.2504
   -399738.61046   -766961.17942  25026180.8054   25026172.2624
        36.7504         16.7504
  -1851390.55545  -1393879.26642  24697827.5864   24697819.5704
        34.0004         17.2504
  -1837444.20846  -1412965.44643  24687900.9454   24687892.9884
        37.5004         19.0004
 17  9 19  2 15 30.0000000  0 11G11G31G10G14G32G18G22G01G25G03G08
 -12435788.26247  -8409682.83444  21945336.2584   21945324.1414
        43.5004         29.5004
 -21129150.34448 -14926255.11446  20678278.6024   20678265.3134
        52.2504         39.0004
 -11251215.48847  -7704762.34244  22562613.7114   22562603.6454
        43.5004         29.7504
 -15999097.36448 -10601211.54246  20934936.0004   20934922.8284
        49.2504         39.0004
 -20820915.78148 -15613762.42146  21598013.2424   21598002.5904
        49.7504         37.5004
    977545.909 5                  24660614.734
        35.250
 -10852454.94547  -8169945.93744  22880331.7114   22880317.4264
        43.7504         26.0004
 -17465337.68647 -12903600.10845  21958307.2814   21958298.2114
        44.0004         31.0004
   -437615.77846   -796475.78542  25018973.6094   25018964.6564
        36.0004         16.2504
  -1936437.82445  -1460149.72642  24681643.0864   24681635.7734
        32.7504         14.7504
  -1762652.62746  -1354686.31543  24702133.0234   24702125.7114
        37.5004         19.5004
 17  9 19  2 16  0.0000000  0 11G11G31G10G14G32G18G22G01G25G03G08
 -12435143.71847  -8409180.59244  21945459.7344   21945447.0904
        43.7504         29.0004
 -21178436.07248 -14964659.55946  20668899.6174   20668886.7384
        52.0004         39.0004
 -11189141.33747  -7656392.89244  22574426.3674   22574415.8324
        42.5004         29.7504
 -15962460.38148 -10572663.22546  20941907.5164   20941894.1094
        48.7504         38.5004
 -20761986.32248 -15567843.36046  21609227.1334   21609216.7734
        49.0004         38.7504
   1051610.745 5                  24674707.500
        32.500
 -10926261.26447  -8227457.31644  22866286.6644   22866272.3794
        43.2504         26.5004
 -17525515.81247 -12950492.13445  21946856.0554   21946846.5164
        44.5004         31.0004
   -475103.61045   -825687.08842  25011838.6254   25011830.5514
        35.0004         16.7504
  -2021530.47845  -1526455.63242  24665450.5164   24665442.3834
        33.5004         15.5004
  -1687838.27046  -1296389.47143  24716370.2734   24716362.3164
        37.5004         19.0004
 17  9 19  2 16 30.0000000  0 11G11G31G10G14G32G18G22G01G25G03G08
 -12433895.56447  -8408208.00345  21945697.3594   21945684.3054
        44.0004         30.7504
 -21227159.01848 -15002625.46546  20659628.1094   20659615.3484
        51.7504         39.5004
 -11126840.52347  -7607846.79045  22586281.5004   22586271.9024
        42.5004         30.0004
 -15925589.09448 -10543932.34646  20948923.9384   20948910.8244
        48.7504         38.7504
 -20702893.72248 -15521797.17646  21620471.9144   21620462.0824
        49.5004         38.0004
   1125831.682 5                  24688830.922
        31.000
 -11000018.69947  -8284930.62244  22852251.4694   22852236.3634
        42.7504         27.0004
 -17585224.30847 -12997018.22445  21935493.9924   21935484.3364
        43.5004         31.5004
   -512199.47346   -854592.87542  25004780.1484   25004771.3134
        37.0004         16.7504
  -2106667.65945  -1592796.25142  24649250.2894   24649241.8634
        35.2504         16.2504
  -1613003.92246  -1238077.07843  24730611.1174   24730603.3364
        36.2504         19.2504
 17  9 19  2 17  0.0000000  0 11G11G31G10G14G32G18G22G01G25G03G08
 -12432044.80547  -8406765.85144  21946048.6254   21946036.4494
        44.5004         29.0004
 -21275318.46148 -15040152.27746  20650463.4924   20650450.7894
        52.0004         40.2504
 -11064313.53047  -7559124.45844  22598180.0164   22598170.9454
        43.0004         29.7504
 -15888485.79348 -10515020.67046  20955984.2504   20955971.2544
        48.2504         38.0004
 -20643640.11348 -15475625.53546  21631747.9224   21631737.4454
        49.5004         38.0004
   1200208.285 5                  24702984.281
        30.500
 -11073726.82047  -8342365.48844  22838225.5704   22838209.8204
        43.0004         26.0004
 -17644461.71547 -13043177.23545  21924220.9844   21924211.6804
        44.0004         31.7504
   -548901.64946   -883191.91642  24997795.7814   24997786.8284
        36.7504         16.7504
  -2191849.42545  -1659171.62142  24633040.0084   24633031.4064
        33.5004         16.7504
  -1538153.19245  -1179751.88143  24744854.5394   24744847.4024
        35.5004         18.2504
 17  9 19  2 17 30.0000000  0 11G11G31G10G14G32G18G22G01G25G03G08
 -12429588.99647  -8404852.24244  21946516.5394   21946503.6024
        42.5004         29.5004
 -21322909.47548 -15077236.16646  20641407.5004   20641394.6804
        52.2504         40.0004
 -11001557.54747  -7510223.70144  22610122.4614   22610113.0394
        44.0004         29.7504
 -15851149.29448 -10485927.29246  20963088.8284   20963075.9494
        48.7504         38.0004
 -20584224.26348 -15429327.46946  21643054.1954   21643044.0124
        50.0004         38.2504
   1274742.843 5                  24717166.625
        30.000
 -11147382.02647  -8399759.13644  22824208.2114   22824193.9844
        42.7504         26.0004
 -17703223.04147 -13088965.27745  21913039.7894   21913029.7234
        44.5004         33.5004
   -585204.88646   -911480.03642  24990888.8594   24990878.0314
        37.7504         16.7504
  -2277072.362 5                  24616821.266
        30.750
  -1463285.81045  -1121413.68143  24759101.2424   24759093.9304
        35.2504         19.2504
