     2.11           OBSERVATION DATA    G (GPS)             RINEX VERSION / TYPE
teqc  2017Sep15     UNAVCO Archive Ops  20170920 11:49:55UTCPGM / RUN BY / DATE
Solaris x86 5.10|AMD64|cc SC5.8 -xarch=amd64|=+|=+          COMMENT
BIT 2 OF LLI FLAGS DATA COLLECTED UNDER A/S CONDITION       COMMENT
TORP                                                        MARKER NAME
49912M001                                                   MARKER NUMBER
Ken Hudnut          U.S. Geological Survey                  OBSERVER / AGENCY
618-01074           TPS NET-G3A         4.7 Oct,18,2016 p2  REC # / TYPE / VERS
383-1827            TPSCR.G3        SCIS                    ANT # / TYPE
 -2517894.5535 -4670259.8838  3527827.6264                  APPROX POSITION XYZ
        0.1145        0.0000        0.0000                  ANTENNA: DELTA H/E/N
     1     1                                                WAVELENGTH FACT L1/2
     7    L1    L2    C1    P2    P1    S1    S2            # / TYPES OF OBSERV
    30.0000                                                 INTERVAL
    18                                                      LEAP SECONDS
input file: torp201709190000a.tps                           COMMENT
Forced Modulo Decimation to 30 seconds                      COMMENT
RINEX file created by UNAVCO GPS Archive.                   COMMENT
For more information contact archive-gps@unavco.org         COMMENT
Monument ID: 19537                                          COMMENT
UNAVCO 4-char name:   TORP                                  COMMENT
4-char name from Log or data file: TORP                     COMMENT
Monument location: 33.79779809 -118.33060363 -5.2156        COMMENT
Visit ID: 118238                                            COMMENT
doi:10.7283/T5251GF5                                        COMMENT
End of DB comments                                          COMMENT
 SNR is mapped to RINEX snr flag value [0-9]                COMMENT
  L1 & L2: min(max(int(snr_dBHz/6), 0), 9)                  COMMENT
pseudorange smoothing corrections not applied               COMMENT
rx serial #: 618-01074                                      COMMENT
  2017     9    19     0     0    0.0000000     GPS         TIME OF FIRST OBS
                                                            END OF HEADER
 17  9 19  0  0  0.0000000  0  8G32G10G18G27G21G24G14G08
 109016215.759 8  84947707.21847  20745079.298    20745080.110    20745079.072
        53.000          46.0004
 109237471.926 8  85120131.09747  20787189.068    20787189.688    20787188.706
        52.000          44.0004
 114848747.276 8  89492544.78446  21854980.104    21854977.721    21854979.336
        49.000          36.0004
 114061591.420 7  88879171.73046  21705195.186    21705195.957    21705194.636
        47.000          39.0004
 117287527.895 7  91392881.62645  22319069.674    22319068.262    22319068.675
        47.000          34.0004
 123940835.487 6  96577283.37144  23585150.060    23585152.013    23585149.663
        41.000          27.0004
 113179446.820 7  88191785.59146  21537320.752    21537319.309    21537319.699
        47.000          38.0004
 119617961.637 7  93208807.20545  22762538.389    22762540.061    22762537.869
        44.000          31.0004
 17  9 19  0  0 30.0000000  0  8G32G10G18G27G21G24G14G08
 108965296.368 8  84908029.79147  20735389.427    20735390.407    20735389.412
        53.000          46.0004
 109238732.292 6  85121113.18445  20787428.912    20787429.449    20787428.497
        40.000          35.0004
 114878982.652 7  89516104.81246  21860733.500    21860731.476    21860732.707
        47.000          36.0004
 114093217.725 8  88903815.58746  21711213.566    21711214.218    21711212.907
        48.000          39.0004
 117341231.225 7  91434728.34745  22329289.282    22329287.749    22329288.058
        46.000          34.0004
 123957162.757 6  96590005.92044  23588256.637    23588259.070    23588256.839
        41.000          27.0004
 113102145.610 7  88131550.91046  21522610.418    21522609.174    21522609.731
        47.000          37.0004
 119583285.465 7  93181786.81045  22755939.737    22755941.298    22755939.094
        44.000          31.0004
 17  9 19  0  1  0.0000000  0  8G32G10G18G27G21G24G14G08
 108914863.199 8  84868731.23347  20725792.502    20725793.304    20725792.311
        53.000          46.0004
 109240166.712 8  85122230.92247  20787701.860    20787702.492    20787701.474
        53.000          45.0004
 114909302.877 8  89539730.95846  21866503.544    21866501.236    21866502.545
        49.000          36.0004
 114125351.842 7  88928855.13946  21717328.388    21717329.251    21717327.857
        47.000          39.0004
 117395276.423 7  91476841.45945  22339573.715    22339572.249    22339572.589
        47.000          34.0004
 123974032.182 6  96603150.93144  23591467.280    23591469.251    23591466.927
        40.000          27.0004
 113025241.268 8  88071625.47646  21507976.179    21507974.901    21507975.372
        48.000          38.0004
 119549160.504 7  93155195.93345  22749445.794    22749447.621    22749445.585
        43.000          31.0004
 17  9 19  0  1 30.0000000  0  8G32G10G18G27G21G24G14G08
 108864919.096 8  84829813.76147  20716288.460    20716289.244    20716288.242
        51.000          46.0004
 109241777.301 8  85123485.92547  20788008.208    20788008.911    20788007.975
        51.000          45.0004
 114939711.053 8  89563425.63646  21872290.043    21872287.826    21872289.109
        48.000          36.0004
 114157994.198 8  88954290.72546  21723540.025    21723540.870    21723539.410
        48.000          39.0004
 117449665.563 7  91519222.57745  22349923.377    22349922.177    22349922.577
        47.000          34.0004
 123991444.816 6  96616719.22144  23594780.369    23594782.481    23594780.456
        41.000          27.0004
 112948737.565 8  88012012.22746  21493417.936    21493416.637    21493417.204
        48.000          38.0004
 119515589.487 7  93129036.70245  22743057.574    22743059.333    22743056.933
        44.000          31.0004
 17  9 19  0  2  0.0000000  0  8G32G10G18G27G21G24G14G08
 108815462.142 8  84791275.88947  20706876.836    20706877.857    20706876.896
        52.000          46.0004
 109243561.376 8  85124876.11447  20788347.693    20788348.438    20788347.426
        51.000          44.0004
 114970205.568 8  89587186.81046  21878092.801    21878090.396    21878091.880
        48.000          36.0004
 114191140.382 8  88980118.89946  21729847.669    21729848.366    21729846.972
        49.000          39.0004
 117504395.262 7  91561869.06745  22360338.412    22360336.852    22360337.319
        46.000          33.0004
 124009397.822 6  96630708.58644  23598196.815    23598198.620    23598196.695
        41.000          26.0004
 112872633.392 8  87952710.30146  21478935.980    21478934.511    21478935.049
        49.000          38.0004
 119482570.470 7  93103307.59845  22736774.232    22736776.015    22736773.706
        44.000          31.0004
 17  9 19  0  2 30.0000000  0  8G32G10G18G27G21G24G14G08
 108766495.377 8  84753119.98247  20697558.974    20697559.791    20697558.808
        53.000          46.0004
 109245521.334 8  85126403.35747  20788720.723    20788721.401    20788720.402
        53.000          45.0004
 115000787.337 7  89611016.75146  21883912.439    21883909.967    21883911.417
        47.000          36.0004
 114224790.995 7  89006340.13846  21736251.116    21736251.969    21736250.439
        46.000          39.0004
 117559467.720 7  91604782.63545  22370818.041    22370816.930    22370817.397
        47.000          33.0004
 124027893.680 6  96645120.95144  23601716.216    23601718.616    23601716.498
        41.000          26.0004
 112796932.725 8  87893722.79246  21464530.574    21464529.193    21464529.667
        49.000          38.0004
 119450106.524 7  93078011.01745  22730596.522    22730598.432    22730596.088
        44.000          31.0004
 17  9 19  0  3  0.0000000  0  8G32G10G18G27G21G24G14G08
 108718018.701 9  84715345.96147  20688334.048    20688334.945    20688333.986
        54.000          46.0004
 109247656.348 8  85128067.00247  20789126.962    20789127.683    20789126.682
        52.000          45.0004
 115031456.939 7  89634915.13646  21889748.382    21889746.313    21889747.771
        47.000          36.0004
 114258943.500 8  89032952.45946  21742750.101    21742750.745    21742749.497
        49.000          39.0004
 117614882.500 7  91647962.95545  22381363.482    22381361.755    22381362.401
        45.000          33.0004
 124046931.603 6  96659955.69744  23605339.162    23605341.316    23605339.027
        41.000          26.0004
 112721636.231 8  87835050.22746  21450202.009    21450200.528    21450201.286
        49.000          38.0004
 119418198.083 7  93053147.29745  22724524.643    22724526.179    22724524.078
        44.000          31.0004
 17  9 19  0  3 30.0000000  0  8G32G10G18G27G21G24G14G08
 108670028.912 8  84677951.33147  20679201.860    20679202.828    20679201.829
        53.000          46.0004
 109249962.607 8  85129864.08547  20789565.884    20789566.639    20789565.553
        53.000          45.0004
 115062210.693 8  89658879.09146  21895600.804    21895598.415    21895599.762
        48.000          36.0004
 114293592.212 8  89059951.43646  21749343.618    21749344.454    21749342.800
        49.000          39.0004
 117670634.531 7  91691406.06845  22391972.693    22391971.119    22391971.572
        46.000          33.0004
 124066507.270 6  96675209.46244  23609064.347    23609066.655    23609064.372
        40.000          26.0004
 112646741.432 8  87776690.66946  21435950.189    21435948.596    21435949.171
        48.000          38.0004
 119386841.602 7  93028713.67445  22718557.457    22718559.074    22718557.099
        43.000          31.0004
 17  9 19  0  4  0.0000000  0  8G32G10G18G27G21G24G14G08
 108622527.986 8  84640937.63847  20670162.730    20670163.628    20670162.588
        53.000          46.0004
 109252441.589 8  85131795.75747  20790037.546    20790038.253    20790037.370
        52.000          45.0004
 115093050.497 7  89682910.10446  21901469.232    21901467.100    21901468.507
        47.000          36.0004
 114328736.653 8  89087336.69646  21756031.152    21756032.278    21756030.690
        48.000          39.0004
 117726725.163 7  91735113.01845  22402646.556    22402644.730    22402645.402
        45.000          33.0004
 124086621.956 6  96690883.24344  23612891.862    23612894.361    23612892.021
        41.000          26.0004
 112572251.033 8  87718646.22846  21421775.086    21421773.583    21421774.212
        48.000          38.0004
 119356039.217 7  93004711.81345  22712696.205    22712697.880    22712695.708
        43.000          31.0004
 17  9 19  0  4 30.0000000  0  8G32G10G18G27G21G24G14G08
 108575519.745 8  84604307.85247  20661217.404    20661218.242    20661217.267
        52.000          47.0004
 109255096.236 8  85133864.31447  20790542.744    20790543.396    20790542.486
        51.000          45.0004
 115123979.866 7  89707010.90645  21907355.085    21907352.806    21907354.097
        47.000          35.0004
 114364378.216 7  89115109.32246  21762813.786    21762814.496    21762813.074
        47.000          39.0004
 117783157.134 7  91779085.95445  22413385.149    22413383.394    22413383.882
        45.000          33.0004
 124107278.243 6  96706979.04944  23616822.531    23616824.974    23616822.490
        40.000          26.0004
 112498169.820 8  87660920.63246  21407677.577    21407676.253    21407676.997
        48.000          38.0004
 119325794.849 7  92981144.77345  22706940.838    22706942.418    22706940.496
        43.000          31.0004
 17  9 19  0  5  0.0000000  0  8G32G10G18G27G21G24G14G08
 108528999.482 8  84568058.31147  20652364.860    20652365.750    20652364.717
        53.000          46.0004
 109257921.424 8  85136065.76147  20791080.414    20791081.093    20791079.989
        52.000          45.0004
 115154993.758 7  89731177.56445  21913256.860    21913254.540    21913255.955
        47.000          35.0004
 114400509.701 8  89143263.70746  21769689.133    21769690.086    21769688.674
        48.000          39.0004
 117839924.938 7  91823320.57245  22424187.692    22424186.004    22424186.452
        46.000          32.0004
 124128470.828 6  96723492.74644  23620855.386    23620857.956    23620855.435
        41.000          26.0004
 112424494.220 8  87603511.09646  21393657.494    21393656.230    21393656.942
        49.000          38.0004
 119296103.858 7  92958008.93545  22701290.546    22701292.413    22701290.379
        45.000          31.0004
 17  9 19  0  5 30.0000000  0  8G32G10G18G27G21G24G14G08
 108482972.172 8  84532192.88847  20643606.230    20643607.021    20643606.044
        53.000          46.0004
 109260921.578 8  85138403.54147  20791651.117    20791651.930    20791651.060
        52.000          45.0004
 115186097.250 8  89755414.04745  21919175.791    21919173.395    21919174.833
        49.000          35.0004
 114437133.677 8  89171801.85046  21776658.508    21776659.557    21776658.062
        49.000          38.0004
 117897032.684 7  91867820.08045  22435054.801    22435053.386    22435054.009
        46.000          32.0004
 124150204.030 6  96740427.70944  23624991.313    23624993.383    23624990.908
        41.000          26.0004
 112351229.749 8  87546421.92346  21379715.997    21379714.556    21379715.041
        50.000          38.0004
 119266971.184 7  92935308.14745  22695746.950    22695748.908    22695746.687
        45.000          31.0004
 17  9 19  0  6  0.0000000  0  8G32G10G18G27G21G24G14G08
 108437433.822 8  84496708.47147  20634940.644    20634941.331    20634940.370
        53.000          46.0004
 109264092.156 8  85140874.11947  20792254.623    20792255.296    20792254.366
        51.000          45.0004
 115217285.652 8  89779716.68845  21925110.643    21925108.388    21925109.749
        48.000          35.0004
 114474243.658 7  89200718.69946  21783720.486    21783721.360    21783719.882
        47.000          38.0004
 117954475.101 7  91912580.36845  22445985.756    22445984.152    22445984.680
        45.000          32.0004
 124172472.659 6  96757779.87744  23629228.726    23629231.010    23629228.694
        40.000          26.0004
 112278373.153 8  87489650.57046  21365851.550    21365850.256    21365850.831
        49.000          39.0004
 119238392.781 7  92913039.26145  22690308.964    22690310.562    22690308.243
        43.000          31.0004
 17  9 19  0  6 30.0000000  0  8G32G10G18G27G21G24G14G08
 108392384.147 8  84461604.84147  20626367.768    20626368.667    20626367.732
        52.000          46.0004
 109267432.423 8  85143476.92547  20792890.297    20792891.000    20792890.017
        51.000          45.0004
 115248558.883 7  89804085.43145  21931061.568    21931059.452    21931060.775
        47.000          35.0004
 114511836.922 7  89230012.13146  21790874.215    21790875.172    21790873.611
        46.000          38.0004
 118012251.206 7  91957600.67545  22456980.226    22456978.663    22456979.077
        46.000          32.0004
 124195275.680 7  96775548.47244  23633568.529    23633570.616    23633568.048
        42.000          26.0004
 112205925.035 8  87433197.51646  21352065.290    21352063.737    21352064.421
        48.000          39.0004
 119210368.364 7  92891202.04845  22684976.072    22684977.541    22684975.501
        42.000          31.0004
 17  9 19  0  7  0.0000000  0  8G32G10G18G27G21G24G14G08
 108347824.725 8  84426883.22647  20617888.370    20617889.228    20617888.333
        53.000          46.0004
 109270943.456 8  85146212.79147  20793558.370    20793559.126    20793558.209
        52.000          45.0004
 115279918.109 7  89828521.18445  21937029.121    21937026.864    21937028.282
        47.000          35.0004
 114549912.583 7  89259681.45246  21798119.873    21798120.565    21798119.155
        46.000          38.0004
 118070361.545 7  92002881.42645  22468038.081    22468036.855    22468037.393
        44.000          32.0004
 124218613.523 7  96793733.79644  23638009.086    23638011.109    23638008.912
        42.000          26.0004
 112133888.019 7  87377064.80446  21338357.173    21338355.644    21338356.295
        47.000          39.0004
 119182899.802 7  92869797.97345  22679748.643    22679750.546    22679748.127
        45.000          31.0004
 17  9 19  0  7 30.0000000  0  8G32G10G18G27G21G24G14G08
 108303753.892 8  84392542.33147  20609502.006    20609502.835    20609501.961
        53.000          47.0004
 109274623.137 8  85149080.07747  20794258.714    20794259.321    20794258.341
        52.000          44.0004
 115311362.022 7  89853022.92445  21943012.638    21943010.551    21943011.824
        47.000          35.0004
 114588466.530 8  89289723.47146  21805456.418    21805457.225    21805455.800
        48.000          38.0004
 118128803.844 7  92048420.84445  22479159.528    22479158.034    22479158.576
        46.000          32.0004
 124242483.828 7  96812334.03544  23642551.933    23642553.733    23642551.689
        42.000          27.0004
 112062261.041 7  87321251.59646  21324727.079    21324725.383    21324726.061
        46.000          39.0004
 119155985.383 7  92848825.69445  22674627.196    22674628.697    22674626.818
        43.000          31.0004
 17  9 19  0  8  0.0000000  0  8G32G10G18G27G21G24G14G08
 108260171.111 8  84358581.73547  20601208.438    20601209.296    20601208.380
        53.000          46.0004
 109278470.480 8  85152078.00547  20794990.729    20794991.456    20794990.494
        53.000          44.0004
 115342889.698 7  89877589.93445  21949012.395    21949010.077    21949011.300
        47.000          35.0004
 114627495.775 7  89320135.85046  21812883.256    21812884.385    21812882.770
        47.000          38.0004
 118187576.204 7  92094217.45345  22490343.763    22490342.183    22490342.490
        46.000          32.0004
 124266884.825 7  96831347.80144  23647194.898    23647197.125    23647194.973
        42.000          26.0004
 111991044.913 7  87265758.53746  21311174.958    21311173.509    21311174.038
        46.000          39.0004
 119129624.427 7  92828284.68745  22669611.191    22669612.660    22669610.370
        44.000          31.0004
 17  9 19  0  8 30.0000000  0  8G32G10G18G27G21G24G14G08
 108217081.674 8  84325005.56347  20593008.621    20593009.626    20593008.674
        53.000          46.0004
 109282490.406 8  85155210.41147  20795755.786    20795756.354    20795755.454
        51.000          45.0004
 115374506.324 8  89902226.26845  21955028.749    21955026.421    21955027.857
        48.000          35.0004
 114667003.134 7  89350920.79546  21820401.353    21820402.360    21820400.705
        45.000          38.0004
 118246682.963 7  92140274.61745  22501591.326    22501589.873    22501590.266
        44.000          32.0004
 124291821.041 7  96850778.60144  23651940.305    23651942.364    23651940.219
        43.000          28.0004
 111920245.347 8  87210590.07246  21297702.127    21297700.744    21297701.404
        48.000          38.0004
 119103822.413 7  92808179.22145  22664700.566    22664702.498    22664700.356
        44.000          31.0004
 17  9 19  0  9  0.0000000  0  8G32G10G18G27G21G24G14G08
 108174484.374 8  84291812.87147  20584902.737    20584903.633    20584902.642
        53.000          47.0004
 109286681.344 8  85158476.07547  20796553.326    20796553.984    20796552.888
        53.000          45.0004
 115406211.103 8  89926931.26945  21961062.099    21961059.665    21961061.194
        48.000          35.0004
 114706985.014 7  89382075.47946  21828009.666    21828010.700    21828009.197
        47.000          38.0004
 118306122.273 7  92186590.93645  22512902.168    22512900.753    22512901.192
        46.000          32.0004
 124317290.412 6  96870624.87044  23656787.102    23656788.823    23656787.026
        41.000          26.0004
 111849862.135 8  87155746.02846  21284308.563    21284307.313    21284307.863
        48.000          39.0004
 119078577.937 7  92788508.19045  22659897.057    22659898.941    22659896.686
        44.000          31.0004
 17  9 19  0  9 30.0000000  0  8G32G10G18G27G21G24G14G08
 108132379.432 9  84259003.83647  20576890.555    20576891.313    20576890.468
        54.000          46.0004
 109291043.132 8  85161874.86847  20797383.320    20797383.973    20797382.925
        53.000          45.0004
 115438003.974 7  89951704.92645  21967111.967    21967109.655    21967111.010
        47.000          35.0004
 114747439.130 7  89413598.14746  21835707.897    21835708.890    21835707.350
        47.000          38.0004
 118365893.227 7  92233165.67445  22524276.114    22524275.053    22524275.204
        45.000          32.0004
 124343291.828 7  96890885.71944  23661735.260    23661736.653    23661734.824
        42.000          27.0004
 111779896.356 8  87101227.26046  21270994.568    21270993.116    21270993.871
        48.000          39.0004
 119053891.376 7  92769271.90845  22655199.228    22655201.185    22655198.884
        44.000          32.0004
 17  9 19  0 10  0.0000000  0  8G32G10G18G27G21G24G14G08
 108090766.151 8  84226577.91747  20568971.710    20568972.509    20568971.556
        53.000          47.0004
 109295574.782 8  85165406.02447  20798245.561    20798246.280    20798245.363
        53.000          45.0004
 115469884.453 7  89976546.84545  21973178.378    21973176.335    21973177.707
        47.000          35.0004
 114788362.380 7  89445486.37846  21843495.421    21843496.507    21843494.763
        47.000          38.0004
 118425994.726 7  92279997.97645  22535713.242    22535711.981    22535712.203
        45.000          31.0004
 124369824.233 7  96911560.32244  23666783.756    23666785.962    23666783.727
        43.000          27.0004
 111710348.069 8  87047033.81246  21257760.020    21257758.456    21257759.162
        48.000          39.0004
 119029762.168 7  92750469.92045  22650607.454    22650609.457    22650607.226
        43.000          32.0004
 17  9 19  0 10 30.0000000  0  8G32G10G18G27G21G24G14G08
 108049642.899 8  84194533.84047  20561146.202    20561147.087    20561146.072
        53.000          47.0004
 109300274.346 8  85169068.02147  20799139.923    20799140.643    20799139.680
        53.000          45.0004
 115501850.667 7  90001455.57645  21979261.618    21979259.199    21979260.662
        46.000          35.0004
 114829750.655 8  89477736.96146  21851371.407    21851372.270    21851370.620
        48.000          38.0004
 118486423.598 7  92327085.37245  22547212.654    22547211.194    22547211.477
        44.000          31.0004
 124396884.950 7  96932646.59144  23671933.443    23671935.044    23671933.370
        42.000          28.0004
 111641216.472 8  86993165.05946  21244604.630    21244603.248    21244603.813
        49.000          39.0004
 119006188.232 7  92732100.61845  22646121.729    22646123.458    22646121.274
        44.000          32.0004
 17  9 19  0 11  0.0000000  0  9G11G32G10G18G27G21G24G14G08
 131292236.997 6 102305637.32141  24984081.512    24984076.057
        37.000          11.0004
 108009005.749 8  84162868.54347  20553413.349    20553414.049    20553413.099
        52.000          47.0004
 109305137.600 8  85172857.56847  20800065.193    20800066.100    20800065.049
        53.000          45.0004
 115533898.767 8  90026428.10845  21985360.099    21985357.964    21985359.226
        48.000          34.0004
 114871597.581 8  89510344.93846  21859334.306    21859335.572    21859334.025
        48.000          38.0004
 118547175.361 7  92374424.37145  22558773.225    22558771.869    22558772.038
        45.000          32.0004
 124424468.843 7  96954140.53544  23677182.274    23677184.228    23677182.330
        42.000          27.0004
 111572498.767 8  86939618.81846  21231528.184    21231526.667    21231527.260
        49.000          39.0004
 118983165.986 7  92714161.19545  22641741.055    22641742.583    22641740.426
        45.000          32.0004
 17  9 19  0 11 30.0000000  0  9G11G32G10G18G27G21G24G14G08
 131173627.807 6 102213214.52442  24961510.723    24961510.568    24961511.316
        36.000          12.0004
 107968858.607 9  84131585.07047  20545773.600    20545774.299    20545773.323
        54.000          47.0004
 109310168.225 8  85176777.53347  20801022.658    20801023.290    20801022.342
        52.000          45.0004
 115566032.962 7  90051467.73045  21991475.045    21991472.935    21991474.072
        47.000          35.0004
 114913904.660 8  89543311.47046  21867385.415    21867386.288    21867384.761
        48.000          38.0004
 118608253.189 7  92422017.44545  22570396.023    22570394.626    22570394.800
        46.000          31.0004
 124452579.181 7  96976044.70244  23682531.416    23682533.638    23682531.694
        42.000          28.0004
 111504199.487 8  86886398.62046  21218531.346    21218529.713    21218530.351
        49.000          39.0004
 118960698.993 7  92696654.44645  22637465.527    22637467.330    22637464.963
        43.000          32.0004
 17  9 19  0 12  0.0000000  0  9G11G32G10G18G27G21G24G14G08
 131055163.751 6 102120904.89242  24938968.955    24938967.689    24938968.380
        36.000          13.0004
 107929204.428 9  84100685.72547  20538227.402    20538228.359    20538227.478
        54.000          47.0004
 109315368.944 8  85180830.03947  20802012.239    20802013.089    20802011.947
        52.000          45.0004
 115598256.400 7  90076576.89445  21997607.082    21997604.816    21997606.210
        47.000          34.0004
 114956672.414 7  89576636.97446  21875523.750    21875524.795    21875523.186
        47.000          38.0004
 118669658.432 7  92469865.65045  22582080.937    22582079.830    22582079.912
        44.000          31.0004
 124481217.465 7  96998360.24044  23687981.297    23687983.471    23687981.085
        43.000          27.0004
 111436322.603 8  86833507.56346  21205614.467    21205613.214    21205613.902
        49.000          39.0004
 118938790.887 7  92679583.18245  22633296.345    22633298.131    22633296.051
        45.000          32.0004
 17  9 19  0 12 30.0000000  0  9G11G32G10G18G27G21G24G14G08
 130936845.828 5 102028709.15142  24916452.545    24916451.978    24916453.124
        35.000          13.0004
 107890042.052 8  84070169.59947  20530775.203    20530776.034    20530775.018
        53.000          47.0004
 109320738.370 8  85185014.00447  20803034.163    20803034.800    20803033.678
        53.000          45.0004
 115630567.732 7  90101754.54645  22003755.728    22003753.447    22003754.648
        46.000          34.0004
 114999897.216 8  89610318.61546  21883749.066    21883750.166    21883748.609
        48.000          38.0004
 118731389.659 7  92517967.87045  22593828.167    22593826.750    22593827.158
        45.000          31.0004
 124510382.420 7  97021086.17244  23693531.663    23693532.840    23693531.087
        42.000          28.0004
 111368868.262 8  86780945.75946  21192778.701    21192776.959    21192777.669
        49.000          39.0004
 118917439.783 7  92662945.95245  22629233.575    22629235.313    22629232.996
        44.000          32.0004
 17  9 19  0 13  0.0000000  0 10G11G32G10G31G18G27G21G24G14G08
 130818676.821 5 101936629.44541  24893966.590    24893965.482    24893965.565
        34.000          11.0004
 107851371.639 8  84040036.82147  20523416.333    20523417.257    20523416.317
        53.000          46.0004
 109326276.505 8  85189329.43447  20804087.894    20804088.642    20804087.614
        52.000          44.0004
 130914754.049 6 102011498.99843  24912248.069    24912250.044    24912247.770
        40.000          23.0004
 115662967.306 7  90127000.95545  22009920.871    22009918.948    22009920.106
        47.000          34.0004
 115043576.804 8  89644354.63446  21892061.144    21892062.013    21892060.635
        48.000          38.0004
 118793445.976 7  92566323.40345  22605637.197    22605635.888    22605636.123
        45.000          31.0004
 124540072.511 7  97044221.30344  23699180.855    23699182.829    23699180.990
        42.000          27.0004
 111301836.792 8  86728713.46946  21180023.003    21180021.238    21180022.069
        49.000          39.0004
 118896645.903 7  92646742.92145  22625276.645    22625278.261    22625276.005
        43.000          32.0004
 17  9 19  0 13 30.0000000  0 10G11G32G10G31G18G27G21G24G14G08
 130700661.293 5 101844669.34641  24871508.726    24871508.582    24871508.530
        31.000          11.0004
 107813195.031 8  84010288.82547  20516151.592    20516152.510    20516151.600
        53.000          47.0004
 109331985.055 8  85193777.65847  20805174.278    20805174.938    20805173.952
        52.000          44.0004
 130802002.917 6 101923641.20343  24890792.475    24890793.791    24890791.235
        36.000          22.0004
 115695457.550 7  90152318.01645  22016103.574    22016101.558    22016102.830
        46.000          34.0004
 115087710.613 7  89678744.59346  21900459.535    21900460.459    21900458.896
        46.000          38.0004
 118855828.523 7  92614933.14145  22617508.203    22617506.927    22617507.182
        46.000          31.0004
 124570288.841 7  97067766.49144  23704931.255    23704933.053    23704930.896
        42.000          27.0004
 111235231.362 8  86676813.15646  21167348.244    21167346.566    21167347.371
        49.000          39.0004
 118876411.301 7  92630975.69145  22621426.181    22621427.878    22621425.514
        44.000          32.0004
 17  9 19  0 14  0.0000000  0 10G11G32G10G31G18G27G21G24G14G08
 130582804.202 4                  24849080.540
        29.000
 107775514.615 8  83980927.47247  20508981.358    20508982.100    20508981.125
        53.000          47.0004
 109337866.233 8  85198360.39247  20806293.384    20806294.119    20806293.057
        52.000          45.0004
 130689112.565 5 101835675.03043  24869310.589    24869311.769    24869310.179
        30.000          19.0004
 115728040.749 7  90177707.51645  22022304.188    22022302.020    22022303.173
        47.000          34.0004
 115132298.591 8  89713488.44746  21908944.550    21908945.455    21908943.785
        48.000          38.0004
 118918538.910 7  92663798.33445  22629441.805    22629440.462    22629440.597
        45.000          31.0004
 124601032.859 7  97091722.86744  23710781.316    23710783.204    23710781.356
        42.000          27.0004
 111169055.077 8  86625247.24046  21154755.464    21154753.694    21154754.546
        48.000          40.0004
 118856738.308 7  92615646.08345  22617682.500    22617684.219    22617682.025
        45.000          32.0004
 17  9 19  0 14 30.0000000  0 10G11G32G10G31G18G27G21G24G14G08
 130465116.205 4                  24826683.872                    24826690.729
        25.000
 107738331.340 9  83951953.50047  20501905.468    20501906.337    20501905.471
        54.000          47.0004
 109343920.907 8  85203078.32047  20807445.589    20807446.250    20807445.151
        53.000          44.0004
 130576087.028 5 101747603.49542  24847800.030    24847803.926    24847801.339
        34.000          13.0004
 115760718.053 7  90203170.34145  22028522.281    22028520.214    22028521.621
        47.000          34.0004
 115177339.225 7  89748585.02546  21917515.382    21917516.364    21917514.717
        47.000          38.0004
 118981576.899 7  92712918.81345  22641437.300    22641436.035    22641436.210
        45.000          30.0004
 124632304.524 6  97116090.40344  23716732.446    23716734.099    23716732.224
        41.000          27.0004
 111103309.625 8  86574017.03846  21142244.247    21142242.710    21142243.542
        50.000          40.0004
 118837627.631 7  92600754.63845  22614045.909    22614047.544    22614045.350
        45.000          32.0004
 17  9 19  0 15  0.0000000  0  9G32G10G31G18G27G21G24G14G08
 107701643.788 8  83923365.80747  20494924.038    20494924.964    20494923.982
        52.000          47.0004
 109350147.584 8  85207930.28147  20808630.542    20808631.122    20808630.087
        52.000          45.0004
 130462927.852 6 101659427.72743  24826267.671    24826270.087    24826267.647
        37.000          18.0004
 115793488.317 7  90228705.59945  22034758.514    22034756.144    22034757.533
        47.000          34.0004
 115222828.721 8  89784031.36146  21926171.521    21926172.866    21926171.131
        48.000          38.0004
 119044940.241 7  92762292.80545  22653494.927    22653493.911    22653494.065
        46.000          30.0004
 124664101.542 7  97140867.29244  23722783.041    23722784.929    23722782.872
        42.000          27.0004
 111037994.816 8  86523122.40246  21129815.360    21129813.697    21129814.556
        48.000          39.0004
 118819077.483 7  92586299.96945  22610515.855    22610517.540    22610515.471
        45.000          32.0004
 17  9 19  0 15 30.0000000  0  9G32G10G31G18G27G21G24G14G08
 107665449.445 8  83895162.42847  20488036.422    20488037.337    20488036.405
        53.000          47.0004
 109356543.696 8  85212914.26747  20809847.641    20809848.238    20809847.310
        52.000          44.0004
 130349634.862 6 101571147.62243  24804708.865    24804710.186    24804708.297
        37.000          18.0004
 115826349.560 7  90254311.75045  22041011.808    22041009.400    22041010.800
        46.000          34.0004
 115268762.142 8  89819823.61346  21934912.525    21934913.589    21934912.067
        48.000          37.0004
 119108625.876 7  92811917.93545  22665613.944    22665612.856    22665612.976
        45.000          30.0004
 124696420.214 7  97166050.66844  23728933.158    23728935.038    23728932.955
        43.000          27.0004
 110973108.910 8  86472561.97946  21117467.914    21117466.349    21117466.988
        49.000          40.0004
 118801085.744 7  92572280.42445  22607092.191    22607093.859    22607091.712
        45.000          32.0004
 17  9 19  0 16  0.0000000  0  9G32G10G31G18G27G21G24G14G08
 107629749.499 9  83867344.29747  20481242.987    20481243.845    20481242.975
        55.000          47.0004
 109363110.366 8  85218031.15747  20811097.247    20811097.943    20811096.805
        52.000          44.0004
 130236211.711 5 101482766.09342  24783123.950    24783126.372    24783125.427
        35.000          16.0004
 115859303.033 7  90279989.77245  22047282.518    22047280.431    22047281.772
        46.000          34.0004
 115315138.276 8  89855960.83646  21943737.773    21943738.709    21943736.993
        48.000          38.0004
 119172634.193 7  92861794.50045  22677794.354    22677793.170    22677793.368
        44.000          30.0004
 124729260.990 6  97191640.87944  23735182.883    23735184.454    23735182.248
        40.000          26.0004
 110908653.997 8  86422337.39246  21105202.534    21105201.043    21105201.628
        49.000          40.0004
 118783653.468 7  92558696.82445  22603774.916    22603776.794    22603774.468
        45.000          32.0004
 17  9 19  0 16 30.0000000  0  9G32G10G31G18G27G21G24G14G08
 107594543.271 8  83839910.88047  20474543.491    20474544.400    20474543.374
        52.000          47.0004
 109369846.935 8  85223280.43147  20812379.182    20812379.796    20812378.862
        51.000          45.0004
 130122661.540 5 101394285.73541  24761515.167    24761518.610    24761516.168
        31.000          11.0004
 115892348.641 7  90305739.58645  22053570.823    22053568.715    22053569.925
        47.000          34.0004
 115361954.023 7  89892440.61546  21952646.172    21952647.572    21952645.752
        46.000          37.0004
 119236963.205 7  92911920.96045  22690035.832    22690034.713    22690034.786
        44.000          30.0004
 124762622.401 6  97217636.77844  23741531.692    23741532.494    23741530.926
        41.000          26.0004
 110844630.335 8  86372448.84146  21093019.289    21093017.677    21093018.405
        48.000          40.0004
 118766779.692 7  92545548.42145  22600563.848    22600565.765    22600563.433
        44.000          32.0004
 17  9 19  0 17  0.0000000  0  9G32G10G31G18G27G21G24G14G08
 107559831.990 9  83812863.13947  20467938.165    20467939.003    20467938.051
        54.000          47.0004
 109376754.623 8  85228663.04447  20813693.660    20813694.246    20813693.309
        53.000          44.0004
 130008986.321 5 101305707.94541  24739885.010    24739886.297    24739884.033
        35.000          10.0004
 115925487.836 8  90331562.32545  22059877.124    22059874.968    22059876.303
        48.000          34.0004
 115409208.180 8  89929262.00846  21961638.616    21961639.581    21961638.055
        48.000          37.0004
 119301613.759 7  92962297.97245  22702338.190    22702337.233    22702337.333
        44.000          30.0004
 124796504.292 7  97244038.25244  23747978.464    23747980.339    23747978.463
        43.000          26.0004
 110781039.943 8  86322897.90846  21080918.372    21080916.778    21080917.506
        50.000          40.0004
 118750465.984 7  92532836.43845  22597459.629    22597461.290    22597459.279
        45.000          32.0004
 17  9 19  0 17 30.0000000  0  9G32G10G31G18G27G21G24G14G08
 107525615.648 8  83786201.06947  20461426.993    20461427.816    20461426.902
        53.000          47.0004
 109383833.494 8  85234179.04547  20815040.640    20815041.257    20815040.291
        50.000          44.0004
 129895190.092 6 101217035.71842  24718230.537    24718231.309    24718229.994
        38.000          17.0004
 115958720.810 7  90357458.13945  22066201.348    22066198.891    22066200.192
        47.000          34.0004
 115456898.399 8  89966423.19446  21970713.630    21970715.060    21970713.145
        48.000          37.0004
 119366584.832 7  93012924.74245  22714702.169    22714700.975    22714700.956
        44.000          30.0004
 124830905.867 6  97270844.66944  23754524.975    23754526.977    23754524.601
        41.000          26.0004
 110717883.797 8  86273685.34646  21068900.033    21068898.630    21068899.285
        48.000          40.0004
 118734711.610 7  92520560.29445  22594461.639    22594463.351    22594461.135
        43.000          32.0004
 17  9 19  0 18  0.0000000  0  9G32G10G31G18G27G21G24G14G08
 107491889.379 8  83759920.87247  20455009.104    20455009.917    20455008.972
        53.000          47.0004
 109391078.690 8  85239824.65447  20816419.267    20816419.990    20816419.111
        51.000          45.0004
 129781270.678 6 101128267.51543  24696551.845    24696553.170    24696551.842
        41.000          19.0004
 115992043.392 7  90383423.77445  22072542.496    22072539.890    22072541.286
        46.000          34.0004
 115505017.328 7  90003918.43646  21979870.368    21979871.556    21979869.912
        47.000          37.0004
 119431870.518 7  93063796.66444  22727125.376    22727124.298    22727124.439
        43.000          29.0004
 124865821.235 6  97298051.45644  23761169.482    23761170.512    23761168.850
        41.000          25.0004
 110655157.699 8  86224807.88646  21056963.789    21056962.103    21056962.870
        48.000          40.0004
 118719512.010 7  92508716.44045  22591569.215    22591571.016    22591568.632
        44.000          32.0004
 17  9 19  0 18 30.0000000  0 10G11G32G10G31G18G27G21G24G14G08
 129529605.502 6 100932159.39442  24648664.356    24648662.621    24648664.115
        37.000          13.0004
 107458656.580 9  83734025.19947  20448685.181    20448685.937    20448685.047
        54.000          47.0004
 109398493.756 8  85245602.62647  20817830.451    20817831.063    20817830.047
        53.000          44.0004
 129667234.150 6 101039408.01843  24674850.981    24674852.955    24674851.338
        40.000          23.0004
 116025459.321 8  90409462.14945  22078901.352    22078898.912    22078900.283
        48.000          34.0004
 115553566.079 7  90041748.60746  21989109.107    21989110.252    21989108.430
        46.000          37.0004
 119497473.725 7  93114916.00544  22739609.261    22739608.467    22739608.351
        44.000          29.0004
 124901252.610 7  97325660.32444  23767911.688    23767913.356    23767911.192
        44.000          26.0004
 110592866.826 8  86176269.56246  21045110.103    21045108.580    21045109.260
        49.000          40.0004
 118704870.393 7  92497307.38245  22588783.048    22588784.746    22588782.629
        44.000          32.0004
 17  9 19  0 19  0.0000000  0 10G11G32G10G31G18G27G21G24G14G08
 129413461.763 6 100841657.74042  24626563.314    24626562.303    24626562.914
        38.000          13.0004
 107425916.010 8  83708513.08147  20442454.761    20442455.584    20442454.718
        53.000          47.0004
 109406077.546 8  85251512.07247  20819273.607    20819274.247    20819273.176
        52.000          44.0004
 129553081.813 7 100950458.25943  24653128.359    24653129.493    24653128.653
        42.000          21.0004
 116058967.616 7  90435572.49945  22085277.601    22085275.331    22085276.551
        46.000          34.0004
 115602540.921 7  90079910.79846  21998428.662    21998429.812    21998428.072
        47.000          37.0004
 119563392.424 7  93166281.18244  22752153.794    22752152.154    22752152.197
        45.000          29.0004
 124937197.983 7  97353669.69044  23774751.805    23774753.515    23774751.109
        42.000          25.0004
 110531009.849 8  86128069.33846  21033339.157    21033337.466    21033338.256
        48.000          41.0004
 118690785.684 7  92486332.27945  22586102.762    22586104.485    22586102.223
        43.000          32.0004
 17  9 19  0 19 30.0000000  0 10G11G32G10G31G18G27G21G24G14G08
 129297505.065 6 100751301.86142  24604496.874    24604495.835    24604496.521
        37.000          13.0004
 107393669.423 8  83683385.88247  20436318.315    20436319.269    20436318.351
        53.000          47.0004
 109413831.905 8  85257554.42847  20820749.067    20820749.800    20820748.881
        53.000          44.0004
 129438818.556 6 100861422.06842  24631385.017    24631385.621    24631384.941
        41.000          15.0004
 116092570.541 7  90461756.58745  22091671.845    22091669.717    22091671.022
        46.000          33.0004
 115651941.311 7  90118404.58046  22007829.120    22007830.548    22007828.651
        47.000          37.0004
 119629627.308 7  93217892.73444  22764757.582    22764756.494    22764756.490
        44.000          29.0004
 124973658.097 6  97382080.15944  23781689.516    23781691.299    23781689.472
        41.000          25.0004
 110469589.843 7  86080209.61346  21021651.336    21021649.653    21021650.519
        47.000          40.0004
 118677259.080 7  92475792.05545  22583528.631    22583530.302    22583528.141
        42.000          32.0004
 17  9 19  0 20  0.0000000  0 10G11G32G10G31G18G27G21G24G14G08
 129181734.055 6 100661090.69442  24582466.540    24582465.414    24582465.419
        39.000          12.0004
 107361912.831 8  83658640.49247  20430275.371    20430276.217    20430275.216
        53.000          47.0004
 109421753.079 8  85263726.76847  20822256.452    20822257.244    20822256.176
        52.000          44.0004
 129324443.420 7 100772298.60942  24609620.227    24609621.385    24609620.144
        43.000          15.0004
 116126264.708 8  90488011.76745  22098083.804    22098081.616    22098082.930
        48.000          33.0004
 115701760.850 7  90157224.97646  22017309.581    22017310.712    22017309.148
        45.000          37.0004
 119696173.973 7  93269747.23644  22777420.967    22777419.789    22777419.785
        44.000          29.0004
 125010628.166 7  97410888.01344  23788724.896    23788726.784    23788724.757
        42.000          25.0004
 110408603.674 8  86032687.94446  21010045.757    21010044.344    21010045.188
        49.000          40.0004
 118664286.438 7  92465683.49345  22581060.023    22581061.880    22581059.706
        43.000          32.0004
 17  9 19  0 20 30.0000000  0 10G11G32G10G31G18G27G21G24G14G08
 129066152.753 6 100571027.33542  24560471.746    24560471.414    24560471.618
        39.000          12.0004
 107330647.175 8  83634277.65547  20424325.680    20424326.485    20424325.647
        53.000          47.0004
 109429842.136 8  85270029.92447  20823795.903    20823796.474    20823795.571
        51.000          44.0004
 129209960.275 7 100683091.02943  24587834.529    24587835.052    24587834.571
        44.000          18.0004
 116160051.584 7  90514339.19345  22104513.153    22104510.991    22104512.242
        46.000          33.0004
 115751998.105 7  90196370.86646  22026869.412    22026870.577    22026869.024
        47.000          37.0004
 119763032.574 7  93321844.80544  22790143.559    22790142.728    22790142.841
        43.000          29.0004
 125048107.887 6  97440092.98544  23795857.144    23795858.677    23795856.869
        40.000          25.0004
 110348053.308 8  85985505.86146  20998523.715    20998521.908    20998522.831
        49.000          40.0004
 118651868.543 7  92456007.20145  22578696.989    22578698.676    22578696.511
        46.000          32.0004
 17  9 19  0 21  0.0000000  0 10G11G32G10G31G18G27G21G24G14G08
 128950760.259 6 100481111.09742  24538513.512    24538513.018    24538513.482
        37.000          12.0004
 107299868.541 8  83610294.31547  20418468.770    20418469.546    20418468.628
        52.000          47.0004
 109438095.411 8  85276461.04447  20825366.495    20825367.044    20825366.004
        51.000          44.0004
 129095367.956 7 100593798.38443  24566028.067    24566029.172    24566028.654
        43.000          20.0004
 116193927.735 7  90540736.18745  22110959.525    22110957.492    22110958.731
        47.000          33.0004
 115802646.781 7  90235837.34146  22036507.636    22036508.822    22036507.050
        46.000          36.0004
 119830198.216 7  93374181.62244  22802925.382    22802923.765    22802923.962
        44.000          29.0004
 125086092.163 6  97469691.10844  23803085.017    23803087.094    23803085.035
        40.000          24.0004
 110287935.840 8  85938661.10046  20987083.390    20987081.984    20987082.779
        50.000          40.0004
 118640001.980 7  92446760.51545  22576439.184    22576440.823    22576438.446
        44.000          32.0004
 17  9 19  0 21 30.0000000  0 10G11G32G10G31G18G27G21G24G14G08
 128835564.772 6 100391348.36641  24516592.146    24516592.147    24516591.808
        38.000          11.0004
 107269582.199 8  83586694.57747  20412705.305    20412706.196    20412705.357
        52.000          47.0004
 109446518.382 8  85283024.39447  20826969.036    20826969.913    20826968.839
        50.000          44.0004
 128980675.066 6 100504427.44143  24544202.937    24544204.005    24544203.105
        40.000          20.0004
 116227899.017 7  90567207.30245  22117424.033    22117421.930    22117423.413
        47.000          33.0004
 115853709.809 7  90275626.68546  22046224.584    22046225.691    22046224.049
        45.000          37.0004
 119897675.605 7  93426761.37144  22815765.493    22815764.423    22815764.584
        42.000          29.0004
 125124585.500 6  97499685.91344  23810409.463    23810411.752    23810409.890
        40.000          24.0004
 110228257.484 8  85892158.50446  20975727.021    20975725.521    20975726.448
        49.000          41.0004
 118628691.290 7  92437946.98145  22574286.443    22574288.144    22574286.037
        44.000          32.0004
 17  9 19  0 22  0.0000000  0 10G11G32G10G31G18G27G21G24G14G08
 128720567.944 6 100301740.45342  24494709.014    24494707.961    24494709.428
        37.000          12.0004
 107239786.705 9  83563477.32047  20407035.516    20407036.295    20407035.395
        54.000          47.0004
 109455109.838 8  85289719.02947  20828604.016    20828604.815    20828603.805
        52.000          44.0004
 128865882.522 6 100414978.68541  24522357.595    24522358.756    24522359.408
        37.000           9.0004
 116261964.686 7  90593751.97045  22123906.611    22123904.396    22123905.726
        47.000          33.0004
 115905183.354 8  90315735.92046  22056019.564    22056020.706    22056019.090
        48.000          36.0004
 119965462.036 7  93479581.92044  22828665.273    22828663.642    22828664.034
        44.000          29.0004
 125163585.388 6  97530075.43343  23817831.256    23817833.479    23817831.419
        40.000          23.0004
 110169017.529 8  85845997.52046  20964454.308    20964452.621    20964453.299
        49.000          40.0004
 118617935.039 7  92429565.47845  22572239.709    22572241.537    22572239.241
        43.000          32.0004
 17  9 19  0 22 30.0000000  0 10G11G32G10G31G18G27G21G24G14G08
 128605772.678 6 100212289.60041  24472863.812    24472863.136    24472863.486
        37.000          10.0004
 107210481.896 9  83540642.41747  20401459.044    20401459.824    20401458.888
        54.000          47.0004
 109463869.918 8  85296545.06347  20830271.072    20830271.831    20830270.687
        53.000          44.0004
 128750993.528 6 100325454.83842  24500496.144    24500497.171    24500495.586
        39.000          13.0004
 116296125.082 8  90620370.45645  22130407.191    22130404.958    22130406.291
        48.000          33.0004
 115957064.935 7  90356163.10246  22065892.435    22065893.592    22065891.840
        47.000          36.0004
 120033556.854 7  93532642.77644  22841623.297    22841621.793    22841622.157
        43.000          29.0004
 125203090.880 6  97560858.93443  23825349.213    23825350.958    23825348.867
        39.000          23.0004
 110110216.520 8  85800178.57146  20953264.715    20953263.046    20953263.899
        49.000          40.0004
 118607732.675 7  92421615.57245  22570298.675    22570299.941    22570297.882
        45.000          32.0004
 17  9 19  0 23  0.0000000  0 10G11G32G10G31G18G27G21G24G14G08
 128491179.645 5                  24451058.685                    24451056.970
        35.000
 107181665.336 9  83518187.96747  20395975.410    20395976.267    20395975.280
        54.000          47.0004
 109472796.517 8  85303500.84947  20831969.716    20831970.565    20831969.496
        51.000          44.0004
 128636009.011 6 100235856.57743  24478615.165    24478616.434    24478614.841
        41.000          18.0004
 116330378.498 7  90647061.42045  22136925.129    22136923.239    22136924.566
        47.000          33.0004
 116009349.769 7  90396904.50946  22075842.061    22075843.100    22075841.356
        47.000          36.0004
 120101956.978 7  93585941.52644  22854638.938    22854637.975    22854638.052
        44.000          29.0004
 125243098.439 6  97592033.63643  23832963.180    23832964.856    23832962.166
        41.000          23.0004
 110051853.297 8  85754700.75846  20942158.597    20942156.866    20942157.725
        50.000          40.0004
 118598081.774 7  92414095.38145  22568461.698    22568463.508    22568461.327
        45.000          32.0004
 17  9 19  0 23 30.0000000  0 10G11G32G10G31G18G27G21G24G14G08
 128376791.324 5                  24429290.304
        35.000
 107153336.749 9  83496113.75347  20390584.583    20390585.457    20390584.555
        54.000          47.0004
 109481889.662 8  85310586.40947  20833699.979    20833700.991    20833699.793
        51.000          44.0004
 128520931.489 6 100146185.88043  24456716.918    24456717.937    24456716.131
        38.000          21.0004
 116364725.074 7  90673824.97545  22143461.214    22143459.153    22143460.219
        47.000          33.0004
 116062035.210 7  90437958.07846  22085867.397    22085868.851    22085867.016
        47.000          36.0004
 120170661.399 7  93639477.40144  22867713.128    22867712.050    22867712.267
        43.000          29.0004
 125283606.415 6  97623598.29043  23840670.659    23840672.940    23840670.696
        40.000          23.0004
 109993928.368 8  85709564.46946  20931135.628    20931134.202    20931134.863
        50.000          41.0004
 118588982.317 7  92407004.88545  22566730.441    22566731.825    22566729.901
        46.000          31.0004
 17  9 19  0 24  0.0000000  0 10G11G32G10G31G18G27G21G24G14G08
 128262612.611 5  99944891.18141  24407561.942    24407563.495    24407561.732
        33.000          10.0004
 107125497.577 9  83474420.90047  20385286.929    20385287.755    20385286.891
        55.000          47.0004
 109491151.109 8  85317803.11947  20835462.354    20835463.298    20835462.199
        52.000          44.0004
 128405765.352 5 100056446.17442  24434798.401    24434801.695    24434800.387
        31.000          16.0004
 116399166.886 7  90700662.74245  22150015.308    22150013.289    22150014.497
        46.000          33.0004
 116115120.373 7  90479323.11246  22095969.607    22095970.802    22095969.000
        47.000          36.0004
 120239670.720 7  93693250.85144  22880844.827    22880844.058    22880844.262
        44.000          28.0004
 125324615.866 6  97655553.69743  23848474.327    23848476.511    23848474.808
        40.000          22.0004
 109936444.258 8  85664771.67846  20920196.836    20920195.281    20920196.003
        49.000          40.0004
 118580434.961 7  92400344.59745  22565103.816    22565105.406    22565103.281
        43.000          31.0004
 17  9 19  0 24 30.0000000  0 10G11G32G10G31G18G27G21G24G14G08
 128148644.763 5                  24385876.211
        33.000
 107098146.166 9  83453108.12047  20380082.275    20380082.917    20380082.095
        54.000          47.0004
 109500579.661 8  85325150.04047  20837256.653    20837257.461    20837256.417
        51.000          44.0004
 128290512.378 6  99966638.86742  24412868.917    24412869.273    24412868.299
        38.000          13.0004
 116433703.234 7  90727574.17545  22156587.508    22156585.215    22156586.540
        46.000          33.0004
 116168601.276 7  90520996.52346  22106146.491    22106147.785    22106146.070
        46.000          36.0004
 120308982.614 7  93747260.07044  22894034.776    22894033.758    22894033.642
        42.000          28.0004
 125366123.588 6  97687897.37643  23856373.720    23856375.303    23856372.998
        38.000          22.0004
 109879400.295 8  85620321.86046  20909341.830    20909340.188    20909340.911
        49.000          41.0004
 118572438.170 7  92394113.32745  22563581.981    22563583.622    22563581.604
        44.000          32.0004
 17  9 19  0 25  0.0000000  0 10G11G32G10G31G18G27G21G24G14G08
 128034892.585 5  99767453.03541  24364227.404    24364230.318    24364230.422
        31.000           9.0004
 107071284.222 9  83432176.74347  20374970.474    20374971.296    20374970.492
        54.000          47.0004
 109510177.341 8  85332628.75247  20839082.939    20839083.842    20839082.757
        50.000          43.0004
 128175177.464 6  99876767.55043  24390920.998    24390921.435    24390920.860
        39.000          18.0004
 116468336.311 7  90754560.97645  22163177.983    22163175.707    22163176.944
        46.000          33.0004
 116222477.347 7  90562977.85346  22116398.849    22116400.055    22116398.448
        46.000          36.0004
 120378598.097 7  93801505.86044  22907281.791    22907281.250    22907280.913
        43.000          28.0004
 125408130.657 6  97720630.15643  23864367.141    23864368.924    23864366.792
        39.000          22.0004
 109822798.894 8  85576216.89046  20898571.008    20898569.235    20898570.022
        49.000          41.0004
 118564993.290 7  92388312.11545  22562165.104    22562166.964    22562164.971
        44.000          32.0004
 17  9 19  0 25 30.0000000  0 10G11G32G10G31G18G27G21G24G14G08
 127921354.776 5                  24342622.814                    24342624.489
        31.000
 107044907.067 9  83411623.12747  20369951.137    20369951.850    20369951.040
        54.000          47.0004
 109519939.905 8  85340235.94247  20840940.995    20840941.640    20840940.582
        51.000          44.0004
 128059758.798 5  99786831.00243  24368957.710    24368959.388    24368957.143
        35.000          19.0004
 116503062.280 7  90781620.16245  22169786.018    22169783.908    22169784.980
        45.000          33.0004
 116276741.513 7  90605261.59346  22126725.159    22126726.142    22126724.364
        45.000          36.0004
 120448511.877 7  93855984.07644  22920586.553    22920585.375    22920585.187
        42.000          28.0004
 125450631.255 6  97753747.49643  23872454.842    23872456.539    23872454.236
        40.000          22.0004
 109766636.244 8  85532453.80446  20887883.649    20887881.829    20887882.638
        49.000          41.0004
 118558095.404 7  92382937.12745  22560852.498    22560854.488    22560852.177
        45.000          32.0004
 17  9 19  0 26  0.0000000  0 10G11G32G10G31G18G27G21G24G14G08
 127808040.374 5  99590684.28341  24321060.392    24321061.394    24321060.261
        32.000          10.0004
 107019020.968 9  83391452.14847  20365025.149    20365025.954    20365025.139
        54.000          47.0004
 109529874.102 8  85347976.87547  20842831.372    20842831.984    20842830.948
        52.000          44.0004
 127944265.884 6  99696836.71343  24346979.969    24346981.619    24346979.375
        37.000          19.0004
 116537888.157 7  90808757.19745  22176413.165    22176410.973    22176412.327
        47.000          33.0004
 116331397.783 7  90647850.87246  22137125.646    22137127.057    22137125.152
        46.000          36.0004
 120518729.286 6  93910698.89244  22933948.433    22933947.200    22933947.087
        40.000          27.0004
 125493630.184 6  97787253.15143  23880636.808    23880638.977    23880636.839
        40.000          22.0004
 109710919.838 8  85489038.44246  20877280.981    20877279.295    20877280.102
        49.000          40.0004
 118551750.478 7  92377993.01845  22559645.395    22559647.002    22559644.847
        43.000          32.0004
 17  9 19  0 26 30.0000000  0 10G11G32G10G31G18G27G21G24G14G08
 127694947.652 5  99502560.15742  24299539.834    24299539.257    24299540.185
        34.000          12.0004
 106993620.713 9  83371659.75148  20360191.636    20360192.361    20360191.514
        55.000          48.0004
 109539975.131 8  85355847.80447  20844753.284    20844754.210    20844753.113
        51.000          44.0004
 127828697.234 7  99606783.39844  24324988.620    24324989.119    24324988.308
        42.000          24.0004
 116572809.613 7  90835968.71245  22183058.817    22183056.226    22183057.633
        46.000          33.0004
 116386438.618 7  90690739.80946  22147599.703    22147600.991    22147599.123
        47.000          36.0004
 120589244.139 6  93965645.47844  22947366.986    22947366.118    22947365.664
        41.000          27.0004
 125537121.396 6  97821142.41343  23888913.401    23888914.350    23888913.534
        39.000          22.0004
 109655645.446 8  85445967.50546  20866762.499    20866760.954    20866761.742
        49.000          41.0004
 118545953.723 7  92373476.05945  22558541.978    22558543.940    22558541.704
        43.000          32.0004
 17  9 19  0 27  0.0000000  0 10G11G32G10G31G18G27G21G24G14G08
 127582080.015 5  99414611.39842  24278061.522    24278060.542    24278060.812
        35.000          14.0004
 106968706.165 8  83352245.82747  20355450.613    20355451.284    20355450.489
        53.000          47.0004
 109550243.367 8  85363849.02747  20846707.309    20846708.190    20846707.076
        52.000          43.0004
 127713055.641 7  99516673.16244  24302982.155    24302983.097    24302981.869
        42.000          24.0004
 116607827.202 7  90863255.13245  22189722.035    22189720.001    22189721.142
        47.000          33.0004
 116441861.589 7  90733926.51346  22158146.548    22158147.432    22158145.907
        45.000          36.0004
 120660055.633 6  94020823.22244  22960841.753    22960840.903    22960840.931
        41.000          27.0004
 125581104.083 6  97855414.62443  23897282.819    23897284.456    23897283.086
        40.000          22.0004
 109600813.595 8  85403241.40546  20856328.455    20856326.724    20856327.631
        50.000          40.0004
 118540704.099 7  92369385.42745  22557543.109    22557545.025    22557542.566
        45.000          32.0004
 17  9 19  0 27 30.0000000  0 10G11G32G10G31G18G27G21G24G14G08
 127469438.608 6  99326838.91342  24256626.715    24256625.684    24256626.750
        36.000          16.0004
 106944275.314 9  83333208.81347  20350801.604    20350802.229    20350801.372
        55.000          47.0004
 109560677.320 8  85371979.38147  20848692.976    20848693.652    20848692.616
        53.000          44.0004
 127597342.499 6  99426507.16843  24280961.954    24280963.102    24280961.944
        38.000          21.0004
 116642939.807 7  90890615.58745  22196403.803    22196401.933    22196403.024
        47.000          33.0004
 116497662.359 8  90777407.61046  22168764.981    22168766.188    22168764.399
        48.000          36.0004
 120731161.429 7  94076230.27944  22974372.930    22974372.144    22974371.752
        42.000          27.0004
 125625575.128 6  97890067.39043  23905743.803    23905747.288    23905744.598
        38.000          23.0004
 109546423.118 8  85360859.23046  20845978.331    20845976.652    20845977.495
        50.000          41.0004
 118535999.659 7  92365719.61945  22556648.429    22556649.784    22556647.616
        44.000          32.0004
 17  9 19  0 28  0.0000000  0 10G11G32G10G31G18G27G21G24G14G08
 127357026.186 6  99239244.85942  24235236.020    24235234.436    24235235.547
        39.000          17.0004
 106920327.999 9  83314548.57648  20346244.425    20346245.227    20346244.400
        54.000          48.0004
 109571277.357 8  85380239.14947  20850710.172    20850710.770    20850709.645
        52.000          44.0004
 127481560.957 7  99336287.95343  24258929.539    24258930.851    24258929.659
        42.000          21.0004
 116678147.939 7  90918050.48645  22203103.806    22203101.394    22203102.805
        45.000          32.0004
 116553838.511 7  90821181.20445  22179454.874    22179456.041    22179454.479
        46.000          35.0004
 120802560.910 6  94131866.18544  22987960.011    22987958.819    22987958.659
        41.000          26.0004
 125670533.156 6  97925099.59543  23914300.331    23914302.542    23914300.123
        40.000          22.0004
 109492475.102 8  85318821.83446  20835712.298    20835710.683    20835711.520
        49.000          41.0004
 118531839.557 7  92362477.97445  22555856.747    22555858.170    22555856.123
        45.000          31.0004
 17  9 19  0 28 30.0000000  0 10G11G32G10G31G18G27G21G24G14G08
 127244851.240 6  99151835.83543  24213889.086    24213887.772    24213888.781
        38.000          18.0004
 106896869.413 9  83296269.16547  20341780.396    20341781.149    20341780.362
        54.000          47.0004
 109582049.210 8  85388632.79847  20852759.890    20852760.701    20852759.514
        51.000          43.0004
 127365719.313 7  99246021.87444  24236885.969    24236886.383    24236885.818
        43.000          25.0004
 116713457.592 7  90945564.48845  22209822.850    22209820.674    22209822.044
        46.000          32.0004
 116610393.008 7  90865249.61645  22190216.839    22190218.067    22190216.426
        45.000          35.0004
 120874257.859 6  94187733.88744  23001603.648    23001602.307    23001602.327
        40.000          26.0004
 125715982.743 6  97960514.83343  23922949.168    23922951.172    23922948.611
        39.000          22.0004
 109438975.622 8  85277133.94146  20825531.735    20825529.982    20825530.830
        50.000          40.0004
 118528229.345 7  92359664.82045  22555169.258    22555171.026    22555169.243
        44.000          31.0004
 17  9 19  0 29  0.0000000  0 10G11G32G10G31G18G27G21G24G14G08
 127132911.540 6  99064610.13443  24192588.038    24192586.883    24192587.637
        40.000          18.0004
 106873893.632 8  83278365.97148  20337408.317    20337409.036    20337408.163
        53.000          48.0004
 109592987.534 8  85397156.16647  20854841.350    20854842.166    20854841.127
        51.000          43.0004
 127249815.223 6  99155707.12543  24214830.030    24214830.669    24214829.825
        41.000          23.0004
 116748863.985 7  90973153.86945  22216560.565    22216558.578    22216559.792
        46.000          32.0004
 116667317.566 7  90909606.38345  22201049.322    22201050.590    22201048.881
        47.000          35.0004
 120946245.643 7  94243828.21744  23015302.175    23015301.336    23015301.337
        43.000          26.0004
 125761916.059 6  97996307.01743  23931690.152    23931692.402    23931689.669
        40.000          23.0004
 109385919.580 8  85235791.58946  20815435.391    20815433.778    20815434.625
        49.000          41.0004
 118525162.483 7  92357275.05245  22554586.083    22554587.628    22554585.457
        44.000          31.0004
 17  9 19  0 29 30.0000000  0 10G11G32G10G31G18G27G21G24G14G08
 127021214.189 6  98977573.25943  24171332.761    24171331.071    24171331.987
        40.000          19.0004
 106851404.670 8  83260842.11848  20333128.782    20333129.477    20333128.739
        53.000          48.0004
 109604096.947 8  85405812.85247  20856955.376    20856956.192    20856955.059
        51.000          44.0004
 127133856.310 6  99065349.61943  24192763.287    24192764.148    24192763.235
        41.000          20.0004
 116784371.979 7  91000822.42645  22223317.196    22223315.540    22223316.680
        47.000          32.0004
 116724613.992 7  90954252.91945  22211952.494    22211953.606    22211951.862
        45.000          35.0004
 121018527.968 7  94300152.05444  23029056.919    23029056.112    23029056.150
        42.000          26.0004
 125808337.216 6  98032479.33744  23940524.095    23940525.704    23940523.915
        41.000          24.0004
 109333312.019 8  85194798.70146  20805424.672    20805422.777    20805423.696
        49.000          41.0004
 118522642.902 7  92355311.72845  22554105.952    22554108.166    22554105.854
        44.000          31.0004
 17  9 19  0 30  0.0000000  0 10G11G32G10G31G18G27G21G24G14G08
 126909756.412 6  98890723.06743  24150123.199    24150121.652    24150122.595
        39.000          19.0004
 106829396.455 9  83243692.87048  20328940.790    20328941.442    20328940.773
        54.000          48.0004
 109615372.024 8  85414598.62547  20859101.006    20859101.768    20859100.700
        52.000          43.0004
 127017839.680 7  98974947.14843  24170686.611    24170687.055    24170686.266
        44.000          22.0004
 116819976.818 7  91028566.44245  22230092.743    22230091.011    22230092.071
        46.000          32.0004
 116782273.923 7  90999182.70545  22222924.788    22222926.068    22222924.381
        47.000          35.0004
 121091098.440 7  94356700.42444  23042867.277    23042865.746    23042865.932
        42.000          26.0004
 125855238.448 6  98069025.73543  23949448.864    23949450.640    23949448.915
        40.000          23.0004
 109281147.573 7  85154151.09646  20795497.890    20795496.186    20795497.053
        47.000          41.0004
 118520664.286 7  92353769.93045  22553729.540    22553731.596    22553729.083
        43.000          31.0004
 17  9 19  0 30 30.0000000  0 10G11G32G10G31G18G27G21G24G14G08
 126798541.389 6  98804062.03443  24128959.684    24128957.799    24128959.265
        40.000          18.0004
 106807868.687 9  83226917.99348  20324844.275    20324844.814    20324844.126
        55.000          48.0004
 109626813.087 8  85423513.73947  20861278.257    20861278.860    20861277.869
        52.000          44.0004
 126901768.308 6  98884502.04443  24148599.152    24148599.757    24148598.893
        41.000          23.0004
 116855678.191 7  91056385.68645  22236886.812    22236884.467    22236885.827
        46.000          32.0004
 116840294.866 7  91044393.79645  22233965.874    22233967.090    22233965.287
        45.000          35.0004
 121163955.742 7  94413472.29744  23056731.080    23056730.084    23056730.166
        43.000          26.0004
 125902618.748 6  98105945.44744  23958465.534    23958467.120    23958464.976
        40.000          24.0004
 109229427.046 8  85113849.40546  20785655.705    20785654.172    20785654.964
        50.000          41.0004
 118519225.943 7  92352649.12845  22553456.444    22553457.849    22553455.773
        44.000          31.0004
 17  9 19  0 31  0.0000000  0 10G11G32G10G31G18G27G21G24G14G08
 126687576.132 6  98717595.61442  24107843.195    24107841.439    24107843.208
        38.000          17.0004
 106786825.027 9  83210520.34848  20320839.752    20320840.319    20320839.622
        54.000          48.0004
 109638424.462 8  85432561.56247  20863487.404    20863488.470    20863487.346
        52.000          44.0004
 126785649.509 6  98794020.00843  24126502.168    24126502.762    24126501.779
        39.000          20.0004
 116891481.291 7  91084284.19645  22243699.682    22243697.680    22243698.950
        45.000          32.0004
 116898678.183 7  91089887.26445  22245075.877    22245077.080    22245075.417
        46.000          35.0004
 121237102.813 7  94470469.95944  23070650.787    23070649.551    23070649.703
        42.000          26.0004
 125950480.062 6  98143239.97944  23967572.791    23967574.572    23967572.732
        40.000          24.0004
 109178155.128 8  85073897.28046  20775899.113    20775897.342    20775898.212
        50.000          41.0004
 118518331.200 7  92351951.91645  22553286.396    22553287.763    22553285.526
        45.000          31.0004
 17  9 19  0 31 30.0000000  0 10G11G32G10G31G18G27G21G24G14G08
 126576861.918 6  98631324.82442  24086774.800    24086773.605    24086775.198
        37.000          16.0004
 106766263.110 9  83194498.08347  20316926.899    20316927.575    20316926.820
        54.000          47.0004
 109650204.512 8  85441740.81747  20865729.338    20865730.129    20865728.993
        51.000          43.0004
 126669484.461 7  98703501.83342  24104396.399    24104396.837    24104396.911
        42.000          17.0004
 116927384.741 7  91112260.89345  22250531.872    22250529.710    22250530.970
        46.000          32.0004
 116957419.312 7  91135659.53845  22256253.877    22256255.301    22256253.303
        47.000          35.0004
 121310536.643 7  94527691.07944  23084625.658    23084623.667    23084624.146
        43.000          26.0004
 125998819.927 6  98180907.40644  23976771.256    23976773.255    23976771.108
        40.000          24.0004
 109127330.359 8  85034293.58346  20766227.353    20766225.763    20766226.626
        50.000          41.0004
 118517977.374 7  92351676.19645  22553219.091    22553220.231    22553218.289
        45.000          32.0004
 17  9 19  0 32  0.0000000  0 10G11G32G10G31G18G27G21G24G14G08
 126466401.577 6  98545251.85042  24065754.779    24065754.576    24065754.656
        37.000          15.0004
 106746182.979 8  83178851.24148  20313105.741    20313106.449    20313105.676
        53.000          48.0004
 109662153.948 8  85451052.06547  20868003.215    20868004.145    20868003.009
        50.000          43.0004
 126553276.554 6  98612950.27743  24082282.607    24082283.626    24082282.878
        38.000          19.0004
 116963389.122 7  91140316.24245  22257383.298    22257381.129    22257382.598
        45.000          31.0004
 117016516.038 7  91181708.91045  22267499.811    22267500.783    22267499.330
        46.000          35.0004
 121384256.786 7  94585135.29944  23098653.599    23098652.324    23098652.585
        43.000          26.0004
 126047637.023 6  98218946.69144  23986061.056    23986063.107    23986060.752
        41.000          24.0004
 109076953.703 8  84995039.06346  20756641.024    20756639.448    20756640.298
        50.000          41.0004
 118518164.436 6  92351821.94945  22553254.226    22553255.872    22553253.826
        41.000          31.0004
 17  9 19  0 32 30.0000000  0 10G11G32G10G31G18G27G21G24G14G08
 126356196.584 6  98459377.85942  24044783.512    24044782.623    24044783.993
        36.000          14.0004
 106726582.241 9  83163577.94548  20309375.860    20309376.550    20309375.719
        54.000          48.0004
 109674271.098 8  85460493.99847  20870309.040    20870309.908    20870308.899
        51.000          44.0004
 126437027.064 6  98522366.43142  24060160.838    24060161.913    24060160.181
        37.000          17.0004
 116999493.803 7  91168449.75345  22264253.798    22264251.819    22264252.935
        47.000          31.0004
 117075963.766 7  91228031.77945  22278811.903    22278813.568    22278811.681
        46.000          34.0004
 121458259.796 7  94642799.93344  23112735.930    23112734.581    23112734.631
        43.000          26.0004
 126096927.561 6  98257354.89944  23995440.975    23995442.673    23995440.167
        39.000          24.0004
 109027023.493 8  84956132.42246  20747139.632    20747137.932    20747138.851
        48.000          41.0004
 118518889.761 7  92352387.12145  22553392.094    22553393.990    22553391.674
        45.000          31.0004
 17  9 19  0 33  0.0000000  0 10G11G32G10G31G18G27G21G24G14G08
 126246250.708 6  98373705.76342  24023861.330    24023860.520    24023861.950
        36.000          12.0004
 106707460.793 9  83148678.12348  20305737.087    20305737.871    20305737.141
        55.000          48.0004
 109686556.709 8  85470067.20347  20872647.059    20872647.900    20872646.757
        52.000          44.0004
 126320739.972 6  98431753.19143  24038032.404    24038032.280    24038032.594
        41.000          18.0004
 117035699.445 7  91196661.93245  22271143.400    22271141.653    22271142.532
        46.000          31.0004
 117135760.204 7  91274626.37445  22290191.085    22290192.458    22290190.658
        43.000          34.0004
 121532545.419 7  94700684.78744  23126871.841    23126871.046    23126871.100
        42.000          26.0004
 126146691.102 6  98296131.67644  24004910.989    24004912.401    24004909.984
        40.000          24.0004
 108977540.949 8  84917574.61246  20737723.496    20737721.727    20737722.646
        49.000          41.0004
 118520152.911 7  92353371.37645  22553632.848    22553634.228    22553632.211
        44.000          31.0004
 17  9 19  0 33 30.0000000  0 10G11G32G10G31G18G27G21G24G14G08
 126136566.382 5  98288237.49042  24002988.476    24002988.266    24002989.196
        35.000          12.0004
 106688817.877 9  83134151.18448  20302189.547    20302190.134    20302189.485
        55.000          48.0004
 109699010.710 8  85479771.62047  20875016.779    20875017.685    20875016.586
        52.000          44.0004
 126204417.507 6  98341112.33143  24015896.376    24015897.100    24015896.153
        38.000          18.0004
 117072006.333 7  91224953.00445  22278052.357    22278050.659    22278051.586
        44.000          31.0004
 117195902.358 7  91321490.35445  22301635.688    22301636.900    22301635.198
        46.000          34.0004
 121607112.153 7  94758788.68444  23141061.484    23141060.289    23141060.759
        42.000          26.0004
 126196925.054 6  98335275.01644  24014469.461    24014471.926    24014469.832
        39.000          24.0004
 108928506.159 8  84879365.70346  20728392.564    20728390.738    20728391.544
        49.000          40.0004
 118521952.580 7  92354773.70145  22553975.194    22553976.776    22553974.740
        45.000          31.0004
 17  9 19  0 34  0.0000000  0 10G11G32G10G31G18G27G21G24G14G08
 126027144.730 6  98202973.87742  23982166.989    23982165.075    23982166.257
        36.000          12.0004
 106670651.224 9  83119995.35948  20298732.479    20298733.160    20298732.467
        55.000          48.0004
 109711631.641 8  85489606.11047  20877418.361    20877419.383    20877418.239
        52.000          44.0004
 126088060.925 6  98250445.02543  23993754.086    23993755.269    23993754.598
        38.000          21.0004
 117108413.246 7  91253322.01945  22284980.450    22284978.389    22284979.672
        46.000          30.0004
 117256385.754 7  91368620.24545  22313145.598    22313146.768    22313144.999
        45.000          35.0004
 121681956.862 7  94817109.18244  23155304.554    23155303.232    23155303.116
        42.000          26.0004
 126247626.819 7  98374782.86844  24024118.464    24024119.873    24024117.687
        42.000          24.0004
 108879917.605 8  84841504.50846  20719146.306    20719144.667    20719145.584
        49.000          41.0004
 118524286.401 7  92356592.24845  22554419.093    22554420.958    22554418.800
        43.000          31.0004
 17  9 19  0 34 30.0000000  0 10G11G32G10G31G18G27G21G24G14G08
 125917990.443 5  98117918.62342  23961394.890    23961394.166    23961394.916
        35.000          12.0004
 106652962.483 9  83106211.93447  20295366.486    20295367.098    20295366.410
        55.000          47.0004
 109724421.997 8  85499572.61547  20879852.393    20879853.161    20879852.135
        51.000          44.0004
 125971675.957 6  98159755.55743  23971607.299    23971608.140    23971607.621
        41.000          22.0004
 117144922.977 7  91281771.13945  22291928.043    22291926.114    22291927.138
        46.000          31.0004
 117317209.887 7  91416015.64945  22324719.858    22324721.128    22324719.349
        43.000          34.0004
 121757080.412 7  94875646.96244  23169600.113    23169598.751    23169598.737
        42.000          26.0004
 126298796.555 7  98414655.37744  24033855.860    24033857.613    24033855.430
        42.000          25.0004
 108831777.861 8  84803993.02746  20709985.625    20709983.940    20709984.775
        48.000          41.0004
 118527155.549 7  92358827.92745  22554965.520    22554967.074    22554964.890
        44.000          31.0004
 17  9 19  0 35  0.0000000  0 10G11G32G10G31G18G27G21G24G14G08
 125809105.426 6  98033073.18942  23940675.984    23940674.869    23940675.015
        36.000          13.0004
 106635749.717 9  83092799.40148  20292090.929    20292091.596    20292090.948
        54.000          48.0004
 109737380.669 8  85509670.27947  20882318.310    20882319.279    20882318.145
        51.000          44.0004
 125855264.010 6  98069045.01643  23949453.476    23949455.098    23949454.513
        38.000          20.0004
 117181534.578 7  91310299.64745  22298895.003    22298893.254    22298894.118
        46.000          31.0004
 117378370.603 7  91463673.32145  22336358.552    22336359.657    22336357.938
        43.000          34.0004
 121832480.754 6  94934400.42544  23183948.020    23183946.871    23183946.886
        41.000          25.0004
 126350431.449 6  98454890.35544  24043681.442    24043683.409    24043680.984
        40.000          25.0004
 108784085.959 8  84766830.51946  20700910.472    20700908.390    20700909.320
        48.000          41.0004
 118530557.619 7  92361478.87645  22555612.803    22555614.538    22555612.281
        43.000          31.0004
 17  9 19  0 35 30.0000000  0 10G11G32G10G31G18G27G21G24G14G08
 125700492.657 6  97948439.89842  23920007.154    23920005.927    23920006.603
        37.000          15.0004
 106619012.180 9  83079757.17248  20288905.862    20288906.546    20288905.801
        55.000          48.0004
 109750507.762 8  85519899.18347  20884816.480    20884817.295    20884816.107
        51.000          43.0004
 125738828.173 7  97978315.94243  23927297.703    23927297.889    23927297.261
        42.000          22.0004
 117218248.597 7  91338907.96145  22305881.577    22305879.540    22305880.743
        45.000          31.0004
 117439865.009 7  91511591.00745  22348060.739    22348062.079    22348059.917
        45.000          34.0004
 121908156.397 6  94993368.40344  23198348.454    23198347.847    23198347.585
        41.000          25.0004
 126402529.950 6  98495486.57144  24053594.894    24053597.210    24053595.057
        40.000          24.0004
 108736842.265 8  84730017.26346  20691919.854    20691918.212    20691919.032
        49.000          41.0004
 118534491.975 7  92364544.58645  22556361.501    22556363.016    22556361.182
        46.000          31.0004
 17  9 19  0 36  0.0000000  0 10G11G32G10G31G18G27G21G24G14G08
 125592153.497 6  97864019.78942  23899390.676    23899389.655    23899391.002
        37.000          16.0004
 106602747.564 9  83067083.45448  20285810.966    20285811.475    20285810.837
        55.000          48.0004
 109763801.857 8  85530258.21347  20887346.144    20887347.073    20887345.984
        52.000          44.0004
 125622369.949 7  97887569.36744  23905137.066    23905136.852    23905136.441
        42.000          25.0004
 117255063.787 7  91367595.11345  22312887.147    22312885.183    22312886.313
        46.000          31.0004
 117501688.621 7  91559765.21745  22359825.294    22359826.215    22359824.771
        45.000          34.0004
 121984104.458 6  95052548.66244  23212801.092    23212799.934    23212800.061
        41.000          25.0004
 126455088.495 6  98536441.27544  24063596.832    24063598.694    24063596.894
        40.000          24.0004
 108690045.365 8  84693552.16446  20683014.600    20683012.950    20683013.931
        49.000          41.0004
 118538955.417 7  92368022.57445  22557210.596    22557212.383    22557210.207
        45.000          31.0004
 17  9 19  0 36 30.0000000  0 10G11G32G10G31G18G27G21G24G14G08
 125484092.558 6  97779816.48742  23878827.272    23878826.517    23878827.020
        37.000          17.0004
 106586957.135 9  83054779.23348  20282806.128    20282806.643    20282805.994
        54.000          48.0004
 109777265.117 8  85540749.06347  20889908.159    20889909.150    20889907.895
        51.000          44.0004
 125505894.213 6  97796809.17243  23882971.202    23882971.850    23882971.081
        41.000          23.0004
 117291982.339 7  91396362.80245  22319912.582    22319910.513    22319911.908
        45.000          31.0004
 117563840.549 7  91608195.26345  22371652.391    22371653.665    22371651.658
        44.000          34.0004
 122060325.300 6  95111941.47144  23227305.741    23227304.431    23227304.262
        40.000          24.0004
 126508106.891 6  98577754.30144  24073686.423    24073687.732    24073685.929
        41.000          25.0004
 108643697.155 8  84657436.69346  20674194.937    20674193.181    20674194.253
        48.000          41.0004
 118543949.188 7  92371913.80045  22558161.337    22558162.739    22558160.563
        46.000          31.0004
 17  9 19  0 37  0.0000000  0 10G11G32G10G31G18G27G21G24G14G08
 125376313.272 6  97695832.66543  23858318.438    23858316.800    23858317.532
        39.000          18.0004
 106571640.517 9  83042844.21148  20279891.471    20279892.005    20279891.326
        55.000          48.0004
 109790898.108 8  85551372.16847  20892502.582    20892503.288    20892502.214
        53.000          43.0004
 125389404.552 7  97706038.09644  23860804.666    23860804.726    23860804.465
        43.000          25.0004
 117329005.534 7  91425212.03045  22326957.911    22326955.928    22326957.168
        46.000          31.0004
 117626318.377 7  91656879.24845  22383541.322    22383543.117    22383541.116
        45.000          34.0004
 122136818.070 6  95171546.16944  23241861.905    23241860.820    23241860.407
        41.000          24.0004
 126561584.312 6  98619425.01644  24083862.252    24083864.422    24083862.182
        41.000          24.0004
 108597798.428 8  84621671.46846  20665460.909    20665458.932    20665459.886
        49.000          41.0004
 118549472.240 7  92376217.45945  22559212.051    22559213.835    22559211.397
        43.000          31.0004
 17  9 19  0 37 30.0000000  0 10G11G32G10G31G18G27G21G24G14G08
 125268819.923 6  97612071.63743  23837862.211    23837861.149    23837862.512
        37.000          19.0004
 106556798.555 9  83031279.05448  20277067.213    20277067.735    20277067.033
        55.000          48.0004
 109804702.624 8  85562128.93347  20895129.372    20895130.120    20895129.030
        52.000          43.0004
 125272905.283 6  97615259.56144  23838634.319    23838635.503    23838634.507
        41.000          26.0004
 117366135.224 7  91454144.24445  22334023.173    22334021.529    22334022.703
        44.000          31.0004
 117689120.637 7  91705816.04245  22395492.121    22395493.592    22395491.803
        45.000          34.0004
 122213582.888 6  95231362.85344  23256469.263    23256468.676    23256468.416
        41.000          24.0004
 126615520.987 6  98661453.58144  24094126.534    24094127.561    24094125.780
        40.000          24.0004
 108552351.046 8  84586257.94246  20656812.607    20656810.540    20656811.597
        50.000          41.0004
 118555525.266 7  92380934.08045  22560363.930    22560365.435    22560363.353
        44.000          31.0004
 17  9 19  0 38  0.0000000  0 10G11G32G10G31G18G27G21G24G14G08
 125161614.028 6  97528534.61543  23817461.374    23817460.432    23817461.882
        38.000          19.0004
 106542429.194 9  83020082.15048  20274332.671    20274333.280    20274332.581
        54.000          48.0004
 109818677.599 8  85573018.52147  20897788.619    20897789.629    20897788.513
        52.000          44.0004
 125156398.414 7  97524475.13144  23816464.688    23816464.665    23816464.198
        43.000          24.0004
 117403370.603 7  91483158.81045  22341109.246    22341107.059    22341108.378
        46.000          31.0004
 117752243.195 7  91755002.42045  22407504.288    22407505.713    22407503.574
        45.000          34.0004
 122290617.429 6  95291389.71044  23271128.366    23271127.813    23271127.635
        40.000          24.0004
 126669912.693 6  98703836.71744  24104476.912    24104478.845    24104476.687
        40.000          24.0004
 108507353.853 8  84551195.20946  20648249.833    20648247.933    20648248.888
        48.000          41.0004
 118562105.932 7  92386061.85545  22561616.230    22561617.821    22561615.590
        44.000          31.0004
 17  9 19  0 38 30.0000000  0 10G11G32G10G31G18G27G21G24G14G08
 125054695.949 6  97445221.86343  23797116.553    23797114.820    23797115.776
        39.000          19.0004
 106528529.168 9  83009250.96348  20271687.534    20271688.166    20271687.421
        55.000          48.0004
 109832820.691 8  85584039.10747  20900480.043    20900480.889    20900479.843
        52.000          44.0004
 125039884.436 7  97433685.06944  23794292.078    23794292.673    23794292.336
        42.000          25.0004
 117440709.584 7  91512254.10645  22348214.513    22348212.693    22348213.816
        43.000          31.0004
 117815680.696 7  91804434.20545  22419575.775    22419577.593    22419575.338
        46.000          34.0004
 122367917.626 7  95351623.58544  23285838.700    23285837.438    23285837.411
        42.000          24.0004
 126724755.816 6  98746571.61243  24114912.711    24114914.828    24114912.809
        39.000          22.0004
 108462804.110 8  84516481.14147  20639772.259    20639770.325    20639771.344
        49.000          42.0004
 118569210.481 7  92391597.85445  22562967.958    22562969.671    22562967.710
        45.000          30.0004
 17  9 19  0 39  0.0000000  0 10G11G32G10G31G18G27G21G24G14G08
 124948067.590 6  97362134.85043  23776825.577    23776823.714    23776824.968
        38.000          20.0004
 106515096.533 9  82998783.97848  20269131.374    20269131.996    20269131.342
        54.000          48.0004
 109847130.998 8  85595189.99147  20903203.340    20903204.102    20903202.980
        51.000          44.0004
 124923365.271 6  97342891.07444  23772119.340    23772120.211    23772119.499
        41.000          25.0004
 117478151.741 7  91541429.80745  22355339.718    22355337.757    22355338.892
        47.000          31.0004
 117879429.064 7  91854108.22645  22431706.696    22431708.256    22431706.264
        45.000          33.0004
 122445481.136 6  95412062.62744  23300597.803    23300597.614    23300597.334
        41.000          24.0004
 126780047.289 6  98789655.86543  24125433.959    24125436.342    24125434.076
        39.000          21.0004
 108418701.148 8  84482115.21346  20631379.716    20631377.821    20631378.849
        49.000          41.0004
 118576836.716 7  92397540.35745  22564419.351    22564420.969    22564418.796
        44.000          31.0004
 17  9 19  0 39 30.0000000  0 10G11G32G10G31G18G27G21G24G14G08
 124841734.673 6  97279278.06543  23756590.854    23756589.545    23756590.840
        38.000          20.0004
 106502133.415 9  82988682.86148  20266664.718    20266665.239    20266664.519
        54.000          48.0004
 109861611.663 8  85606473.62247  20905958.720    20905959.717    20905958.540
        51.000          44.0004
 124806846.892 7  97252097.64444  23749947.301    23749947.135    23749946.984
        42.000          25.0004
 117515700.203 7  91570688.33645  22362484.741    22362482.873    22362484.008
        45.000          31.0004
 117943488.332 7  91904024.50745  22443896.899    22443898.499    22443896.367
        46.000          34.0004
 122523309.261 6  95472707.86544  23315408.630    23315408.082    23315407.649
        41.000          24.0004
 126835788.082 6  98833090.23343  24136041.363    24136043.154    24136041.386
        39.000          21.0004
 108375048.283 8  84448100.00946  20623072.685    20623071.066    20623071.959
        49.000          41.0004
 118584986.049 7  92403890.46745  22565970.276    22565971.797    22565969.731
        43.000          31.0004
 17  9 19  0 40  0.0000000  0 10G11G32G10G31G18G27G21G24G14G08
 124735697.437 6  97196651.66343  23736413.135    23736411.080    23736412.592
        40.000          20.0004
 106489636.563 8  82978945.06548  20264286.469    20264287.104    20264286.418
        53.000          48.0004
 109876260.471 8  85617888.27847  20908746.504    20908747.272    20908746.104
        51.000          44.0004
 124690330.086 6  97161305.42043  23727773.339    23727774.682    23727774.114
        40.000          23.0004
 117553353.177 7  91600028.30245  22369650.032    22369648.004    22369649.166
        45.000          30.0004
 118007853.141 7  91954178.87145  22456145.163    22456146.742    22456144.673
        45.000          33.0004
 122601398.317 6  95533556.43443  23330268.605    23330267.595    23330267.224
        40.000          23.0004
 126891973.915 6  98876871.40643  24146733.738    24146735.131    24146732.761
        38.000          21.0004
 108331843.046 7  84414433.60446  20614851.161    20614849.230    20614850.266
        47.000          41.0004
 118593654.995 7  92410645.47545  22567619.896    22567621.659    22567619.360
        44.000          31.0004
 17  9 19  0 40 30.0000000  0 10G11G32G10G31G18G27G21G24G14G08
 124629963.965 6  97114261.97643  23716292.520    23716290.548    23716292.195
        40.000          20.0004
 106477610.198 9  82969573.87848  20261997.900    20261998.610    20261997.951
        55.000          48.0004
 109891082.723 8  85629438.08047  20911567.161    20911567.801    20911566.761
        51.000          43.0004
 124573822.826 7  97070520.69444  23705604.202    23705603.906    23705603.889
        43.000          24.0004
 117591115.978 7  91629453.84345  22376836.211    22376833.993    22376835.247
        46.000          31.0004
 118072525.657 7  92004573.00345  22468451.986    22468453.430    22468451.562
        45.000          33.0004
 122679752.104 6  95594611.28343  23345178.769    23345178.077    23345177.558
        41.000          23.0004
 126948607.868 6  98921001.74143  24157510.221    24157511.989    24157510.005
        38.000          21.0004
 108289090.298 8  84381119.79047  20606715.588    20606713.617    20606714.604
        49.000          42.0004
 118602847.223 7  92417808.22745  22569369.000    22569370.858    22569368.611
        43.000          31.0004
 17  9 19  0 41  0.0000000  0 10G11G32G10G31G18G27G21G24G14G08
 124524534.933 6  97032109.50543  23696229.611    23696228.585    23696229.266
        39.000          20.0004
 106466051.163 9  82960566.84847  20259798.380    20259798.908    20259798.299
        55.000          47.0004
 109906076.332 8  85641121.41147  20914420.254    20914421.073    20914420.026
        51.000          43.0004
 124457325.708 6  96979743.80743  23683434.617    23683434.453    23683434.519
        40.000          23.0004
 117628986.906 7  91658963.64745  22384042.727    22384040.519    22384041.877
        46.000          31.0004
 118137500.567 7  92055202.77045  22480816.522    22480817.999    22480816.054
        45.000          33.0004
 122758366.731 6  95655869.38643  23360138.383    23360137.817    23360137.567
        41.000          23.0004
 127005686.162 6  98965478.33043  24168371.423    24168373.747    24168371.853
        38.000          20.0004
 108246787.842 8  84348156.84947  20598665.806    20598663.738    20598664.795
        49.000          42.0004
 118612559.414 7  92425376.15145  22571217.508    22571218.902    22571216.887
        42.000          31.0004
 17  9 19  0 41 30.0000000  0 10G11G32G10G31G18G27G21G24G14G08
 124419410.581 6  96950194.43943  23676225.127    23676223.677    23676224.870
        40.000          20.0004
 106454956.038 9  82951921.30348  20257686.916    20257687.576    20257686.941
        54.000          48.0004
 109921239.029 8  85652936.49647  20917305.752    20917306.444    20917305.316
        50.000          43.0004
 124340839.595 6  96888975.50643  23661268.387    23661267.921    23661268.350
        41.000          20.0004
 117666963.764 7  91688555.99345  22391269.267    22391267.411    22391268.504
        47.000          31.0004
 118202772.482 7  92106063.96645  22493237.370    22493238.606    22493236.572
        45.000          33.0004
 122837238.198 6  95717327.61843  23375147.175    23375146.482    23375146.390
        40.000          23.0004
 127063204.441 6  99010297.76243  24179317.803    24179319.057    24179317.105
        37.000          20.0004
 108204933.375 8  84315542.99346  20590700.976    20590699.074    20590700.107
        49.000          41.0004
 118622787.528 7  92433346.09445  22573163.665    22573165.164    22573163.027
        44.000          31.0004
 17  9 19  0 42  0.0000000  0 10G11G32G10G31G18G27G21G24G14G08
 124314590.986 6  96868516.85643  23656278.729    23656277.270    23656278.539
        38.000          20.0004
 106444321.373 9  82943634.55748  20255663.341    20255663.893    20255663.200
        54.000          48.0004
 109936568.469 8  85664881.51147  20920222.671    20920223.484    20920222.439
        52.000          43.0004
 124224365.129 6  96798216.30243  23639103.414    23639103.940    23639103.581
        40.000          22.0004
 117705044.672 7  91718229.41045  22398515.872    22398513.937    22398515.115
        44.000          30.0004
 118268335.847 7  92157152.27345  22505713.645    22505714.820    22505713.138
        44.000          33.0004
 122916362.697 6  95778983.02543  23390204.317    23390203.335    23390203.105
        40.000          22.0004
 127121157.511 6  99055455.97043  24190345.896    24190347.517    24190345.925
        37.000          20.0004
 108163524.359 8  84283276.23946  20582821.167    20582819.159    20582820.272
        49.000          41.0004
 118633527.503 7  92441714.88545  22575207.527    22575209.130    22575206.911
        44.000          31.0004
 17  9 19  0 42 30.0000000  0 10G11G32G10G31G18G27G21G24G14G08
 124210081.850 6  96787081.17843  23636391.707    23636389.671    23636390.973
        40.000          19.0004
 106434148.791 9  82935707.87447  20253727.562    20253728.088    20253727.466
        55.000          47.0004
 109952067.404 8  85676958.59947  20923172.094    20923172.819    20923171.861
        50.000          43.0004
 124107907.569 7  96707470.23243  23616942.799    23616941.956    23616942.792
        43.000          22.0004
 117743232.790 7  91747986.38645  22405783.102    22405780.854    22405782.075
        45.000          30.0004
 118334190.248 7  92208467.34445  22518245.309    22518246.915    22518244.722
        45.000          33.0004
 122995741.039 7  95840836.21243  23405309.564    23405308.383    23405308.269
        42.000          22.0004
 127179546.761 6  99100954.06243  24201456.274    24201458.459    24201456.227
        39.000          21.0004
 108122563.275 8  84251358.52746  20575026.556    20575024.496    20575025.585
        48.000          41.0004
 118644780.857 7  92450483.71945  22577348.761    22577350.531    22577348.408
        44.000          31.0004
 17  9 19  0 43  0.0000000  0 10G11G32G10G31G18G27G21G24G14G08
 124105886.247 6  96705889.83743  23616563.121    23616562.050    23616562.962
        38.000          18.0004
 106424438.014 9  82928141.03947  20251879.701    20251880.205    20251879.552
        54.000          47.0004
 109967736.756 8  85689168.47547  20926153.758    20926154.616    20926153.544
        51.000          44.0004
 123991470.947 6  96616740.47543  23594785.005    23594784.984    23594785.635
        39.000          22.0004
 117781529.146 7  91777827.69144  22413070.368    22413068.389    22413069.703
        44.000          29.0004
 118400333.361 7  92260007.39345  22530831.920    22530833.490    22530831.438
        45.000          33.0004
 123075372.675 6  95902886.77143  23420463.217    23420462.582    23420461.474
        39.000          23.0004
 127238370.523 6  99146790.80943  24212649.090    24212651.881    24212650.199
        37.000          18.0004
 108082050.326 8  84219790.01246  20567316.992    20567315.219    20567316.174
        48.000          41.0004
 118656546.767 7  92459651.93445  22579588.200    22579589.775    22579587.437
        43.000          31.0004
 17  9 19  0 43 30.0000000  0 10G11G32G10G31G18G27G21G24G14G08
 124002009.170 6  96624946.69342  23596796.046    23596794.681    23596795.494
        37.000          17.0004
 106415189.800 9  82920934.64247  20250119.703    20250120.396    20250119.650
        54.000          47.0004
 109983578.381 8  85701512.59447  20929168.473    20929169.145    20929168.120
        53.000          44.0004
 123875059.982 6  96526030.74243  23572633.104    23572632.858    23572632.803
        41.000          22.0004
 117819935.661 7  91807754.82844  22420379.252    22420377.182    22420378.189
        44.000          29.0004
 118466763.928 7  92311771.43745  22543473.266    22543474.624    22543472.630
        45.000          33.0004
 123155257.688 6  95965134.78643  23435664.245    23435663.781    23435663.088
        40.000          22.0004
 127297628.565 5  99192965.90742  24223926.026    24223928.404    24223926.118
        35.000          15.0004
 108041987.606 8  84188572.32146  20559693.265    20559691.394    20559692.494
        48.000          41.0004
 118668825.438 7  92469219.71845  22581923.922    22581926.250    22581924.080
        45.000          31.0004
 17  9 19  0 44  0.0000000  0 11G11G32G10G31G01G18G27G21G24G14G08
 123898449.173 6  96544250.60542  23577088.869    23577088.230    23577088.961
        37.000          17.0004
 106406399.100 9  82914084.75447  20248446.861    20248447.632    20248446.811
        55.000          47.0004
 109999588.478 8  85713987.99047  20932215.245    20932215.743    20932214.732
        52.000          43.0004
 123758673.567 7  96435340.12143  23550485.388    23550484.626    23550485.485
        42.000          22.0004
 130925053.082 6 102019527.73642  24914208.709    24914211.734    24914209.550
        38.000          17.0004
 117858449.086 7  91837765.25744  22427707.789    22427705.862    22427707.097
        45.000          29.0004
 118533474.826 7  92363753.93845  22556168.045    22556169.735    22556167.534
        45.000          33.0004
 123235390.445 6  96027575.84643  23450912.760    23450913.095    23450912.053
        38.000          23.0004
 127357314.824 6  99239474.62441  24235284.481    24235286.933    24235284.163
        36.000          11.0004
 108002371.063 8  84157702.29746  20552154.555    20552152.662    20552153.797
        49.000          41.0004
 118681611.471 7  92479182.84245  22584357.542    22584359.003    22584356.850
        44.000          30.0004
 17  9 19  0 44 30.0000000  0 11G11G32G10G31G01G18G27G21G24G14G08
 125370634.616 6  97691408.12542  23857236.939    23857235.785    23857236.513
        37.000          17.0004
 107973487.478 9  84135192.59548  20546653.910    20546654.510    20546653.765
        54.000          48.0004
 111591189.047 8  86954196.22347  21235086.542    21235087.313    21235086.165
        51.000          43.0004
 125217741.282 7  97572276.10644  23828136.909    23828136.483    23828136.744
        42.000          24.0004
 132386713.409 6 103158483.85942  25192352.957    25192356.572    25192353.676
        37.000          17.0004
 119472490.512 7  93095459.85645  22734850.083    22734847.855    22734848.920
        44.000          30.0004
 120175883.108 7  93643552.56345  22868708.231    22868709.347    22868707.225
        43.000          32.0004
 124891189.221 6  97317808.60943  23766001.261    23766000.857    23766000.286
        39.000          21.0004
 128992847.382 6 100513915.55042  24546515.688    24546517.366    24546515.482
        37.000          16.0004
 109538624.256 8  85354782.72147  20844493.940    20844491.862    20844493.001
        48.000          42.0004
 120270324.968 7  93717141.40245  22886679.588    22886681.196    22886679.100
        44.000          30.0004
 17  9 19  0 45  0.0000000  0 11G11G32G10G31G01G18G27G21G24G14G08
 125267722.615 6  97611216.97942  23837653.060    23837651.504    23837653.371
        37.000          16.0004
 107965614.678 9  84129057.95648  20545155.745    20545156.358    20545155.759
        55.000          48.0004
 111607542.703 8  86966939.31945  21238198.440    21238199.274    21238198.200
        49.000          35.0004
 125101419.738 7  97481636.03044  23806001.413    23806001.070    23806001.395
        42.000          25.0004
 132272975.342 6 103069856.82642  25170710.563    25170712.602    25170710.164
        38.000          17.0004
 119511224.398 7  93125642.08945  22742220.555    22742218.613    22742219.694
        45.000          30.0004
 120243151.602 7  93695969.54145  22881508.791    22881510.285    22881508.388
        42.000          32.0004
 124971818.974 6  97380636.91043  23781345.099    23781344.319    23781343.578
        40.000          21.0004
 129053389.395 6 100561091.14842  24558036.583    24558039.098    24558036.904
        37.000          17.0004
 109499905.578 8  85324612.33647  20837125.876    20837124.018    20837125.035
        48.000          42.0004
 120284127.046 7  93727896.24545  22889306.159    22889307.827    22889305.485
        42.000          30.0004
 17  9 19  0 45 30.0000000  0 11G11G32G10G31G01G18G27G21G24G14G08
 125165140.036 6  97531282.52642  23818132.504    23818131.059    23818132.381
        38.000          17.0004
 107958199.907 9  84123280.22148  20543744.639    20543745.352    20543744.708
        55.000          48.0004
 111624069.048 8  86979816.99247  21241343.459    21241344.163    21241343.137
        50.000          43.0004
 124985135.829 7  97391025.27744  23783872.903    23783873.194    23783873.284
        43.000          25.0004
 132159264.646 6 102981251.11242  25149072.213    25149074.276    25149071.991
        37.000          17.0004
 119550069.827 7  93155911.25045  22749612.618    22749610.588    22749611.823
        43.000          30.0004
 120310694.960 7  93748600.67945  22894361.809    22894363.328    22894361.216
        45.000          32.0004
 125052695.482 6  97443657.50643  23796734.772    23796735.153    23796733.820
        39.000          21.0004
 129114357.537 6 100608598.80243  24569639.132    24569640.608    24569638.722
        37.000          18.0004
 109461636.219 8  85294792.07446  20829843.548    20829841.611    20829842.595
        48.000          41.0004
 120298435.442 7  93739045.62745  22892028.914    22892030.711    22892028.498
        45.000          30.0004
 17  9 19  0 46  0.0000000  0 11G11G32G10G31G01G18G27G21G24G14G08
 125062891.218 6  97451608.12642  23798675.495    23798673.498    23798675.162
        39.000          17.0004
 107951243.940 9  84117859.98648  20542421.209    20542421.663    20542421.016
        56.000          48.0004
 111640770.170 8  86992830.84847  21244521.449    21244522.382    21244521.215
        52.000          43.0004
 124868894.449 7  97300447.65244  23761753.102    23761752.959    23761753.115
        44.000          26.0004
 132045585.301 5 102892669.82542  25127439.128    25127442.106    25127438.611
        34.000          16.0004
 119589029.107 7  93186269.11544  22757026.493    22757024.527    22757025.401
        42.000          29.0004
 120378511.992 7  93801445.08645  22907267.002    22907268.215    22907266.386
        45.000          32.0004
 125133818.979 6  97506870.54843  23812172.399    23812172.268    23812171.224
        40.000          23.0004
 129175750.915 6 100656437.81542  24581321.341    24581323.325    24581321.684
        39.000          17.0004
 109423817.700 8  85265323.11046  20822647.018    20822644.844    20822645.933
        49.000          41.0004
 120313250.676 7  93750589.94345  22894847.896    22894849.813    22894847.686
        44.000          30.0004
 17  9 19  0 46 30.0000000  0 11G11G32G10G31G01G18G27G21G24G14G08
 124960975.337 6  97372193.17443  23779281.206    23779279.662    23779281.079
        38.000          18.0004
 107944742.334 9  84112793.79348  20541183.977    20541184.459    20541183.737
        55.000          48.0004
 111657642.892 8  87005978.42147  21247732.430    21247733.100    21247732.014
        51.000          43.0004
 124752694.880 7  97209902.63444  23739640.908    23739641.009    23739640.952
        44.000          26.0004
 131931935.930 5 102804111.93142  25105812.187    25105815.813    25105812.639
        32.000          13.0004
 119628099.367 7  93216713.44345  22764461.198    22764459.195    22764460.473
        45.000          30.0004
 120446596.258 7  93854497.74445  22920223.110    22920224.730    22920222.598
        45.000          32.0004
 125215184.640 6  97570272.30343  23827655.773    23827655.818    23827654.663
        40.000          22.0004
 129237564.506 6 100704604.23642  24593084.657    24593085.801    24593084.350
        39.000          17.0004
 109386446.725 7  85236202.88046  20815535.390    20815533.460    20815534.569
        46.000          41.0004
 120328567.398 7  93762525.04345  22897762.629    22897764.556    22897762.377
        44.000          30.0004
 17  9 19  0 47  0.0000000  0 11G11G32G10G31G01G18G27G21G24G14G08
 124859396.465 6  97293040.82343  23759951.640    23759949.610    23759951.081
        40.000          19.0004
 107938695.096 9  84108081.66148  20540033.119    20540033.744    20540033.042
        54.000          48.0004
 111674688.547 8  87019260.74747  21250976.074    21250976.792    21250975.635
        51.000          43.0004
 124636541.848 7  97119393.86244  23717538.203    23717537.623    23717537.642
        43.000          27.0004
 131818319.604 4 102715579.78941  25084191.257    25084195.467    25084190.770
        29.000          11.0004
 119667282.212 7  93247245.51445  22771917.810    22771915.366    22771916.632
        46.000          30.0004
 120514945.808 7  93907757.09045  22933229.370    22933230.934    22933229.015
        43.000          32.0004
 125296791.903 6  97633862.30843  23843184.732    23843184.950    23843183.883
        38.000          22.0004
 129299796.438 6 100753096.66343  24604927.145    24604928.252    24604926.069
        41.000          20.0004
 109349523.993 7  85207431.93647  20808509.379    20808507.301    20808508.445
        47.000          42.0004
 120344385.130 7  93774850.52545  22900772.589    22900774.661    22900772.505
        44.000          30.0004
 17  9 19  0 47 30.0000000  0 11G11G32G10G31G01G18G27G21G24G14G08
 124758155.894 6  97214152.08943  23740686.286    23740684.434    23740685.777
        39.000          20.0004
 107933099.770 9  84103721.67548  20538968.292    20538968.934    20538968.314
        54.000          48.0004
 111691906.004 8  87032676.94147  21254252.510    21254253.170    21254252.105
        50.000          43.0004
 124520436.963 7  97028922.59944  23695443.539    23695443.431    23695443.402
        44.000          27.0004
 131704737.093 4 102627074.03741  25062575.437    25062581.218    25062576.837
        26.000           8.0004
 119706576.476 7  93277864.40145  22779395.035    22779393.141    22779394.047
        45.000          30.0004
 120583556.217 7  93961219.71545  22946285.405    22946287.148    22946285.263
        43.000          31.0004
 125378637.777 6  97697638.25143  23858760.271    23858760.101    23858759.076
        40.000          21.0004
 129362443.773 6 100801912.78043  24616848.444    24616849.983    24616847.577
        39.000          21.0004
 109313048.088 8  85179009.16747  20801568.158    20801566.174    20801567.367
        48.000          42.0004
 120360701.187 7  93787564.31345  22903877.585    22903879.531    22903877.300
        43.000          30.0004
 17  9 19  0 48  0.0000000  0 11G11G32G10G31G01G18G27G21G24G14G08
 124657258.140 6  97135530.47243  23721485.762    23721484.547    23721485.552
        41.000          21.0004
 107927957.041 8  84099714.36448  20537989.705    20537990.257    20537989.574
        53.000          48.0004
 111709297.295 8  87046228.59147  21257561.674    21257562.605    21257561.530
        51.000          43.0004
 124404385.211 7  96938492.76144  23673359.766    23673359.711    23673359.399
        43.000          27.0004
 131591192.403 4                  25040971.158
        27.000
 119745984.621 7  93308572.03044  22786894.164    22786892.154    22786893.087
        45.000          29.0004
 120652426.251 7  94014884.63445  22959391.282    22959393.040    22959390.767
        43.000          32.0004
 125460722.440 6  97761600.25043  23874380.540    23874379.914    23874379.360
        39.000          22.0004
 129425506.498 6 100851052.56843  24628848.847    24628850.377    24628848.531
        41.000          22.0004
 109277020.586 8  85150935.80147  20794712.070    20794710.244    20794711.426
        49.000          42.0004
 120377515.549 7  93800666.39445  22907077.471    22907079.396    22907076.913
        44.000          30.0004
 17  9 19  0 48 30.0000000  0 11G11G32G10G31G01G18G27G21G24G14G08
 124556707.117 6  97057179.03943  23702351.653    23702350.116    23702351.500
        40.000          22.0004
 107923266.686 8  84096059.55247  20537097.139    20537097.722    20537097.040
        52.000          47.0004
 111726863.512 8  87059916.54847  21260904.551    21260905.451    21260904.237
        51.000          43.0004
 124288390.542 7  96848107.39044  23651287.043    23651286.523    23651286.491
        43.000          27.0004
 131477688.355 5 102450146.12442  25019370.713    25019372.411    25019372.372
        32.000          13.0004
 119785508.135 7  93339369.55944  22794415.331    22794413.111    22794414.137
        45.000          29.0004
 120721553.693 7  94068750.13945  22972545.899    22972547.379    22972545.455
        44.000          31.0004
 125543045.064 6  97825747.70843  23890045.689    23890045.537    23890044.633
        39.000          22.0004
 129488982.921 6 100900514.70743  24640927.784    24640929.598    24640927.230
        39.000          22.0004
 109241442.133 8  85123212.34447  20787941.768    20787939.986    20787941.088
        49.000          42.0004
 120394827.577 7  93814156.26645  22910371.702    22910373.198    22910371.254
        44.000          30.0004
 17  9 19  0 49  0.0000000  0 11G11G32G10G31G01G18G27G21G24G14G08
 124456504.320 6  96979098.95843  23683283.518    23683282.409    23683283.486
        40.000          22.0004
 107919026.488 9  84092755.50848  20536290.270    20536290.902    20536290.196
        55.000          48.0004
 111744603.903 8  87073740.22947  21264280.396    21264281.317    21264280.095
        50.000          43.0004
 124172455.038 7  96757768.13344  23629224.456    23629224.476    23629224.071
        42.000          26.0004
 131364226.152 5 102361734.04742  24997779.204    24997783.564    24997780.988
        34.000          15.0004
 119825146.058 7  93370256.23444  22801958.264    22801955.939    22801957.243
        44.000          29.0004
 120790934.479 7  94122813.05145  22985748.561    22985749.825    22985747.859
        42.000          31.0004
 125625602.967 6  97890078.47243  23905756.538    23905755.815    23905755.458
        41.000          22.0004
 129552869.814 6 100950296.69143  24653085.020    24653086.268    24653084.924
        39.000          22.0004
 109206311.311 8  85095837.68947  20781256.666    20781254.783    20781255.899
        48.000          42.0004
 120412634.398 7  93828031.69145  22913760.255    22913762.063    22913759.874
        44.000          30.0004
 17  9 19  0 49 30.0000000  0 11G11G32G10G31G01G18G27G21G24G14G08
 124356653.308 6  96901292.99743  23664282.847    23664280.813    23664282.296
        40.000          22.0004
 107915235.981 8  84089801.87148  20535568.956    20535569.535    20535568.888
        53.000          48.0004
 111762519.389 8  87087700.34647  21267689.777    21267690.489    21267689.338
        49.000          43.0004
 124056582.681 7  96667478.07544  23607174.641    23607175.037    23607174.640
        42.000          26.0004
 131250808.499 6 102273356.69342  24976197.630    24976200.783    24976197.422
        36.000          16.0004
 119864899.686 7  93401233.07344  22809523.037    22809520.798    22809522.018
        45.000          29.0004
 120860566.183 7  94177071.48345  22998998.775    22999000.966    22998998.643
        44.000          32.0004
 125708395.451 6  97954592.04843  23921511.067    23921510.960    23921509.790
        39.000          21.0004
 129617166.286 6 101000397.84443  24665320.493    24665322.256    24665320.416
        39.000          22.0004
 109171628.582 8  85068812.20047  20774656.838    20774654.867    20774655.970
        49.000          42.0004
 120430935.029 7  93842291.90645  22917242.993    22917244.709    22917242.355
        43.000          30.0004
 17  9 19  0 50  0.0000000  0 11G11G32G10G31G01G18G27G21G24G14G08
 124257156.081 6  96823762.71843  23645349.102    23645347.259    23645348.684
        40.000          22.0004
 107911893.290 9  84087197.18047  20534932.894    20534933.439    20534932.796
        54.000          47.0004
 111780609.484 8  87101796.52247  21271132.038    21271132.897    21271131.792
        51.000          43.0004
 123940775.835 7  96577239.06544  23585136.769    23585137.242    23585136.985
        42.000          26.0004
 131137436.776 6 102185015.11342  24954623.377    24954626.923    24954624.347
        38.000          17.0004
 119904768.877 7  93432299.96144  22817109.722    22817107.745    22817108.999
        44.000          29.0004
 120930445.054 7  94231522.51545  23012296.224    23012298.139    23012295.869
        42.000          31.0004
 125791419.973 6  98019286.40643  23937310.015    23937309.964    23937309.238
        39.000          21.0004
 129681869.315 6 101050815.77243  24677632.922    24677634.801    24677632.444
        40.000          21.0004
 109137392.911 8  85042135.06747  20768141.903    20768139.921    20768141.183
        48.000          42.0004
 120449727.184 7  93856935.12145  22920818.798    22920820.741    22920818.558
        43.000          30.0004
 17  9 19  0 50 30.0000000  0 11G11G32G10G31G01G18G27G21G24G14G08
 124158016.310 6  96746510.97143  23626482.799    23626481.659    23626482.841
        40.000          22.0004
 107908998.216 9  84084941.28548  20534381.854    20534382.505    20534381.888
        54.000          48.0004
 111798875.384 8  87116029.68547  21274608.114    21274608.862    21274607.707
        51.000          43.0004
 123825038.317 6  96487054.08144  23563112.683    23563113.250    23563112.870
        41.000          26.0004
 131024114.067 6 102096711.71942  24933059.605    24933062.214    24933059.172
        38.000          17.0004
 119944754.941 7  93463457.91944  22824718.834    22824716.976    22824717.884
        45.000          29.0004
 121000568.924 7  94286164.45945  23025640.792    23025642.252    23025640.386
        43.000          31.0004
 125874676.023 6  98084161.20143  23953154.004    23953153.159    23953152.481
        40.000          20.0004
 129746976.935 6 101101548.97243  24690022.766    24690024.648    24690022.483
        41.000          22.0004
 109103604.787 8  85015806.67047  20761712.348    20761710.290    20761711.447
        48.000          42.0004
 120469009.892 7  93871960.58945  22924488.245    22924489.957    22924488.010
        44.000          30.0004
 17  9 19  0 51  0.0000000  0 11G11G32G10G31G01G18G27G21G24G14G08
 124059236.977 6  96669540.09643  23607685.613    23607684.768    23607685.697
        40.000          22.0004
 107906549.811 8  84083033.44548  20533915.960    20533916.600    20533915.848
        52.000          48.0004
 111817317.640 8  87130400.27247  21278117.415    21278118.326    21278117.131
        50.000          43.0004
 123709373.909 6  96396926.05944  23541102.953    23541102.693    23541103.024
        41.000          26.0004
 130910842.833 6 102008448.43143  24911504.991    24911507.231    24911504.508
        39.000          18.0004
 119984858.343 7  93494707.31544  22832350.316    22832348.462    22832349.354
        44.000          29.0004
 121070935.039 7  94340995.15945  23039031.018    23039032.862    23039030.316
        43.000          31.0004
 125958161.753 6  98149214.94743  23969040.345    23969040.078    23969039.299
        39.000          21.0004
 129812487.783 6 101152596.40243  24702488.537    24702490.999    24702488.443
        39.000          21.0004
 109070264.546 7  84989827.27447  20755367.847    20755365.877    20755367.071
        46.000          42.0004
 120488782.069 7  93887367.45445  22928250.488    22928252.580    22928250.394
        44.000          30.0004
 17  9 19  0 51 30.0000000  0 11G11G32G10G31G01G18G27G21G24G14G08
 123960816.764 6  96592849.04743  23588957.263    23588955.914    23588956.969
        39.000          22.0004
 107904542.788 9  84081469.53548  20533534.037    20533534.705    20533534.013
        54.000          48.0004
 111835932.431 8  87144905.30147  21281659.591    21281660.473    21281659.350
        51.000          43.0004
 123593781.364 7  96306854.03644  23519105.771    23519105.897    23519105.927
        43.000          26.0004
 130797621.094 6 101920223.70243  24889959.067    24889962.080    24889958.783
        40.000          18.0004
 120025075.556 7  93526045.38744  22840003.583    22840001.414    22840002.475
        45.000          29.0004
 121141536.192 7  94396008.99345  23052465.869    23052467.679    23052465.390
        44.000          31.0004
 126041871.943 6  98214443.62843  23984969.499    23984969.327    23984968.974
        39.000          18.0004
 129878395.276 6 101203952.90243  24715030.586    24715032.238    24715030.368
        39.000          21.0004
 109037367.400 8  84964193.14646  20749107.581    20749105.732    20749106.801
        49.000          41.0004
 120509037.282 7  93903150.72045  22932105.585    22932107.224    22932105.021
        44.000          30.0004
 17  9 19  0 52  0.0000000  0 11G11G32G10G31G01G18G27G21G24G14G08
 123862760.152 6  96516441.32843  23570298.012    23570296.480    23570297.327
        39.000          22.0004
 107902977.602 9  84080249.91948  20533236.289    20533236.841    20533236.197
        54.000          48.0004
 111854721.656 8  87159546.25147  21285235.225    21285236.084    21285234.851
        51.000          42.0004
 123478265.892 7  96216842.05644  23497124.507    23497124.230    23497124.366
        43.000          26.0004
 130684452.665 6 101832040.51342  24868423.323    24868426.079    24868423.753
        40.000          17.0004
 120065408.900 7  93557473.95844  22847678.684    22847676.815    22847677.689
        42.000          29.0004
 121212370.957 7  94451204.88745  23065945.365    23065946.836    23065945.043
        43.000          31.0004
 126125806.419 6  98279847.03543  24000942.068    24000941.973    24000941.047
        38.000          18.0004
 129944699.316 6 101255618.40243  24727646.758    24727649.291    24727647.449
        38.000          20.0004
 109004914.868 8  84938905.47147  20742932.332    20742930.218    20742931.351
        48.000          42.0004
 120529775.515 6  93919310.35845  22936051.827    22936053.318    22936051.104
        41.000          30.0004
 17  9 19  0 52 30.0000000  0 11G11G32G10G31G01G18G27G21G24G14G08
 123765068.992 6  96440318.37643  23551707.877    23551706.456    23551707.289
        39.000          21.0004
 107901852.248 9  84079373.02548  20533022.162    20533022.623    20533022.012
        54.000          48.0004
 111873684.831 8  87174322.74647  21288843.821    21288844.469    21288843.457
        51.000          43.0004
 123362829.670 7  96126891.84344  23475157.879    23475157.412    23475157.574
        46.000          26.0004
 130571338.948 6 101743899.94142  24846899.329    24846901.694    24846899.116
        40.000          16.0004
 120105857.955 7  93588992.68644  22855375.763    22855374.135    22855374.934
        44.000          29.0004
 121283435.527 7  94506579.83145  23079468.501    23079470.479    23079468.081
        44.000          31.0004
 126209962.881 6  98345423.48143  24016956.783    24016955.578    24016956.096
        38.000          18.0004
 130011396.333 6 101307590.11743  24740339.777    24740341.497    24740339.497
        38.000          19.0004
 108972905.877 8  84913963.41047  20736841.268    20736839.047    20736840.168
        48.000          42.0004
 120550994.291 7  93935844.45245  22940089.313    22940091.363    22940088.843
        45.000          30.0004
 17  9 19  0 53  0.0000000  0 11G11G32G10G31G01G18G27G21G24G14G08
 123667750.050 6  96364485.46143  23533187.999    23533187.225    23533188.222
        39.000          21.0004
 107901169.437 9  84078840.97348  20532892.276    20532892.786    20532892.075
        54.000          48.0004
 111892826.192 8  87189238.09347  21292486.354    21292487.136    21292485.891
        50.000          43.0004
 123247479.647 7  96037008.77344  23453207.044    23453206.552    23453207.053
        45.000          26.0004
 130458286.033 6 101655806.76542  24825385.544    24825388.284    24825385.515
        39.000          16.0004
 120146427.158 7  93620605.04844  22863095.496    22863093.867    22863094.823
        45.000          28.0004
 121354730.701 7  94562134.47245  23093035.559    23093037.322    23093035.361
        44.000          31.0004
 126294343.472 6  98411174.49342  24033014.023    24033013.875    24033012.634
        38.000          17.0004
 130078488.570 6 101359869.76443  24753107.099    24753108.778    24753106.806
        37.000          20.0004
 108941343.980 8  84889369.73947  20730834.995    20730833.093    20730834.114
        48.000          42.0004
 120572695.730 7  93952754.64645  22944219.169    22944220.982    22944218.582
        45.000          30.0004
 17  9 19  0 53 30.0000000  0 11G11G32G10G31G01G18G27G21G24G14G08
 123570803.003 6  96288942.33243  23514739.965    23514738.482    23514739.554
        39.000          21.0004
 107900924.960 9  84078650.47848  20532845.625    20532846.114    20532845.643
        55.000          48.0004
 111912143.050 8  87204290.18747  21296161.987    21296162.827    21296161.757
        52.000          43.0004
 123132216.188 7  95947193.16744  23431273.851    23431273.008    23431273.392
        45.000          27.0004
 130345293.221 6 101567760.40142  24803883.939    24803886.417    24803884.319
        39.000          15.0004
 120187114.074 7  93652309.12644  22870838.467    22870836.225    22870837.642
        43.000          28.0004
 121426250.478 7  94617864.13345  23106645.167    23106646.643    23106644.773
        43.000          30.0004
 126378943.312 5  98477096.42542  24049112.205    24049112.113    24049111.140
        35.000          16.0004
 130145970.032 6 101412452.71243  24765948.043    24765949.862    24765947.837
        36.000          19.0004
 108910225.756 8  84865121.78547  20724913.452    20724911.363    20724912.537
        48.000          42.0004
 120594874.883 7  93970037.08645  22948439.957    22948441.606    22948439.230
        46.000          30.0004
 17  9 19  0 54  0.0000000  0 11G11G32G10G31G01G18G27G21G24G14G08
 123474231.382 6  96213691.73543  23496363.029    23496361.463    23496362.433
        39.000          21.0004
 107901118.454 8  84078801.26448  20532882.617    20532883.025    20532882.360
        53.000          48.0004
 111931636.569 8  87219479.93947  21299871.494    21299872.391    21299871.233
        51.000          43.0004
 123017043.602 7  95857448.36244  23409356.534    23409355.905    23409356.489
        45.000          27.0004
 130232363.526 6 101479763.21742  24782393.892    24782396.445    24782393.937
        38.000          13.0004
 120227919.894 7  93684105.86044  22878603.438    22878601.524    22878602.226
        45.000          28.0004
 121497992.654 7  94673767.09245  23120297.741    23120299.113    23120296.973
        43.000          30.0004
 126463761.736 6  98543188.61142  24065253.340    24065253.296    24065252.353
        38.000          16.0004
 130213840.332 6 101465338.64743  24778863.328    24778865.633    24778863.394
        36.000          19.0004
 108879551.613 7  84841219.87047  20719076.296    20719074.202    20719075.521
        46.000          42.0004
 120617530.888 7  93987691.10045  22952750.965    22952752.836    22952750.758
        44.000          30.0004
 17  9 19  0 54 30.0000000  0 11G11G32G10G31G01G18G27G21G24G14G08
 123378035.645 6  96138734.04343  23478057.775    23478056.029    23478057.308
        40.000          21.0004
 107901746.135 9  84079290.37048  20533001.877    20533002.419    20533001.812
        54.000          48.0004
 111951304.544 8  87234805.63047  21303614.298    21303615.142    21303614.005
        51.000          43.0004
 122901962.304 7  95767774.69544  23387457.322    23387456.817    23387457.142
        44.000          28.0004
 130119496.680 6 101391815.02042  24760916.275    24760919.473    24760916.283
        38.000          14.0004
 120268842.695 7  93715993.74944  22886390.418    22886388.628    22886389.672
        45.000          28.0004
 121569951.617 7  94729838.97145  23133990.630    23133992.780    23133990.396
        43.000          31.0004
 126548794.508 6  98609447.84642  24081433.072    24081434.001    24081433.219
        37.000          16.0004
 130282094.413 6 101518523.61043  24791851.855    24791853.802    24791851.843
        36.000          19.0004
 108849318.742 8  84817661.79847  20713323.192    20713321.189    20713322.340
        48.000          42.0004
 120640659.517 7  94005713.39145  22957152.379    22957154.135    22957151.808
        45.000          30.0004
 17  9 19  0 55  0.0000000  0 11G11G32G10G31G01G18G27G21G24G14G08
 123282220.795 6  96064073.14143  23459824.136    23459822.968    23459824.448
        40.000          21.0004
 107902809.120 9  84080118.67148  20533204.098    20533204.708    20533204.049
        55.000          48.0004
 111971149.679 8  87250269.37047  21307390.693    21307391.566    21307390.298
        51.000          43.0004
 122786977.955 7  95678176.57444  23365576.722    23365575.834    23365576.043
        45.000          27.0004
 130006697.348 6 101303919.44642  24739451.437    24739453.867    24739450.916
        37.000          14.0004
 120309885.194 7  93747974.90744  22894200.798    22894199.025    22894200.033
        44.000          28.0004
 121642126.715 7  94786079.26244  23147725.210    23147726.787    23147724.753
        43.000          29.0004
 126634042.220 6  98675874.58642  24097657.042    24097656.853    24097656.057
        39.000          17.0004
 130350732.208 6 101572007.59543  24804912.585    24804915.428    24804913.333
        38.000          20.0004
 108819528.912 7  84794448.95647  20707654.362    20707652.372    20707653.425
        47.000          42.0004
 120664260.907 7  94024104.06945  22961643.545    22961645.573    22961643.173
        43.000          30.0004
 17  9 19  0 55 30.0000000  0 11G11G32G10G31G01G18G27G21G24G14G08
 123186788.592 6  95989710.40243  23441664.167    23441662.809    23441664.034
        40.000          21.0004
 107904305.380 9  84081284.58948  20533488.983    20533489.488    20533488.861
        55.000          48.0004
 111991171.502 8  87265870.78847  21311200.593    21311201.536    21311200.381
        51.000          43.0004
 122672092.932 7  95588655.84544  23343714.528    23343713.846    23343714.493
        45.000          28.0004
 129893966.828 6 101216077.50442  24717999.200    24718002.169    24717998.446
        36.000          15.0004
 120351047.258 7  93780049.22844  22902034.076    22902031.894    22902032.951
        42.000          28.0004
 121714514.007 7  94842484.91845  23161500.564    23161501.908    23161499.991
        42.000          30.0004
 126719502.481 6  98742466.90643  24113918.603    24113918.942    24113917.955
        38.000          18.0004
 130419750.342 6 101625787.96243  24818046.100    24818048.894    24818046.659
        37.000          20.0004
 108790180.928 8  84771580.40947  20702069.745    20702067.564    20702068.714
        48.000          42.0004
 120688332.434 7  94042861.08445  22966224.453    22966226.200    22966223.885
        45.000          31.0004
 17  9 19  0 56  0.0000000  0 12G11G32G10G31G22G01G18G27G21G24G14G08
 123091740.458 6  95915646.93743  23423577.335    23423575.639    23423576.843
        40.000          22.0004
 107906232.065 9  84082785.90447  20533855.541    20533856.060    20533855.485
        54.000          47.0004
 112011368.779 8  87281608.92247  21315044.141    21315044.961    21315043.831
        50.000          42.0004
 122557309.011 7  95499213.88744  23321871.681    23321871.170    23321871.761
        45.000          28.0004
 132608607.440 6 103331384.98542  25234578.752    25234574.751    25234574.967
        39.000          17.0004
 129781306.039 5 101128289.92142  24696560.654    24696563.762    24696560.458
        35.000          14.0004
 120392327.791 7  93812215.86844  22909889.327    22909887.538    22909888.393
        44.000          28.0004
 121787109.011 7  94899052.41245  23175314.850    23175316.540    23175314.113
        44.000          30.0004
 126805172.015 6  98809222.37443  24130220.987    24130221.509    24130220.650
        38.000          19.0004
 130489145.481 6 101679862.09643  24831252.306    24831255.039    24831252.294
        36.000          19.0004
 108761273.087 8  84749054.83047  20696568.493    20696566.495    20696567.733
        48.000          42.0004
 120712870.683 7  94061981.77745  22970893.876    22970895.479    22970893.184
        45.000          31.0004
 17  9 19  0 56 30.0000000  0 11G11G32G10G31G01G18G27G21G24G14G08
 122997083.642 7  95841888.38943  23405564.946    23405563.187    23405564.525
        42.000          22.0004
 107908592.402 9  84084625.13247  20534304.657    20534305.236    20534304.578
        55.000          47.0004
 112031746.357 8  87297487.55547  21318921.834    21318922.712    21318921.539
        50.000          42.0004
 122442633.782 7  95409856.64444  23300049.944    23300049.151    23300049.875
        44.000          28.0004
 129668721.553 5 101040561.78042  24675135.999    24675138.819    24675135.957
        34.000          15.0004
 120433731.669 7  93844478.62544  22917768.005    22917766.356    22917767.170
        45.000          28.0004
 121859913.075 7  94955782.80845  23189169.062    23189170.470    23189168.143
        45.000          30.0004
 126891053.661 6  98876143.02743  24146563.538    24146564.279    24146563.097
        39.000          20.0004
 130558919.980 6 101734231.83743  24844529.491    24844532.410    24844529.604
        37.000          20.0004
 108732809.243 8  84726875.22347  20691152.186    20691150.043    20691151.199
        49.000          42.0004
 120737878.358 7  94081468.26145  22975652.401    22975654.360    22975652.027
        43.000          31.0004
 17  9 19  0 57  0.0000000  0 12G11G32G10G31G22G01G18G27G21G24G14G08
 122902819.751 6  95768436.01843  23387626.978    23387625.285    23387626.565
        40.000          23.0004
 107911384.013 9  84086800.41848  20534836.043    20534836.433    20534835.885
        55.000          48.0004
 112052303.474 8  87313506.08747  21322833.649    21322834.602    21322833.381
        51.000          43.0004
 122328069.729 7  95320586.01644  23278248.786    23278248.350    23278248.675
        44.000          28.0004
 132442756.704 6 103202146.35843  25203019.118    25203015.906    25203018.622
        40.000          18.0004
 129556214.693 5 100952894.15842  24653726.675    24653730.157    24653726.185
        34.000          15.0004
 120475258.373 7  93876837.08544  22925670.226    22925668.651    22925669.391
        44.000          28.0004
 121932922.054 7  95012672.90045  23203061.892    23203063.567    23203061.726
        43.000          30.0004
 126977144.516 6  98943226.77243  24162947.403    24162946.437    24162946.143
        40.000          21.0004
 130629070.392 5 101788894.48543  24857878.532    24857881.664    24857878.839
        34.000          19.0004
 108704787.781 8  84705040.33147  20685819.772    20685817.752    20685818.951
        49.000          42.0004
 120763352.373 7  94101318.12745  22980500.408    22980501.718    22980499.709
        43.000          31.0004
 17  9 19  0 57 30.0000000  0 12G11G32G10G31G22G01G18G27G21G24G14G08
 122808948.372 6  95695289.50043  23369763.777    23369762.317    23369763.505
        41.000          23.0004
 107914602.527 9  84089308.35948  20535448.643    20535448.919    20535448.378
        55.000          48.0004
 112073037.436 8  87329662.41947  21326779.293    21326780.127    21326778.960
        51.000          42.0004
 122213616.816 7  95231402.00444  23256469.124    23256468.582    23256469.014
        45.000          29.0004
 132359801.001 6 103137505.57543  25187232.732    25187229.429    25187231.593
        41.000          18.0004
 129443784.611 5 100865286.33042  24632332.262    24632335.158    24632331.749
        33.000          16.0004
 120516905.438 7  93909289.32744  22933595.635    22933593.621    22933594.707
        44.000          28.0004
 122006129.860 7  95069717.90045  23216992.817    23216995.108    23216992.295
        43.000          30.0004
 127063439.915 6  99010469.85343  24179367.938    24179368.403    24179366.940
        38.000          19.0004
 130699590.571 5 101843845.27942  24871297.842    24871300.788    24871299.077
        34.000          17.0004
 108677205.428 8  84683547.60247  20680570.933    20680569.026    20680570.172
        48.000          42.0004
 120789287.407 7  94121527.22745  22985435.286    22985437.112    22985435.043
        43.000          31.0004
 17  9 19  0 58  0.0000000  0 12G11G32G10G31G22G01G18G27G21G24G14G08
 122715472.981 6  95622451.54043  23351976.156    23351974.572    23351975.687
        41.000          23.0004
 107918247.521 9  84092148.62248  20536141.962    20536142.521    20536141.912
        54.000          48.0004
 112093949.482 8  87345957.51647  21330758.866    21330759.596    21330758.462
        51.000          42.0004
 122099279.245 7  95142307.87044  23234711.224    23234710.944    23234710.887
        44.000          29.0004
 132276824.313 6 103072848.45143  25171442.829    25171439.996    25171441.246
        41.000          18.0004
 129331434.590 5 100777740.92842  24610952.791    24610955.653    24610952.297
        34.000          15.0004
 120558673.992 7  93941836.24244  22941543.760    22941541.832    22941542.921
        44.000          28.0004
 122079534.300 7  95126916.11844  23230961.655    23230963.209    23230961.208
        44.000          29.0004
 127149938.926 6  99077871.61843  24195828.834    24195828.850    24195828.155
        38.000          21.0004
 130770479.926 5 101899083.72742  24884788.435    24884790.350    24884788.401
        34.000          15.0004
 108650062.572 7  84662397.34047  20675405.815    20675403.899    20675405.075
        47.000          42.0004
 120815682.753 7  94142095.01245  22990458.350    22990460.310    22990457.797
        45.000          31.0004
 17  9 19  0 58 30.0000000  0 12G11G32G10G31G22G01G18G27G21G24G14G08
 122622395.128 7  95549923.35543  23334264.570    23334262.366    23334263.820
        42.000          23.0004
 107922316.455 9  84095319.22948  20536916.328    20536916.760    20536916.222
        55.000          48.0004
 112115038.713 8  87362390.68247  21334771.837    21334772.762    21334771.500
        52.000          42.0004
 121985058.676 7  95053304.90844  23212975.652    23212975.384    23212975.409
        44.000          29.0004
 132193825.582 6 103008174.16042  25155648.784    25155645.796    25155647.385
        40.000          17.0004
 129219165.669 5 100690258.69943  24589588.699    24589591.269    24589588.469
        35.000          18.0004
 120600563.416 7  93974477.34644  22949515.018    22949513.288    22949514.172
        44.000          28.0004
 122153131.067 7  95184264.23944  23244966.177    23244967.833    23244966.152
        42.000          29.0004
 127236638.634 6  99145429.77943  24212327.288    24212326.893    24212326.079
        39.000          18.0004
 130841734.904 5 101954607.07542  24898347.771    24898349.930    24898347.355
        34.000          14.0004
 108623357.138 8  84641587.92347  20670324.008    20670322.093    20670323.181
        48.000          42.0004
 120842535.075 7  94163018.87845  22995568.023    22995570.228    22995567.668
        45.000          31.0004
 17  9 19  0 59  0.0000000  0 11G11G32G10G31G01G18G27G21G24G14G08
 122529719.393 6  95477708.51043  23316628.537    23316626.909    23316627.978
        41.000          23.0004
 107926810.211 9  84098820.86747  20537771.552    20537771.938    20537771.280
        54.000          47.0004
 112136307.716 8  87378963.93147  21338819.086    21338820.102    21338818.878
        52.000          42.0004
 121870960.956 7  94964397.66244  23191263.635    23191263.275    23191263.594
        44.000          29.0004
 129106982.330 6 100602843.15843  24568240.785    24568243.924    24568240.846
        36.000          18.0004
 120642576.626 7  94007214.89444  22957510.109    22957508.196    22957509.116
        44.000          28.0004
 122226919.359 6  95241761.56344  23259007.645    23259010.043    23259007.470
        41.000          29.0004
 127323539.277 6  99213144.50643  24228863.933    24228863.956    24228863.077
        40.000          21.0004
 130913354.998 5 102010414.89842  24911976.660    24911978.368    24911976.416
        34.000          15.0004
 108597090.831 8  84621120.68147  20665325.897    20665323.712    20665324.745
        49.000          42.0004
 120869844.457 7  94184298.89145  23000765.067    23000766.629    23000764.513
        45.000          30.0004
 17  9 19  0 59 30.0000000  0 12G11G32G10G31G22G01G18G27G21G24G14G08
 122437449.894 7  95405810.21044  23299070.180    23299068.452    23299069.609
        42.000          24.0004
 107931728.437 9  84102653.25948  20538707.421    20538707.880    20538707.259
        54.000          48.0004
 112157757.886 8  87395678.34947  21342901.139    21342901.883    21342900.764
        51.000          42.0004
 121756990.550 7  94875589.62744  23169575.610    23169575.398    23169575.416
        45.000          29.0004
 132027769.285 6 102878783.69942  25124048.466    25124045.982    25124048.498
        40.000          17.0004
 128994888.010 6 100515496.97843  24546909.767    24546912.743    24546909.633
        38.000          21.0004
 120684715.278 7  94040050.19144  22965528.517    22965526.780    22965528.126
        44.000          28.0004
 122300897.102 7  95299406.50945  23273085.955    23273087.484    23273085.327
        43.000          30.0004
 127410640.491 6  99281015.50143  24245438.633    24245438.695    24245437.776
        38.000          20.0004
 130985339.487 6 102066506.72442  24925674.691    24925676.279    24925675.017
        36.000          16.0004
 108571264.368 7  84600996.17447  20660411.123    20660409.140    20660410.255
        47.000          42.0004
 120897609.854 7  94205934.25245  23006048.567    23006050.368    23006048.191
        45.000          30.0004
 17  9 19  1  0  0.0000000  0 11G11G32G10G31G01G18G27G21G24G14G08
 122345586.294 6  95334228.20144  23281588.668    23281587.315    23281588.514
        41.000          24.0004
 107937066.718 9  84106812.96548  20539723.081    20539723.660    20539723.006
        54.000          48.0004
 112179386.471 8  87412531.79147  21347017.046    21347017.675    21347016.515
        52.000          42.0004
 121643147.496 7  94786880.82344  23147912.051    23147911.861    23147911.825
        44.000          29.0004
 128882881.885 6 100428219.50843  24525596.039    24525598.552    24525595.966
        39.000          21.0004
 120726976.610 7  94072981.08644  22973570.941    22973569.060    22973570.060
        44.000          28.0004
 122375058.167 7  95357194.33144  23287197.383    23287199.171    23287197.052
        42.000          28.0004
 127497937.231 6  99349038.92143  24262051.011    24262050.818    24262050.094
        39.000          19.0004
 131057682.731 6 102122878.07243  24939441.053    24939443.603    24939440.888
        37.000          18.0004
 108545873.894 8  84581211.40047  20655579.478    20655577.431    20655578.530
        48.000          42.0004
 120925826.207 7  94227921.00045  23011418.225    23011419.999    23011417.581
        43.000          30.0004
 17  9 19  1  0 30.0000000  0 12G11G32G10G31G01G18G27G21G22G24G14G08
 122254132.122 7  95262965.22244  23264186.145    23264184.181    23264185.482
        43.000          24.0004
 107942824.561 8  84111299.60247  20540818.919    20540819.361    20540818.730
        53.000          47.0004
 112201194.716 8  87429525.22747  21351166.651    21351167.670    21351166.436
        51.000          42.0004
 121529435.748 7  94698274.33344  23126273.608    23126272.766    23126273.298
        45.000          29.0004
 128770967.173 6 100341013.26243  24504299.386    24504301.902    24504299.501
        39.000          22.0004
 120769361.760 7  94106008.45444  22981636.596    22981634.269    22981635.808
        44.000          28.0004
 122449400.352 7  95415123.27244  23301345.090    23301346.562    23301344.256
        43.000          28.0004
 127585428.662 6  99417213.94043  24278699.539    24278699.787    24278699.040
        36.000          18.0004
 135012469.619 6                  25692018.618
        38.000
 131130382.976 6 102179527.61643  24953275.950    24953277.817    24953275.543
        39.000          19.0004
 108520920.154 7  84561766.93947  20650830.800    20650828.899    20650829.991
        47.000          42.0004
 120954492.189 7  94250258.10545  23016872.607    23016874.737    23016872.165
        45.000          30.0004
 17  9 19  1  1  0.0000000  0 12G11G32G10G31G01G18G27G21G22G24G14G08
 122163086.144 6  95192020.32043  23246860.547    23246858.575    23246859.855
        41.000          23.0004
 107948996.758 8  84116109.11648  20541993.323    20541993.812    20541993.276
        52.000          48.0004
 112223179.173 8  87446655.97047  21355350.245    21355351.182    21355349.979
        50.000          42.0004
 121415854.811 7  94609769.77645  23104659.815    23104659.233    23104659.864
        46.000          30.0004
 128659142.411 6 100253877.11043  24483020.133    24483022.190    24483019.721
        40.000          23.0004
 120811867.502 7  94139129.80344  22989724.911    22989723.149    22989724.417
        45.000          28.0004
 122523916.744 7  95473187.95645  23315524.807    23315526.933    23315524.287
        42.000          30.0004
 127673109.210 6  99485536.39542  24295385.510    24295384.603    24295383.846
        36.000          16.0004
 131778526.650 6                  25076619.075
        40.000
 131203433.872 6 102236450.39943  24967177.328    24967178.830    24967176.859
        41.000          18.0004
 108496398.571 7  84542659.22247  20646164.406    20646162.600    20646163.749
        47.000          42.0004
 120983602.082 7  94272941.12045  23022412.166    23022414.398    23022411.849
        43.000          30.0004
 17  9 19  1  1 30.0000000  0 12G11G32G10G31G22G01G18G27G21G24G14G08
 122072457.540 6  95121400.65044  23229614.520    23229612.492    23229613.766
        41.000          24.0004
 107955588.210 9  84121245.32248  20543247.771    20543248.221    20543247.595
        54.000          48.0004
 112245346.498 8  87463929.20747  21359568.554    21359569.525    21359568.346
        51.000          42.0004
 121302414.621 7  94521374.88745  23083072.761    23083072.064    23083072.530
        46.000          30.0004
 131695402.879 6 102619790.97742  25060801.823    25060799.070    25060799.685
        39.000          17.0004
 128547416.267 6 100166817.80143  24461759.175    24461761.603    24461758.972
        41.000          23.0004
 120854500.892 7  94172350.60744  22997838.340    22997836.143    22997837.214
        44.000          28.0004
 122598610.655 7  95531390.94544  23329738.286    23329740.263    23329737.853
        42.000          28.0004
 127760983.512 5  99554009.84242  24312106.400    24312106.701    24312105.075
        34.000          15.0004
 131276840.104 6 102293650.07143  24981145.520    24981148.738    24981146.139
        39.000          19.0004
 108472314.688 8  84523892.57447  20641581.669    20641579.559    20641580.676
        48.000          42.0004
 121013160.002 7  94295973.24345  23028036.878    23028039.032    23028036.499
        42.000          30.0004
 17  9 19  1  2  0.0000000  0 11G11G32G10G31G01G18G27G21G24G14G08
 121982247.080 6  95051106.80444  23212447.707    23212446.077    23212447.194
        41.000          24.0004
 107962595.830 9  84126705.81647  20544581.162    20544581.592    20544581.070
        54.000          47.0004
 112267695.364 8  87481343.90647  21363821.361    21363822.368    21363821.043
        51.000          42.0004
 121189116.386 7  94433090.62145  23061512.499    23061511.905    23061512.456
        45.000          30.0004
 128435789.342 6 100079835.80443  24440517.218    24440519.362    24440516.843
        41.000          23.0004
 120897260.953 7  94205670.12344  23005975.305    23005973.199    23005974.319
        44.000          28.0004
 122673477.219 7  95589728.51144  23343985.436    23343986.778    23343985.029
        43.000          29.0004
 127849047.846 6  99622631.29242  24328865.248    24328864.521    24328864.071
        37.000          14.0004
 131350597.402 6 102351123.31442  24995181.461    24995184.211    24995181.975
        40.000          15.0004
 108448666.169 8  84505465.17247  20637081.316    20637079.371    20637080.519
        48.000          42.0004
 121043162.205 7  94319351.56145  23033746.496    23033748.286    23033745.815
        44.000          30.0004
 17  9 19  1  2 30.0000000  0 11G11G32G10G31G01G18G27G21G24G14G08
 121892459.578 6  94981142.54444  23195361.956    23195360.048    23195361.129
        41.000          24.0004
 107970020.574 9  84132491.34047  20545994.122    20545994.512    20545993.939
        55.000          47.0004
 112290228.532 8  87498902.21747  21368109.522    21368110.209    21368109.138
        50.000          42.0004
 121075966.233 7  94344921.73545  23039981.108    23039980.195    23039980.903
        45.000          30.0004
 128324266.477 6  99992934.89943  24419295.188    24419297.398    24419294.993
        40.000          23.0004
 120940150.022 7  94239090.15444  23014136.352    23014134.691    23014135.666
        44.000          28.0004
 122748515.810 7  95648200.11344  23358264.622    23358266.954    23358264.111
        42.000          29.0004
 127937302.935 5  99691401.46142  24345659.005    24345659.660    24345658.891
        34.000          12.0004
 131424705.553 6 102408869.93342  25009283.084    25009286.458    25009283.867
        38.000          16.0004
 108425454.959 8  84487378.52447  20632664.530    20632662.465    20632663.663
        48.000          42.0004
 121073608.880 7  94343076.22345  23039539.977    23039541.910    23039539.633
        44.000          30.0004
 17  9 19  1  3  0.0000000  0 11G11G32G10G31G01G18G27G21G24G14G08
 121803089.023 6  94911503.17644  23178354.902    23178353.532    23178354.528
        41.000          24.0004
 107977852.411 9  84138594.07748  20547484.351    20547484.948    20547484.296
        54.000          48.0004
 112312937.729 8  87516597.69047  21372430.865    21372431.775    21372430.467
        51.000          43.0004
 120962958.039 7  94256863.46445  23018476.235    23018475.288    23018476.171
        45.000          30.0004
 128212841.321 6  99906110.11743  24398091.949    24398093.973    24398091.430
        40.000          21.0004
 120983159.435 7  94272603.96944  23022320.986    23022318.969    23022320.098
        43.000          28.0004
 122823714.729 7  95706796.58844  23372574.686    23372576.762    23372573.811
        42.000          29.0004
 128025738.093 6  99760311.94241  24362489.036    24362488.393    24362487.281
        37.000          11.0004
 131499153.474 6 102466881.35842  25023449.786    25023452.582    25023450.704
        38.000          14.0004
 108402671.621 8  84469625.28447  20628328.756    20628326.898    20628328.056
        49.000          42.0004
 121104489.012 7  94367138.64045  23045416.467    23045418.259    23045415.894
        45.000          30.0004
 17  9 19  1  3 30.0000000  0 12G11G32G10G31G22G01G18G27G21G24G14G08
 121714141.103 6  94842193.13244  23161428.693    23161426.985    23161428.583
        41.000          24.0004
 107986092.837 9  84145015.19447  20549052.488    20549053.012    20549052.341
        54.000          47.0004
 112335826.264 8  87534432.90947  21376786.220    21376787.268    21376786.101
        52.000          42.0004
 120850098.202 7  94168920.79445  22996999.475    22996998.661    22996999.308
        46.000          30.0004
 131362705.978 6 102360546.08443  24997490.533    24997487.669    24997488.861
        37.000          18.0004
 128101519.196 6  99819365.62743  24376907.759    24376910.143    24376907.470
        38.000          19.0004
 121026293.324 7  94306214.77644  23030528.812    23030527.216    23030528.192
        44.000          28.0004
 122899073.790 7  95765517.89844  23386915.017    23386916.548    23386914.954
        43.000          29.0004
 128114354.692 5  99829363.78342  24379350.235    24379352.181    24379350.591
        34.000          15.0004
 131573942.372 6 102525158.48141  25037681.221    25037683.746    25037681.703
        37.000          11.0004
 108380318.516 8  84452207.29547  20624074.954    20624073.244    20624074.406
        50.000          42.0004
 121135803.578 7  94391539.58045  23051375.437    23051377.344    23051374.858
        44.000          30.0004
 17  9 19  1  4  0.0000000  0 12G11G32G10G31G22G01G18G27G21G24G14G08
 121625619.499 6  94773215.28844  23144583.413    23144581.957    23144583.249
        41.000          25.0004
 107994741.759 8  84151754.62248  20550698.374    20550698.831    20550698.211
        53.000          48.0004
 112358895.838 8  87552409.19747  21381176.309    21381177.258    21381176.053
        50.000          42.0004
 120737391.528 7  94081097.47545  22975552.071    22975551.185    22975551.951
        46.000          30.0004
 131279475.196 5 102295690.96543  24981652.317    24981650.483    24981651.355
        35.000          18.0004
 127990303.818 6  99732704.30443  24355743.671    24355746.000    24355743.779
        38.000          18.0004
 121069553.443 7  94339923.94244  23038760.915    23038759.138    23038760.494
        43.000          27.0004
 122974591.286 6  95824362.68644  23401285.079    23401287.496    23401284.705
        41.000          28.0004
 128203152.063 6  99898556.48141  24396249.194    24396249.543    24396247.477
        37.000          11.0004
 131649070.524 6 102583699.91842  25051979.493    25051980.090    25051978.689
        41.000          14.0004
 108358396.078 8  84435124.89247  20619903.738    20619901.490    20619902.600
        48.000          42.0004
 121167551.939 7  94416278.53445  23057417.174    23057418.962    23057416.538
        43.000          30.0004
 17  9 19  1  4 30.0000000  0 12G11G32G10G31G22G01G18G27G21G24G14G08
 121537534.735 7  94704577.83844  23127821.875    23127820.197    23127821.079
        42.000          25.0004
 108003805.425 9  84158817.22747  20552422.897    20552423.478    20552422.897
        54.000          47.0004
 112382154.593 8  87570532.89747  21385602.246    21385603.177    21385602.102
        51.000          42.0004
 120624848.966 7  93993402.03345  22954135.809    22954135.043    22954135.601
        46.000          30.0004
 131196230.771 6 102230825.25642  24965811.742    24965809.524    24965810.895
        36.000          17.0004
 127879205.357 6  99646134.08342  24334602.212    24334604.819    24334602.553
        37.000          16.0004
 121112948.333 7  94373738.12344  23047018.957    23047017.195    23047018.071
        43.000          27.0004
 123050271.939 6  95883334.55244  23415686.454    23415689.269    23415686.025
        41.000          28.0004
 128292136.180 6  99967894.74542  24413182.323    24413182.150    24413181.433
        37.000          14.0004
 131724543.266 6 102642509.86343  25066340.954    25066342.841    25066341.253
        40.000          18.0004
 108336911.377 8  84418383.58247  20615815.101    20615813.057    20615814.226
        48.000          43.0004
 121199739.202 7  94441359.49745  23063542.062    23063543.943    23063541.491
        43.000          30.0004
 17  9 19  1  5  0.0000000  0 11G11G32G10G31G01G18G27G21G24G14G08
 121449882.258 6  94636277.23444  23111142.389    23111140.522    23111141.414
        41.000          25.0004
 108013275.146 8  84166196.23348  20554224.970    20554225.612    20554224.957
        52.000          48.0004
 112405595.643 8  87588798.64547  21390062.991    21390063.887    21390062.737
        50.000          42.0004
 120512466.865 7  93905831.62745  22932750.286    22932749.519    22932750.171
        45.000          30.0004
 127768218.912 6  99559651.15242  24313482.028    24313484.237    24313482.037
        37.000          14.0004
 121156470.763 7  94407651.69144  23055301.253    23055299.286    23055300.419
        43.000          27.0004
 123126105.327 7  95942425.44444  23430118.192    23430119.899    23430117.634
        42.000          29.0004
 128381298.078 6 100037371.45742  24430149.471    24430149.458    24430147.986
        37.000          15.0004
 131800350.943 6 102701580.83143  25080766.619    25080767.843    25080766.777
        40.000          18.0004
 108315856.769 8  84401977.40947  20611808.609    20611806.499    20611807.713
        49.000          42.0004
 121232355.915 7  94466775.09445  23069748.302    23069750.804    23069748.338
        44.000          30.0004
 17  9 19  1  5 30.0000000  0 11G11G32G10G31G01G18G27G21G24G14G08
 121362664.601 7  94568315.45844  23094545.449    23094543.218    23094544.634
        42.000          25.0004
 108023149.751 9  84173890.73447  20556104.271    20556104.678    20556104.007
        55.000          47.0004
 112429219.654 8  87607206.96447  21394558.541    21394559.408    21394558.245
        51.000          42.0004
 120400248.369 7  93818388.70845  22911395.788    22911394.853    22911395.595
        46.000          30.0004
 127657347.197 6  99473257.63242  24292383.557    24292386.317    24292384.219
        36.000          15.0004
 121200121.671 7  94441665.36944  23063607.221    23063605.987    23063606.489
        44.000          27.0004
 123202088.719 7  96001633.26444  23444576.776    23444578.599    23444576.415
        42.000          27.0004
 128470635.913 6 100106985.32142  24447149.801    24447149.355    24447149.324
        40.000          16.0004
 131876491.568 6 102760911.19243  25095255.580    25095257.585    25095255.328
        39.000          19.0004
 108295231.594 8  84385905.85747  20607883.768    20607881.744    20607882.864
        49.000          43.0004
 121265400.074 7  94492523.76445  23076037.027    23076039.006    23076036.456
        43.000          30.0004
 17  9 19  1  6  0.0000000  0 11G11G32G10G31G01G18G27G21G24G14G08
 121275884.870 7  94500694.92044  23078031.852    23078029.546    23078030.574
        42.000          26.0004
 108033428.072 9  84181899.82347  20558059.944    20558060.562    20558059.841
        54.000          47.0004
 112453027.329 8  87625758.39547  21399088.967    21399089.913    21399088.797
        51.000          42.0004
 120288197.283 7  93731076.23645  22890072.697    22890071.922    22890072.812
        45.000          31.0004
 127546592.950 6  99386955.65142  24271308.171    24271310.755    24271308.193
        38.000          16.0004
 121243901.786 7  94475779.72844  23071938.433    23071937.035    23071937.715
        43.000          27.0004
 123278219.435 7  96060955.83344  23459064.331    23459066.180    23459063.289
        42.000          26.0004
 128560148.434 6 100176735.31243  24464183.513    24464183.481    24464183.017
        39.000          19.0004
 131952963.207 6 102820499.49843  25109807.908    25109809.679    25109807.796
        39.000          21.0004
 108275035.257 8  84370168.45847  20604040.499    20604038.422    20604039.592
        48.000          42.0004
 121298870.048 7  94518604.24545  23082406.209    23082407.706    23082405.681
        42.000          30.0004
 17  9 19  1  6 30.0000000  0 11G11G32G10G31G01G18G27G21G24G14G08
 121189546.781 7  94433418.51844  23061601.595    23061600.016    23061601.058
        42.000          26.0004
 108044109.727 9  84190223.19747  20560092.683    20560093.260    20560092.591
        54.000          47.0004
 112477020.165 8  87644454.10747  21403654.699    21403655.565    21403654.372
        51.000          42.0004
 120176318.204 7  93643897.80945  22868783.366    22868782.566    22868783.019
        46.000          31.0004
 127435959.680 5  99300747.95842  24250255.561    24250257.881    24250255.496
        35.000          17.0004
 121287812.918 7  94509996.18544  23080294.583    23080293.217    23080293.751
        44.000          27.0004
 123354495.384 7  96120391.59544  23473579.350    23473581.175    23473579.162
        43.000          29.0004
 128649834.587 6 100246620.53043  24481250.362    24481250.379    24481249.265
        38.000          19.0004
 132029764.269 6 102880344.50443  25124421.957    25124425.036    25124422.680
        38.000          20.0004
 108255268.533 8  84354765.82447  20600278.868    20600276.786    20600278.038
        48.000          42.0004
 121332764.552 6  94545015.52345  23088856.054    23088858.236    23088855.484
        41.000          30.0004
 17  9 19  1  7  0.0000000  0 11G11G32G10G31G01G18G27G21G24G14G08
 121103649.813 6  94366485.84244  23045255.175    23045254.814    23045255.501
        41.000          26.0004
 108055190.240 8  84198857.37047  20562201.114    20562201.767    20562201.064
        53.000          47.0004
 112501195.571 8  87663292.08247  21408255.160    21408255.990    21408254.755
        50.000          42.0004
 120064611.207 7  93556853.45845  22847525.950    22847525.122    22847525.583
        46.000          31.0004
 127325446.858 6  99214634.11742  24229225.738    24229228.023    24229225.548
        36.000          16.0004
 121331852.245 7  94544312.52444  23088674.976    23088673.340    23088674.116
        43.000          26.0004
 123430910.611 6  96179935.88144  23488120.108    23488122.333    23488119.874
        41.000          28.0004
 128739689.908 6 100316637.61843  24498349.208    24498348.783    24498348.347
        39.000          18.0004
 132106889.152 5 102940441.79343  25139098.004    25139100.817    25139098.891
        35.000          21.0004
 108235927.692 8  84339695.04747  20596598.545    20596596.449    20596597.749
        48.000          42.0004
 121367078.007 7  94571753.25845  23095385.522    23095387.619    23095384.996
        45.000          30.0004
 17  9 19  1  7 30.0000000  0 11G11G32G10G31G01G18G27G21G24G14G08
 121018194.016 7  94299896.93544  23028993.511    23028992.707    23028993.945
        43.000          26.0004
 108066665.578 8  84207799.19147  20564384.877    20564385.495    20564384.793
        53.000          47.0004
 112525551.444 8  87682270.68247  21412889.901    21412890.740    21412889.521
        51.000          42.0004
 119953077.003 7  93469943.75945  22826301.750    22826300.618    22826301.394
        47.000          31.0004
 127215054.390 6  99128614.05143  24208217.847    24208221.498    24208218.602
        36.000          18.0004
 121376018.169 7  94578727.51144  23097079.490    23097077.713    23097078.543
        43.000          26.0004
 123507459.549 6  96239584.34644  23502686.796    23502688.824    23502686.463
        41.000          26.0004
 128829709.860 6 100386783.01743  24515479.560    24515479.067    24515477.958
        36.000          18.0004
 132184333.161 5 103000787.76142  25153833.435    25153837.800    25153835.745
        30.000          16.0004
 108217009.113 7  84324953.31547  20592998.265    20592996.384    20592997.601
        45.000          42.0004
 121401806.091 7  94598814.07845  23101993.834    23101996.120    23101993.561
        42.000          30.0004
 17  9 19  1  8  0.0000000  0 11G11G32G10G31G01G18G27G21G24G14G08
 120933184.800 7  94233656.00044  23012817.693    23012816.028    23012817.280
        43.000          26.0004
 108078536.977 9  84217049.63847  20566643.955    20566644.529    20566643.826
        54.000          47.0004
 112550090.851 8  87701392.29446  21417559.706    21417560.342    21417559.243
        51.000          41.0004
 119841721.613 7  93383173.39845  22805111.258    22805110.334    22805111.202
        47.000          31.0004
 127104787.439 6  99042691.79543  24187234.935    24187238.520    24187235.433
        37.000          20.0004
 121420313.641 7  94613243.45144  23105508.607    23105507.141    23105507.972
        43.000          26.0004
 123584141.803 7  96299336.72844  23517280.117    23517281.370    23517279.645
        44.000          29.0004
 128919895.222 6 100457057.22542  24532641.897    24532641.621    24532640.038
        37.000          16.0004
 132262096.888 5 103061382.87842  25168632.844    25168636.590    25168633.332
        32.000          14.0004
 108198515.038 8  84310542.36147  20589479.104    20589477.106    20589478.261
        50.000          43.0004
 121436948.722 7  94626197.92245  23108681.680    23108683.732    23108681.161
        43.000          30.0004
 17  9 19  1  8 30.0000000  0 11G11G32G10G31G01G18G27G21G24G14G08
 120848624.479 7  94167764.86144  22996726.733    22996724.554    22996726.127
        43.000          26.0004
 108090803.036 9  84226607.60947  20568978.101    20568978.724    20568977.905
        54.000          47.0004
 112574814.337 8  87720657.34247  21422264.347    21422265.210    21422264.015
        50.000          42.0004
 119730548.655 7  93296545.19345  22783955.722    22783954.949    22783955.470
        46.000          31.0004
 126994648.529 6  98956869.31043  24166277.012    24166279.209    24166276.559
        37.000          20.0004
 121464738.944 7  94647860.56044  23113962.352    23113960.869    23113961.510
        43.000          26.0004
 123660954.490 6  96359190.72144  23531895.992    23531898.725    23531895.966
        41.000          28.0004
 129010244.335 6 100527459.08542  24549833.696    24549834.391    24549832.858
        36.000          17.0004
 132340177.558 4 103122225.02742  25183490.447    25183493.498    25183492.309
        29.000          13.0004
 108180444.657 8  84296461.55847  20586040.453    20586038.392    20586039.680
        50.000          43.0004
 121472504.033 7  94653903.33645  23115447.397    23115449.386    23115446.900
        42.000          30.0004
 17  9 19  1  9  0.0000000  0 10G11G32G10G31G01G18G27G21G14G08
 120764515.280 7  94102225.24844  22980720.993    22980718.986    22980720.520
        43.000          26.0004
 108103461.822 8  84236471.60647  20571386.900    20571387.552    20571386.897
        53.000          47.0004
 112599721.900 8  87740065.82647  21427004.155    21427004.993    21427003.834
        48.000          42.0004
 119619560.884 7  93210061.28845  22762835.286    22762834.601    22762835.254
        46.000          32.0004
 126884639.773 6  98871148.24843  24145342.505    24145345.434    24145342.605
        37.000          21.0004
 121509294.652 7  94682579.27944  23122440.839    23122439.710    23122440.219
        42.000          26.0004
 123737894.115 7  96419143.59844  23546537.372    23546539.504    23546536.887
        42.000          27.0004
 129100754.790 5 100597986.64842  24567057.449    24567057.930    24567055.930
        33.000          15.0004
 108162796.565 8  84282709.81247  20582682.276    20582680.004    20582681.276
        49.000          42.0004
 121508469.222 7  94681928.14144  23122291.600    23122293.552    23122290.880
        44.000          29.0004
 17  9 19  1  9 30.0000000  0 10G11G32G10G31G01G18G27G21G14G08
 120680861.930 7  94037040.83744  22964802.324    22964800.480    22964801.695
        44.000          26.0004
 108116514.077 9  84246642.20447  20573870.537    20573871.222    20573870.558
        54.000          47.0004
 112624816.233 8  87759619.85246  21431779.422    21431780.260    21431779.069
        51.000          41.0004
 119508763.806 7  93123725.97445  22741751.554    22741750.447    22741751.219
        46.000          32.0004
 126774765.865 6  98785532.25243  24124434.003    24124437.015    24124434.309
        38.000          21.0004
 121553983.294 7  94717401.57944  23130944.882    23130943.560    23130944.146
        44.000          25.0004
 123814959.886 7  96479194.83744  23561202.893    23561204.073    23561202.732
        44.000          27.0004
 129191427.002 6 100668640.26642  24584312.592    24584312.518    24584311.070
        36.000          14.0004
 108145572.335 8  84269288.35147  20579404.394    20579402.333    20579403.632
        50.000          42.0004
 121544844.040 7  94710272.12744  23129213.265    23129215.592    23129213.227
        44.000          29.0004
 17  9 19  1 10  0.0000000  0 11G11G32G10G31G22G01G18G27G21G14G08
 120597669.433 7  93972215.52744  22948971.133    22948969.124    22948970.484
        43.000          26.0004
 108129960.858 8  84257120.22247  20576429.469    20576430.124    20576429.438
        53.000          47.0004
 112650100.286 8  87779321.71046  21436590.709    21436591.543    21436590.574
        48.000          41.0004
 119398163.328 7  93037543.85445  22720704.815    22720703.985    22720704.695
        47.000          33.0004
 130279164.938 7 101516224.81643  24791299.749    24791296.871    24791298.621
        42.000          22.0004
 126665031.890 6  98700025.29443  24103552.431    24103555.353    24103552.633
        39.000          21.0004
 121598807.843 7  94752329.78444  23139475.395    23139473.437    23139474.234
        43.000          25.0004
 123892151.331 7  96539344.00244  23575891.899    23575893.966    23575891.563
        42.000          27.0004
 129282261.738 5 100739420.52142  24601596.739    24601597.722    24601596.873
        35.000          16.0004
 108128773.824 8  84256198.61047  20576207.784    20576205.691    20576206.958
        48.000          42.0004
 121581628.856 7  94738935.59844  23136213.393    23136215.377    23136212.525
        43.000          29.0004
 17  9 19  1 10 30.0000000  0 11G11G32G10G31G22G01G18G27G21G14G08
 120514937.767 7  93907749.31144  22933227.653    22933225.667    22933227.478
        43.000          26.0004
 108143797.944 9  84267902.37347  20579062.604    20579063.221    20579062.558
        54.000          47.0004
 112675571.839 8  87799169.67447  21441437.858    21441438.728    21441437.636
        51.000          42.0004
 119287760.469 7  92951515.72445  22699696.270    22699694.872    22699695.644
        47.000          32.0004
 130195676.156 6 101451168.66543  24775412.387    24775409.886    24775411.381
        41.000          23.0004
 126555437.672 6  98614627.24043  24082697.561    24082700.231    24082697.693
        39.000          22.0004
 121643766.183 7  94787362.24244  23148030.492    23148028.290    23148029.496
        42.000          25.0004
 123969462.886 6  96599586.68744  23590603.656    23590606.133    23590603.058
        41.000          27.0004
 129373254.582 5 100810323.94342  24618913.245    24618912.963    24618911.091
        34.000          15.0004
 108112397.302 8  84243437.69347  20573091.438    20573089.406    20573090.659
        50.000          42.0004
 121618818.550 7  94767914.55944  23143289.925    23143292.490    23143289.726
        43.000          29.0004
 17  9 19  1 11  0.0000000  0 11G11G32G10G31G22G01G18G27G21G14G08
 120432666.522 7  93843641.86244  22917572.457    22917570.364    22917571.603
        44.000          26.0004
 108158021.253 8  84278985.47347  20581769.277    20581769.813    20581769.091
        53.000          47.0004
 112701228.779 8  87819162.09347  21446320.192    21446321.099    21446319.830
        49.000          42.0004
 119177555.719 7  92865641.95545  22678724.415    22678723.518    22678724.377
        46.000          32.0004
 130112166.413 7 101386096.17843  24759520.569    24759518.289    24759519.629
        42.000          23.0004
 126445983.100 6  98529337.99743  24061868.979    24061871.429    24061868.975
        38.000          22.0004
 121688856.688 7  94822497.68844  23156610.561    23156609.031    23156609.858
        43.000          25.0004
 124046888.829 7  96659918.52444  23605337.746    23605339.350    23605337.154
        42.000          27.0004
 129464400.898 5 100881346.96842  24636258.227    24636257.191    24636256.978
        35.000          13.0004
 108096439.759 8  84231003.25747  20570054.808    20570052.811    20570053.921
        49.000          42.0004
 121656408.114 7  94797205.10344  23150443.410    23150445.254    23150442.935
        43.000          29.0004
 17  9 19  1 11 30.0000000  0 11G11G32G10G31G22G01G18G27G21G14G08
 120350853.190 7  93779891.22344  22902003.682    22902001.673    22902003.103
        43.000          26.0004
 108172624.056 9  84290364.28547  20584548.076    20584548.643    20584547.905
        54.000          47.0004
 112727066.288 8  87839295.21546  21451236.761    21451237.704    21451236.565
        51.000          41.0004
 119067547.001 7  92779920.94045  22657790.878    22657789.499    22657790.493
        47.000          33.0004
 130028630.455 6 101321003.26843  24743624.033    24743621.767    24743623.319
        41.000          23.0004
 126336665.547 6  98444155.52043  24041066.576    24041069.042    24041066.818
        39.000          22.0004
 121734074.076 7  94857731.99844  23165215.503    23165213.578    23165214.656
        43.000          25.0004
 124124420.918 7  96720333.14944  23620091.689    23620092.734    23620091.206
        42.000          25.0004
 129555693.591 5 100952484.15641  24653628.866    24653630.875    24653629.515
        33.000          11.0004
 108080894.961 8  84218890.43747  20567096.736    20567094.555    20567095.864
        48.000          42.0004
 121694390.048 7  94826801.39544  23157670.946    23157673.070    23157670.550
        42.000          29.0004
 17  9 19  1 12  0.0000000  0 11G11G32G10G31G22G01G18G27G21G14G08
 120269503.784 7  93716502.09444  22886523.224    22886521.208    22886522.614
        43.000          26.0004
 108187608.301 9  84302040.32547  20587399.383    20587400.089    20587399.310
        54.000          47.0004
 112753088.357 8  87859572.15047  21456188.861    21456189.567    21456188.483
        52.000          42.0004
 118957741.271 7  92694358.09745  22636895.178    22636894.017    22636895.048
        47.000          33.0004
 129945071.958 6 101255892.79043  24727724.109    24727721.381    24727722.682
        40.000          23.0004
 126227491.021 6  98359084.49943  24020291.241    24020293.962    24020291.594
        38.000          22.0004
 121779422.651 7  94893068.53344  23173844.863    23173843.121    23173844.065
        42.000          25.0004
 124202059.792 6  96780830.94044  23634864.925    23634867.731    23634864.964
        39.000          25.0004
 129647134.342 5 101023736.59341  24671029.016    24671029.993    24671028.523
        31.000          11.0004
 108065765.533 8  84207101.28147  20564217.572    20564215.604    20564216.867
        48.000          42.0004
 121732765.166 7  94856704.06444  23164973.902    23164975.421    23164973.342
        44.000          29.0004
 17  9 19  1 12 30.0000000  0 11G11G32G10G31G22G01G18G27G21G14G08
 120188617.549 7  93653473.86844  22871130.832    22871129.153    22871130.521
        42.000          26.0004
 108202969.343 9  84314009.97147  20590322.622    20590323.086    20590322.418
        54.000          47.0004
 112779292.302 8  87879990.80547  21461175.001    21461176.069    21461174.966
        50.000          42.0004
 118848138.544 8  92608953.43545  22616038.685    22616037.066    22616038.345
        48.000          33.0004
 129861488.047 7 101190762.50343  24711818.608    24711815.423    24711817.423
        42.000          23.0004
 126118458.917 6  98274124.44543  23999542.887    23999545.258    23999543.228
        39.000          22.0004
 121824899.997 7  94928505.41144  23182498.421    23182497.230    23182498.220
        43.000          25.0004
 124279799.257 7  96841407.04744  23649659.057    23649661.338    23649658.534
        42.000          28.0004
 129738717.861 6 101095100.24341  24688458.373    24688458.320    24688457.049
        36.000          11.0004
 108051047.375 8  84195632.59147  20561416.929    20561414.761    20561416.046
        49.000          43.0004
 121771528.293 7  94886909.07644  23172350.116    23172352.334    23172349.502
        44.000          29.0004
 17  9 19  1 13  0.0000000  0 11G11G32G10G31G22G01G18G27G21G14G08
 120108201.327 7  93590811.88344  22855828.533    22855826.375    22855827.795
        42.000          26.0004
 108218709.728 8  84326275.21247  20593318.014    20593318.453    20593317.709
        53.000          47.0004
 112805682.675 8  87900554.72947  21466197.010    21466198.082    21466196.971
        51.000          42.0004
 118738747.240 7  92523713.51945  22595221.780    22595220.679    22595221.644
        46.000          33.0004
 129777883.214 6 101125615.91643  24695909.204    24695906.013    24695907.867
        41.000          23.0004
 126009575.933 6  98189280.59643  23978823.320    23978825.667    23978823.505
        39.000          22.0004
 121870510.224 6  94964045.83044  23191178.459    23191176.801    23191177.487
        41.000          25.0004
 124357640.318 7  96902062.37444  23664471.746    23664473.564    23664471.727
        42.000          28.0004
 129830446.758 6 101166577.29342  24705914.060    24705913.123    24705913.228
        38.000          14.0004
 108036743.989 7  84184487.10247  20558694.790    20558692.920    20558694.229
        47.000          43.0004
 121810681.144 6  94917417.77744  23179800.758    23179802.660    23179800.119
        41.000          29.0004
 17  9 19  1 13 30.0000000  0 11G11G32G10G31G22G01G18G27G21G14G08
 120028259.011 7  93528519.18444  22840615.685    22840613.935    22840615.253
        43.000          26.0004
 108234829.612 8  84338836.16247  20596385.206    20596385.944    20596385.180
        53.000          47.0004
 112832261.627 8  87921265.59647  21471255.021    21471255.759    21471254.632
        50.000          42.0004
 118629571.379 7  92438641.47845  22574446.369    22574444.935    22574446.235
        46.000          33.0004
 129694259.362 7 101060454.50443  24679995.725    24679992.955    24679994.686
        42.000          22.0004
 125900846.245 6  98104556.19643  23958132.902    23958135.177    23958132.863
        39.000          22.0004
 121916255.727 7  94999691.66244  23199883.654    23199881.840    23199882.577
        44.000          25.0004
 124435581.793 6  96962795.97044  23679302.507    23679304.965    23679302.600
        38.000          25.0004
 129922320.743 6 101238167.43841  24723395.729    24723396.163    24723396.153
        36.000          10.0004
 108022856.066 8  84173665.35847  20556052.661    20556050.240    20556051.482
        49.000          43.0004
 121850222.882 7  94948229.49544  23187325.150    23187327.457    23187324.801
        44.000          28.0004
 17  9 19  1 14  0.0000000  0 11G11G32G10G31G22G01G18G27G21G14G08
 119948791.249 7  93466596.26444  22825493.602    22825491.846    22825493.131
        43.000          27.0004
 108251325.843 9  84351690.37247  20599524.399    20599525.032    20599524.328
        54.000          47.0004
 112859028.004 8  87942122.51147  21476348.391    21476349.257    21476348.139
        51.000          42.0004
 118520612.925 7  92353738.84445  22553712.133    22553710.954    22553711.894
        46.000          33.0004
 129610615.005 6 100995277.11343  24664078.655    24664076.012    24664077.721
        40.000          21.0004
 125792270.808 6  98019951.99843  23937471.703    23937474.198    23937471.450
        38.000          21.0004
 121962135.505 7  95035442.12544  23208613.787    23208612.292    23208613.483
        43.000          25.0004
 124513619.151 6  97023604.25143  23694153.444    23694155.500    23694152.648
        40.000          22.0004
 130014336.369 6 101309867.85242  24740906.239    24740907.356    24740906.189
        37.000          12.0004
 108009381.209 8  84163165.48447  20553487.988    20553485.948    20553487.254
        50.000          43.0004
 121890149.385 7  94979341.04244  23194922.905    23194924.967    23194922.393
        42.000          28.0004
 17  9 19  1 14 30.0000000  0 11G11G32G10G31G22G01G18G27G21G14G08
 119869801.641 7  93405045.93844  22810462.383    22810460.495    22810461.873
        44.000          27.0004
 108268197.848 9  84364837.39647  20602735.058    20602735.637    20602734.953
        54.000          46.0004
 112885983.274 8  87963126.61546  21481477.748    21481478.664    21481477.673
        50.000          41.0004
 118411876.682 7  92269009.36945  22533020.179    22533019.188    22533020.133
        47.000          33.0004
 129526951.341 6 100930084.68343  24648158.119    24648154.813    24648156.834
        39.000          20.0004
 125683853.226 6  97935470.79943  23916840.703    23916843.043    23916840.500
        38.000          21.0004
 122008151.089 7  95071298.41344  23217370.629    23217368.795    23217369.717
        43.000          25.0004
 124591750.247 6  97084485.58044  23709021.663    23709024.353    23709021.302
        40.000          28.0004
 130106492.585 6 101381677.82742  24758443.473    24758443.982    24758443.985
        40.000          12.0004
 107996319.355 8  84152987.42647  20551002.508    20551000.325    20551001.747
        49.000          43.0004
 121930458.991 7  95010751.09744  23202593.350    23202595.887    23202593.162
        43.000          28.0004
 17  9 19  1 15  0.0000000  0 11G11G32G10G31G22G01G18G27G21G14G08
 119791290.903 7  93343868.75144  22795522.286    22795520.380    22795521.680
        44.000          27.0004
 108285442.602 8  84378274.86947  20606016.666    20606017.272    20606016.523
        53.000          47.0004
 112913126.438 8  87984277.12847  21486643.093    21486643.818    21486642.694
        51.000          42.0004
 118303363.854 7  92184453.97545  22512370.872    22512369.683    22512370.676
        47.000          33.0004
 129443267.041 6 100864876.17143  24632233.447    24632230.218    24632232.234
        38.000          19.0004
 125575594.582 6  97851113.46543  23896239.547    23896241.888    23896239.374
        38.000          20.0004
 122054301.240 7  95107259.55044  23226152.642    23226150.992    23226151.886
        42.000          25.0004
 124669970.730 6  97145436.54044  23723906.171    23723908.861    23723905.684
        38.000          27.0004
 130198785.910 6                  24776005.368
        37.000
 107983668.091 8  84143129.31347  20548594.919    20548593.003    20548594.285
        49.000          43.0004
 121971148.236 7  95042456.98244  23210336.356    23210338.322    23210336.185
        44.000          28.0004
 17  9 19  1 15 30.0000000  0 11G11G32G10G31G22G01G18G27G21G14G08
 119713262.223 7  93283067.19744  22780674.111    22780672.100    22780673.163
        42.000          27.0004
 108303059.150 9  84392002.04947  20609368.908    20609369.495    20609368.846
        54.000          47.0004
 112940458.584 8  88005574.89746  21491844.023    21491845.092    21491843.883
        50.000          41.0004
 118195078.490 7  92100075.82945  22491764.821    22491763.732    22491764.740
        47.000          33.0004
 129359563.000 6 100799652.27043  24616304.330    24616302.198    24616303.486
        38.000          18.0004
 125467498.069 6  97766882.46743  23875668.358    23875672.167    23875669.494
        38.000          20.0004
 122100587.423 7  95143326.68744  23234960.678    23234958.732    23234959.942
        43.000          25.0004
 124748278.219 6  97206455.26843  23738807.140    23738809.749    23738806.720
        38.000          23.0004
 130291215.294 6 101525622.76942  24793594.295    24793595.717    24793594.710
        37.000          13.0004
 107971426.893 8  84133590.72647  20546265.610    20546263.437    20546264.792
        50.000          43.0004
 122012214.681 7  95074456.78744  23218151.281    23218153.326    23218150.786
        43.000          28.0004
 17  9 19  1 16  0.0000000  0 11G11G32G10G31G22G01G18G27G21G14G08
 119635716.510 7  93222641.98544  22765917.014    22765915.726    22765916.739
        43.000          27.0004
 108321044.653 8  84406016.72947  20612791.437    20612792.195    20612791.452
        53.000          47.0004
 112967978.906 8  88027019.30046  21497081.027    21497081.982    21497080.779
        52.000          41.0004
 118087022.885 8  92015876.71245  22471202.621    22471201.403    22471202.339
        48.000          34.0004
 129275838.390 6 100734412.34142  24600373.117    24600370.497    24600371.473
        37.000          17.0004
 125359565.033 6  97682778.84143  23855129.595    23855132.532    23855130.270
        38.000          20.0004
 122147008.725 7  95179499.11944  23243794.307    23243792.331    23243793.877
        44.000          25.0004
 124826668.562 7  97267538.62544  23753725.473    23753726.622    23753724.582
        42.000          24.0004
 130383777.503 6 101597749.12642  24811208.631    24811209.139    24811207.873
        38.000          15.0004
 107959593.882 8  84124370.20947  20544013.864    20544011.699    20544013.068
        48.000          43.0004
 122053655.241 6  95106748.10944  23226037.261    23226039.216    23226036.692
        41.000          28.0004
 17  9 19  1 16 30.0000000  0 11G11G32G10G31G22G01G18G27G21G14G08
 119558659.132 7  93162597.29044  22751254.033    22751251.972    22751253.401
        43.000          28.0004
 108339400.369 8  84420319.88947  20616284.317    20616285.054    20616284.268
        53.000          47.0004
 112995690.656 8  88048612.86846  21502354.250    21502355.328    21502354.158
        50.000          41.0004
 117979202.913 8  91931861.20445  22450684.764    22450683.881    22450684.776
        48.000          34.0004
 129192096.029 6 100669158.59242  24584436.804    24584434.068    24584435.143
        36.000          14.0004
 125251800.879 6  97598806.81543  23834623.462    23834625.756    23834623.031
        38.000          20.0004
 122193568.616 7  95215779.53844  23252654.571    23252652.879    23252653.488
        43.000          25.0004
 124905141.444 7  97328686.33144  23768658.427    23768660.460    23768658.038
        42.000          28.0004
 130476473.338 6 101669979.66042  24828847.673    24828848.882    24828847.706
        38.000          16.0004
 107948171.021 8  84115469.29647  20541840.210    20541837.973    20541839.297
        50.000          42.0004
 122095469.823 7  95139330.87144  23233994.226    23233996.150    23233993.990
        43.000          28.0004
 17  9 19  1 17  0.0000000  0 11G11G32G10G31G22G01G18G27G21G14G08
 119482095.733 7  93102937.51944  22736684.428    22736682.383    22736683.876
        42.000          28.0004
 108358128.128 8  84434912.95347  20619848.192    20619848.891    20619848.142
        53.000          47.0004
 113023597.820 8  88070358.70746  21507665.062    21507665.918    21507664.676
        49.000          41.0004
 117871625.845 7  91848034.97445  22430213.961    22430212.658    22430213.482
        47.000          33.0004
 129108339.749 5 100603894.00842  24568497.390    24568495.622    24568497.036
        35.000          13.0004
 125144211.630 6  97514971.05943  23814149.334    23814151.829    23814149.863
        38.000          21.0004
 122240270.878 7  95252170.89044  23261541.411    23261539.682    23261540.779
        42.000          25.0004
 124983697.531 6  97389898.77844  23783605.834    23783609.515    23783605.622
        38.000          27.0004
 130569304.574 5 101742315.66442  24846513.161    24846514.694    24846512.289
        35.000          17.0004
 107937160.606 7  84106889.76547  20539744.778    20539742.779    20539744.154
        47.000          43.0004
 122137659.401 7  95172205.85144  23242023.006    23242024.598    23242022.390
        44.000          28.0004
 17  9 19  1 17 30.0000000  0 11G11G32G10G31G22G01G18G27G21G14G08
 119406022.869 7  93043659.98044  22722207.893    22722206.374    22722207.608
        44.000          28.0004
 108377220.500 8  84449790.13347  20623481.381    20623481.970    20623481.237
        53.000          46.0004
 113051694.988 8  88092252.60046  21513011.671    21513012.662    21513011.504
        50.000          41.0004
 117764288.904 7  91764395.85145  22409787.919    22409786.928    22409787.829
        47.000          34.0004
 129024563.946 5 100538614.18642  24552556.346    24552553.974    24552554.795
        35.000          14.0004
 125036794.033 6  97431269.06443  23793708.285    23793711.148    23793708.938
        39.000          21.0004
 122287110.141 7  95288668.99944  23270454.905    23270453.055    23270453.943
        43.000          25.0004
 125062327.919 6  97451169.07044  23798569.212    23798572.238    23798568.566
        40.000          25.0004
 130662263.122 5 101814750.87442  24864202.041    24864203.645    24864201.769
        31.000          16.0004
 107926556.112 8  84098626.53347  20537726.764    20537724.753    20537726.132
        49.000          43.0004
 122180215.642 7  95205366.53944  23250120.782    23250122.756    23250120.430
        43.000          28.0004
 17  9 19  1 18  0.0000000  0 11G11G32G10G31G22G01G18G27G21G14G08
 119330442.833 7  92984766.46144  22707825.917    22707823.967    22707825.302
        45.000          28.0004
 108396675.886 8  84464950.18247  20627183.524    20627184.254    20627183.543
        53.000          47.0004
 113079982.627 8  88114294.91446  21518394.555    21518395.567    21518394.417
        51.000          41.0004
 117657195.731 8  91680946.67945  22389408.835    22389407.937    22389408.808
        48.000          34.0004
 128940768.780 5 100473319.30142  24536610.030    24536608.212    24536609.475
        35.000          15.0004
 124929550.701 6  97347702.85343  23773301.218    23773303.229    23773300.978
        40.000          22.0004
 122334086.945 7  95325274.28444  23279394.428    23279392.194    23279393.514
        42.000          25.0004
 125141029.573 7  97512495.01444  23813546.759    23813547.965    23813546.312
        43.000          27.0004
 130755347.215 4 101887299.92042  24881916.720    24881919.420    24881914.924
        28.000          13.0004
 107916356.157 8  84090678.52947  20535785.813    20535783.870    20535785.221
        49.000          43.0004
 122223135.627 7  95238810.65244  23258288.093    23258290.505    23258287.952
        44.000          28.0004
 17  9 19  1 18 30.0000000  0 10G11G32G10G31G22G01G18G27G14G08
 119255360.784 7  92926260.98844  22693538.055    22693536.270    22693537.591
        45.000          29.0004
 108416495.626 8  84480394.14247  20630955.325    20630955.775    20630955.094
        52.000          47.0004
 113108464.145 8  88136488.30246  21523814.433    21523815.358    21523814.259
        50.000          41.0004
 117550352.104 8  91597691.96145  22369077.417    22369076.075    22369077.231
        48.000          34.0004
 128856957.540 6 100408011.88642  24520661.298    24520659.282    24520660.491
        36.000          15.0004
 124822487.135 6  97264276.72043  23752927.120    23752929.599    23752927.522
        40.000          22.0004
 122381204.504 7  95361989.25444  23288360.409    23288358.782    23288359.473
        42.000          25.0004
 125219802.508 6  97573876.57044  23828535.906    23828537.654    23828536.004
        41.000          25.0004
 107906562.960 8  84083047.47947  20533922.508    20533920.109    20533921.608
        48.000          42.0004
 122266420.106 7  95272538.79744  23266525.046    23266526.951    23266524.736
        43.000          28.0004
 17  9 19  1 19  0.0000000  0 10G11G32G10G31G22G01G18G27G14G08
 119180774.505 7  92868141.83144  22679344.899    22679342.961    22679344.207
        43.000          29.0004
 108436673.601 8  84496117.24347  20634794.904    20634795.430    20634794.788
        53.000          46.0004
 113137135.542 8  88158829.64946  21529270.427    21529271.411    21529270.256
        50.000          41.0004
 117443757.076 7  91514630.95045  22348792.319    22348791.717    22348792.542
        47.000          34.0004
 128773126.356 6 100342688.91943  24504709.493    24504707.159    24504708.207
        37.000          18.0004
 124715601.542 6  97180989.26743  23732588.198    23732590.208    23732587.682
        40.000          23.0004
 122428459.121 7  95398811.01144  23297352.593    23297351.091    23297351.888
        43.000          25.0004
 125298639.467 6  97635307.89244  23843538.163    23843540.951    23843537.017
        37.000          24.0004
 107897170.736 7  84075728.87247  20532135.140    20532132.870    20532134.214
        47.000          43.0004
 122310062.174 7  95306545.58944  23274829.804    23274831.936    23274829.411
        44.000          28.0004
 17  9 19  1 19 30.0000000  0 10G11G32G10G31G22G01G18G27G14G08
 119106686.589 7  92810411.00244  22665246.339    22665244.300    22665245.778
        43.000          29.0004
 108457208.501 9  84512118.46447  20638702.543    20638703.144    20638702.424
        55.000          47.0004
 113165997.548 8  88181319.52046  21534762.770    21534763.590    21534762.475
        49.000          41.0004
 117337414.371 8  91431766.55645  22328556.482    22328555.151    22328556.194
        49.000          34.0004
 128689275.607 6 100277350.71143  24488753.007    24488750.559    24488751.997
        39.000          19.0004
 124608896.758 6  97097842.71244  23712282.908    23712284.919    23712282.624
        41.000          24.0004
 122475851.354 7  95435740.00744  23306370.726    23306369.815    23306370.071
        42.000          25.0004
 125377537.653 6  97696786.86144  23858552.793    23858555.194    23858551.788
        41.000          28.0004
 107888178.970 8  84068722.30947  20530423.952    20530421.738    20530423.261
        48.000          43.0004
 122354059.315 7  95340829.05044  23283202.331    23283204.645    23283201.876
        43.000          28.0004
 17  9 19  1 20  0.0000000  0 10G11G32G10G31G22G01G18G27G14G08
 119033103.812 7  92753073.79244  22651243.555    22651242.103    22651243.601
        44.000          29.0004
 108478103.261 8  84528400.10247  20642678.752    20642679.305    20642678.572
        53.000          46.0004
 113195055.203 8  88203961.84746  21540292.291    21540293.129    21540291.958
        50.000          41.0004
 117231332.013 8  91349105.03445  22308369.676    22308368.499    22308369.346
        48.000          35.0004
 128605409.784 6 100212000.76243  24472793.620    24472791.182    24472793.319
        39.000          20.0004
 124502379.990 6  97014842.65944  23692013.109    23692015.677    23692013.169
        40.000          24.0004
 122523386.331 6  95472780.22144  23315416.776    23315415.122    23315415.869
        41.000          25.0004
 125456498.567 7  97758314.79144  23873578.500    23873580.679    23873578.159
        42.000          29.0004
 107879591.059 8  84062030.43947  20528789.797    20528787.620    20528788.941
        48.000          43.0004
 122398413.731 7  95375390.90644  23291642.543    23291644.686    23291642.340
        42.000          28.0004
 17  9 19  1 20 30.0000000  0 10G11G32G10G31G22G01G18G27G14G08
 118960021.177 7  92696126.30044  22637336.661    22637334.791    22637336.201
        44.000          29.0004
 108499349.021 8  84544955.24447  20646721.614    20646722.224    20646721.514
        53.000          46.0004
 113224301.761 8  88226751.37346  21545857.791    21545858.476    21545857.380
        50.000          41.0004
 117125505.839 8  91266643.13245  22288231.484    22288230.229    22288231.245
        49.000          35.0004
 128521522.130 6 100146633.79243  24456831.100    24456828.167    24456829.623
        40.000          21.0004
 124396046.642 6  96931985.54144  23671778.619    23671781.014    23671778.594
        40.000          25.0004
 122571057.324 6  95509926.43244  23324487.729    23324486.974    23324487.563
        41.000          24.0004
 125535512.178 6  97819883.82944  23888614.164    23888615.575    23888613.847
        41.000          26.0004
 107871398.806 8  84055646.87247  20527230.954    20527228.664    20527229.932
        48.000          43.0004
 122443115.604 7  95410223.51144  23300149.090    23300151.150    23300148.534
        42.000          28.0004
 17  9 19  1 21  0.0000000  0 10G11G32G10G31G22G01G18G27G14G08
 118887442.758 7  92639571.70544  22623525.476    22623523.677    22623524.837
        45.000          29.0004
 108520945.852 9  84561783.94947  20650831.395    20650831.969    20650831.285
        54.000          47.0004
 113253739.373 8  88249689.76946  21551459.552    21551460.331    21551459.142
        50.000          41.0004
 117019940.528 8  91184384.49545  22268143.575    22268142.001    22268142.950
        48.000          35.0004
 128437614.634 6 100081251.36843  24440864.517    24440860.641    24440862.846
        40.000          22.0004
 124289901.007 6  96849274.68544  23651579.995    23651582.144    23651579.757
        41.000          25.0004
 122618866.776 7  95547180.53644  23333585.765    23333584.709    23333585.239
        42.000          24.0004
 125614577.304 6  97881493.00443  23903659.236    23903661.118    23903658.607
        38.000          21.0004
 107863602.880 8  84049572.13747  20525747.357    20525745.132    20525746.435
        50.000          43.0004
 122488163.859 7  95445326.02944  23308721.554    23308723.511    23308721.064
        43.000          28.0004
 17  9 19  1 21 30.0000000  0 10G11G32G10G31G22G01G18G27G14G08
 118815369.432 7  92583410.67845  22609810.452    22609808.602    22609809.569
        45.000          30.0004
 108542891.247 8  84578884.26247  20655007.538    20655007.989    20655007.379
        53.000          47.0004
 113283367.669 8  88272776.75146  21557097.531    21557098.385    21557097.346
        50.000          40.0004
 116914638.799 8  91102331.25345  22248104.904    22248103.482    22248104.673
        48.000          35.0004
 128353687.001 6 100015853.25043  24424893.367    24424889.800    24424891.419
        40.000          22.0004
 124183944.874 6  96766711.49644  23631417.155    23631419.387    23631417.051
        41.000          25.0004
 122666813.862 6  95584541.87744  23342709.794    23342708.669    23342708.954
        41.000          24.0004
 125693690.081 7  97943139.24944  23918714.390    23918716.499    23918713.744
        42.000          25.0004
 107856201.239 7  84043804.63547  20524338.613    20524336.595    20524337.835
        47.000          42.0004
 122533554.809 7  95480695.57544  23317358.974    23317361.429    23317358.888
        43.000          28.0004
 17  9 19  1 22  0.0000000  0 10G11G32G10G31G22G01G18G27G14G08
 118743808.144 7  92527648.64445  22596192.907    22596190.837    22596192.310
        44.000          30.0004
 108565187.958 9  84596258.32647  20659250.289    20659250.920    20659250.324
        54.000          46.0004
 113313191.489 8  88296016.08846  21562772.836    21562773.680    21562772.466
        50.000          41.0004
 116809608.599 7  91020489.59045  22228118.175    22228117.134    22228117.955
        47.000          35.0004
 128269743.784 6  99950442.98743  24408918.548    24408915.675    24408917.626
        40.000          23.0004
 124078185.237 6  96684301.41744  23611291.623    23611293.920    23611291.578
        39.000          25.0004
 122714903.839 6  95622014.55844  23351860.924    23351859.909    23351860.386
        41.000          24.0004
 125772851.867 7  98004823.69344  23933778.588    23933780.945    23933778.061
        42.000          28.0004
 107849197.200 8  84038346.95147  20523005.968    20523003.698    20523005.120
        49.000          43.0004
 122579290.334 7  95516333.62344  23326062.473    23326064.823    23326061.931
        42.000          28.0004
 17  9 19  1 22 30.0000000  0 10G11G32G10G31G22G01G18G27G14G08
 118672757.094 7  92472284.19544  22582672.148    22582670.206    22582671.701
        45.000          29.0004
 108587830.327 9  84613901.73347  20663559.233    20663559.529    20663559.048
        54.000          46.0004
 113343207.299 8  88319405.02846  21568484.562    21568485.503    21568484.396
        51.000          40.0004
 116704848.798 8  90938858.62845  22208183.048    22208181.714    22208182.841
        48.000          35.0004
 128185781.118 6  99885017.58143  24392941.254    24392938.417    24392939.896
        41.000          23.0004
 123972620.790 6  96602043.42944  23591203.155    23591205.626    23591203.291
        40.000          25.0004
 122763132.808 6  95659595.55544  23361038.839    23361037.621    23361038.275
        41.000          24.0004
 125852055.824 6  98066541.00744  23948850.584    23948852.749    23948850.289
        41.000          27.0004
 107842585.948 8  84033195.33247  20521747.894    20521745.565    20521747.076
        49.000          43.0004
 122625363.796 7  95552234.98544  23334829.749    23334831.972    23334829.302
        43.000          28.0004
 17  9 19  1 23  0.0000000  0 10G11G32G10G31G22G01G18G27G14G08
 118602216.208 7  92417317.27544  22569248.839    22569247.007    22569248.041
        45.000          29.0004
 108610814.675 8  84631811.61947  20667932.902    20667933.375    20667932.756
        53.000          46.0004
 113373413.535 8  88342942.35446  21574232.646    21574233.632    21574232.508
        49.000          41.0004
 116600361.121 8  90857439.70745  22188299.694    22188298.258    22188299.490
        48.000          35.0004
 128101797.557 6  99819575.88943  24376960.017    24376956.909    24376958.613
        40.000          23.0004
 123867252.065 6  96519937.95844  23571152.391    23571154.642    23571152.280
        40.000          24.0004
 122811499.191 6  95697283.61644  23370243.086    23370241.395    23370242.083
        41.000          24.0004
 125931297.091 6  98128287.39843  23963927.861    23963931.460    23963928.362
        36.000          23.0004
 107836364.338 8  84028347.33247  20520563.865    20520561.748    20520563.129
        48.000          43.0004
 122671770.528 7  95588396.06744  23343661.005    23343662.930    23343660.515
        42.000          28.0004
 17  9 19  1 23 30.0000000  0 10G11G32G10G31G22G01G18G27G14G08
 118532191.395 7  92362752.49145  22555923.754    22555921.380    22555922.968
        45.000          30.0004
 108634143.118 8  84649989.62947  20672372.014    20672372.680    20672372.013
        53.000          47.0004
 113403814.451 8  88366631.37846  21580017.804    21580018.708    21580017.612
        48.000          41.0004
 116496152.540 8  90776238.26546  22168469.485    22168467.965    22168469.197
        49.000          36.0004
 128017796.617 6  99754120.65443  24360974.745    24360972.049    24360973.521
        40.000          23.0004
 123762085.524 6  96437990.02844  23551138.912    23551141.957    23551139.639
        39.000          24.0004
 122860007.360 7  95735082.16144  23379474.114    23379472.268    23379472.797
        42.000          24.0004
 126010576.421 6  98190063.44943  23979015.714    23979017.242    23979014.908
        39.000          18.0004
 107830534.562 8  84023804.65447  20519454.446    20519452.322    20519453.737
        48.000          43.0004
 122718511.618 7  95624817.66744  23352555.573    23352557.853    23352554.846
        43.000          28.0004
 17  9 19  1 24  0.0000000  0 10G11G32G10G31G22G01G18G27G14G08
 118462685.101 7  92308591.74944  22542696.951    22542694.986    22542696.046
        43.000          29.0004
 108657814.286 8  84668434.70147  20676876.780    20676877.099    20676876.522
        53.000          46.0004
 113434410.788 8  88390472.67646  21585840.133    21585840.963    21585839.815
        51.000          40.0004
 116392226.382 8  90695256.89546  22148692.880    22148691.457    22148692.544
        49.000          36.0004
 127933779.588 6  99688652.87943  24344986.959    24344983.762    24344985.713
        41.000          22.0004
 123657124.105 6  96356201.94144  23531166.223    23531168.593    23531165.596
        39.000          24.0004
 122908658.109 7  95772991.80744  23388731.898    23388730.353    23388731.072
        42.000          24.0004
 126089891.108 6  98251867.09143  23994108.749    23994111.265    23994108.417
        41.000          23.0004
 107825096.108 8  84019566.89747  20518419.567    20518417.449    20518418.768
        48.000          42.0004
 122765584.785 7  95661498.01544  23361513.286    23361515.368    23361512.713
        42.000          28.0004
 17  9 19  1 24 30.0000000  0 10G11G32G10G31G22G01G18G27G14G08
 118393699.644 7  92254836.85544  22529568.919    22529567.360    22529568.535
        46.000          29.0004
 108681826.938 9  84687145.86047  20681446.111    20681446.586    20681445.983
        55.000          46.0004
 113465203.452 8  88414466.95446  21591699.798    21591700.681    21591699.373
        50.000          41.0004
 116288586.419 8  90614498.53345  22128970.603    22128969.306    22128970.560
        49.000          35.0004
 127849746.883 6  99623172.89143  24328996.307    24328992.938    24328994.801
        39.000          23.0004
 123552370.871 6  96274576.08043  23511232.395    23511234.430    23511231.966
        39.000          23.0004
 122957452.109 7  95811013.08644  23398017.351    23398015.523    23398016.169
        42.000          24.0004
 126169238.771 6  98313696.38544  24009208.364    24009211.214    24009208.054
        40.000          25.0004
 107820048.386 7  84015633.61647  20517459.113    20517456.899    20517458.236
        45.000          43.0004
 122812987.850 7  95698435.44444  23370533.983    23370535.756    23370533.354
        42.000          28.0004
 17  9 19  1 25  0.0000000  0 10G11G32G10G31G22G01G18G27G14G08
 118325238.629 7  92201490.61845  22516541.472    22516539.663    22516540.964
        45.000          30.0004
 108706180.618 8  84706122.75847  20686080.464    20686080.881    20686080.276
        53.000          46.0004
 113496194.120 8  88438615.52246  21597597.071    21597597.991    21597596.739
        50.000          41.0004
 116185237.475 8  90533966.93446  22109304.100    22109302.786    22109303.838
        49.000          36.0004
 127765700.286 6  99557682.07543  24313002.703    24312999.472    24313001.200
        40.000          22.0004
 123447829.690 6  96193115.45043  23491338.313    23491340.758    23491338.415
        38.000          23.0004
 123006391.267 7  95849147.47644  23407329.776    23407328.608    23407328.734
        42.000          24.0004
 126248617.786 6  98375550.07343  24024313.028    24024316.403    24024312.745
        37.000          21.0004
 107815391.250 8  84012004.68947  20516572.840    20516570.701    20516572.015
        49.000          43.0004
 122860719.217 6  95735628.70144  23379616.636    23379618.821    23379616.041
        41.000          27.0004
 17  9 19  1 25 30.0000000  0 10G11G32G10G31G22G01G18G27G14G08
 118257298.999 7  92148550.65144  22503612.947    22503611.004    22503612.654
        45.000          29.0004
 108730868.802 9  84725360.30947  20690778.348    20690778.900    20690778.337
        54.000          46.0004
 113527378.410 8  88462914.96546  21603530.974    21603532.240    21603530.957
        49.000          41.0004
 116082177.728 8  90453660.68946  22089692.433    22089690.977    22089692.260
        49.000          36.0004
 127681635.190 6  99492176.84443  24297005.398    24297002.456    24297004.132
        41.000          22.0004
 123343498.413 6  96111818.37444  23471484.744    23471487.226    23471485.092
        40.000          24.0004
 123055471.160 6  95887391.53443  23416669.498    23416667.746    23416668.528
        41.000          23.0004
 126328020.346 6  98437422.08743  24039422.873    24039425.127    24039422.542
        37.000          19.0004
 107811118.794 8  84008675.51147  20515759.921    20515757.655    20515758.975
        50.000          43.0004
 122908770.995 7  95773071.60344  23388760.738    23388763.289    23388760.035
        43.000          27.0004
 17  9 19  1 26  0.0000000  0 10G11G32G10G31G22G01G18G27G14G08
 118189886.284 7  92096021.27145  22490784.913    22490783.050    22490784.508
        45.000          30.0004
 108755893.329 8  84744859.94547  20695540.349    20695540.848    20695540.346
        53.000          46.0004
 113558760.281 8  88487368.36946  21609503.163    21609503.937    21609502.763
        50.000          40.0004
 115979413.805 8  90373584.95146  22070136.975    22070135.517    22070136.850
        48.000          36.0004
 127597555.231 6  99426660.03343  24281005.693    24281002.362    24281004.458
        40.000          22.0004
 123239383.121 6  96030689.60244  23451673.159    23451674.653    23451672.589
        40.000          25.0004
 123104695.451 6  95925748.10443  23426036.521    23426034.999    23426035.713
        41.000          23.0004
 126407446.913 6  98499312.90443  24054538.229    24054539.837    24054537.426
        39.000          19.0004
 107807233.313 8  84005647.87547  20515020.543    20515018.177    20515019.707
        48.000          43.0004
 122957144.395 6  95810765.12244  23397965.504    23397968.363    23397965.503
        41.000          28.0004
 17  9 19  1 26 30.0000000  0 10G11G32G10G31G22G01G18G27G14G08
 118123002.299 7  92043903.88645  22478057.216    22478055.223    22478056.772
        46.000          30.0004
 108781252.129 9  84764620.05247  20700366.080    20700366.580    20700365.919
        54.000          47.0004
 113590339.866 8  88511975.83446  21615512.313    21615513.415    21615512.076
        50.000          40.0004
 115876948.881 8  90293742.20246  22050638.591    22050637.082    22050638.469
        50.000          36.0004
 127513460.795 6  99361131.93343  24265002.934    24265000.014    24265001.581
        40.000          22.0004
 123135486.187 6  95949730.97644  23431901.619    23431903.904    23431901.551
        41.000          25.0004
 123154064.598 7  95964217.56143  23435431.073    23435429.570    23435430.313
        42.000          23.0004
 126486894.443 6  98561220.06843  24069656.469    24069658.584    24069655.932
        40.000          20.0004
 107803733.323 8  84002920.62047  20514354.488    20514352.240    20514353.597
        49.000          43.0004
 123005836.356 6  95848706.88644  23407230.660    23407233.766    23407230.905
        40.000          27.0004
 17  9 19  1 27  0.0000000  0 10G11G32G10G31G22G01G18G27G14G08
 118056647.856 7  91992199.12945  22465430.397    22465428.758    22465429.822
        45.000          30.0004
 108806942.482 8  84784638.51347  20705254.722    20705255.202    20705254.653
        53.000          47.0004
 113622116.545 8  88536736.88246  21621559.310    21621560.272    21621558.945
        49.000          40.0004
 115774785.045 8  90214134.06246  22031197.328    22031195.938    22031197.203
        48.000          36.0004
 127429350.960 6  99295591.83843  24248997.329    24248993.951    24248995.998
        40.000          22.0004
 123031809.188 7  95868943.72444  23412172.753    23412174.874    23412172.519
        42.000          26.0004
 123203577.677 7  96002799.15843  23444853.390    23444851.698    23444852.438
        42.000          23.0004
 126566358.933 6  98623140.39443  24084777.664    24084780.760    24084777.240
        36.000          22.0004
 107800616.634 8  84000492.03847  20513761.246    20513759.175    20513760.522
        50.000          43.0004
 123054842.841 7  95886893.72844  23416557.210    23416559.601    23416556.527
        42.000          26.0004
 17  9 19  1 27 30.0000000  0 10G11G32G10G31G22G01G18G27G14G08
 117990826.590 7  91940909.83845  22452905.110    22452903.247    22452904.424
        43.000          30.0004
 108832964.323 8  84804915.27747  20710206.599    20710207.003    20710206.412
        53.000          46.0004
 113654092.433 8  88561653.15746  21627644.122    21627645.022    21627643.930
        50.000          40.0004
 115672927.229 8  90134764.38546  22011814.546    22011813.048    22011814.202
        50.000          36.0004
 127345227.587 6  99230041.20643  24232988.430    24232985.672    24232987.688
        39.000          22.0004
 122928356.404 6  95788331.18844  23392486.182    23392488.326    23392486.219
        40.000          26.0004
 123253236.756 7  96041494.51144  23454303.017    23454301.434    23454302.407
        42.000          24.0004
 126645839.117 6  98685072.88343  24099902.219    24099905.585    24099901.641
        37.000          21.0004
 107797883.454 8  83998362.29347  20513241.183    20513238.925    20513240.367
        48.000          43.0004
 123104162.660 7  95925324.72644  23425942.701    23425945.132    23425942.120
        42.000          28.0004
 17  9 19  1 28  0.0000000  0 10G11G32G10G31G22G01G18G27G14G08
 117925538.039 7  91890035.64845  22440481.010    22440479.256    22440480.392
        44.000          30.0004
 108859313.613 8  84825447.19547  20715220.629    20715221.115    20715220.566
        53.000          46.0004
 113686265.617 8  88586723.16946  21633766.410    21633767.461    21633766.249
        48.000          40.0004
 115571376.304 8  90055633.83646  21992489.995    21992488.489    21992489.706
        49.000          36.0004
 127261088.777 6  99164478.54443  24216977.637    24216974.625    24216976.630
        38.000          22.0004
 122825128.148 7  95707893.60344  23372842.469    23372844.788    23372842.523
        42.000          26.0004
 123303039.769 7  96080302.03043  23463780.438    23463778.418    23463779.593
        42.000          23.0004
 126725329.699 6  98747013.51043  24115029.132    24115031.891    24115028.650
        40.000          23.0004
 107795530.278 8  83996528.65447  20512793.530    20512791.201    20512792.647
        50.000          43.0004
 123153791.069 7  95963996.18244  23435386.119    23435389.054    23435386.093
        42.000          28.0004
 17  9 19  1 28 30.0000000  0 10G11G32G10G31G22G01G18G27G14G08
 117860782.309 7  91839576.64345  22428158.218    22428156.738    22428157.801
        45.000          30.0004
 108885986.885 8  84846231.56747  20720296.377    20720296.863    20720296.324
        53.000          46.0004
 113718634.798 8  88611945.90446  21639926.151    21639926.950    21639925.960
        50.000          40.0004
 115470133.483 8  89976743.37346  21973223.840    21973222.528    21973223.632
        49.000          36.0004
 127176933.252 6  99098902.85743  24200962.551    24200960.383    24200962.279
        39.000          21.0004
 122722125.376 6  95627631.73144  23353241.952    23353243.769    23353241.391
        41.000          26.0004
 123352985.662 7  96119220.88743  23473284.690    23473282.739    23473283.646
        42.000          22.0004
 126804826.074 6  98808958.71343  24130157.219    24130159.316    24130156.584
        40.000          23.0004
 107793553.962 8  83994988.67647  20512417.379    20512415.099    20512416.453
        48.000          43.0004
 123203723.393 7  96002904.44244  23444887.858    23444890.655    23444887.472
        42.000          27.0004
 17  9 19  1 29  0.0000000  0 10G11G32G10G31G22G01G18G27G14G08
 117796563.319 7  91789535.87745  22415937.976    22415936.170    22415937.267
        45.000          30.0004
 108912984.619 8  84867268.76447  20725433.773    20725434.331    20725433.741
        53.000          47.0004
 113751202.599 8  88637323.40846  21646123.657    21646124.577    21646123.362
        50.000          40.0004
 115369204.509 8  89898097.46246  21954018.073    21954016.510    21954017.702
        49.000          37.0004
 127092763.342 6  99033315.97043  24184946.421    24184943.181    24184945.197
        39.000          22.0004
 122619352.889 6  95547549.30044  23333684.623    23333686.687    23333684.481
        40.000          26.0004
 123403077.008 6  96158253.10443  23482816.618    23482814.695    23482815.749
        41.000          22.0004
 126884327.583 6  98870907.91643  24145285.365    24145288.047    24145285.268
        39.000          23.0004
 107791956.103 8  83993743.60447  20512113.277    20512111.017    20512112.499
        49.000          43.0004
 123253958.907 7  96042048.97244  23454447.945    23454450.102    23454447.528
        42.000          27.0004
 17  9 19  1 29 30.0000000  0 10G11G32G10G31G22G01G18G27G14G08
 117732882.298 7  91739914.31045  22403819.762    22403817.876    22403819.110
        47.000          30.0004
 108940304.113 8  84888556.68847  20730632.581    20730633.067    20730632.434
        53.000          46.0004
 113783968.510 8  88662855.28746  21652358.795    21652359.617    21652358.516
        49.000          40.0004
 115268591.591 8  89819697.83446  21934871.710    21934870.404    21934871.570
        48.000          37.0004
 127008578.817 6  98967717.69443  24168927.261    24168923.253    24168925.308
        39.000          21.0004
 122516812.350 6  95467647.60844  23314171.772    23314173.832    23314171.604
        41.000          26.0004
 123453313.162 6  96197398.14743  23492376.097    23492374.538    23492375.560
        41.000          21.0004
 126963830.467 6  98932858.16843  24160414.143    24160417.252    24160413.960
        37.000          22.0004
 107790734.108 8  83992791.41447  20511880.595    20511878.538    20511879.929
        48.000          43.0004
 123304493.895 7  96081426.87144  23464064.044    23464067.000    23464063.885
        42.000          27.0004
 17  9 19  1 30  0.0000000  0 10G11G32G10G31G22G01G18G27G14G08
 117669745.266 7  91690716.62945  22391805.366    22391803.497    22391804.727
        45.000          30.0004
 108967947.405 9  84910096.91947  20735892.786    20735893.447    20735892.827
        54.000          46.0004
 113816936.713 8  88688544.79446  21658632.395    21658633.252    21658632.110
        51.000          40.0004
 115168301.765 8  89741549.95846  21915787.244    21915785.712    21915787.067
        49.000          37.0004
 126924384.054 6  98902111.44643  24152905.064    24152901.715    24152903.657
        39.000          21.0004
 122414510.217 6  95387931.69144  23294704.250    23294706.489    23294704.241
        41.000          26.0004
 123503698.389 6  96236659.33843  23501963.392    23501962.005    23501963.558
        41.000          21.0004
 127043335.412 6  98994809.99344  24175544.044    24175546.834    24175543.363
        40.000          24.0004
 107789890.629 8  83992134.17147  20511720.090    20511717.906    20511719.322
        50.000          43.0004
 123355329.402 6  96121038.91044  23473737.620    23473740.634    23473737.246
        41.000          26.0004
 17  9 19  1 30 30.0000000  0 10G11G32G10G31G22G01G18G27G14G08
 117607152.437 7  91641943.00245  22379894.175    22379892.373    22379893.769
        43.000          30.0004
 108995911.769 9  84931887.33547  20741214.375    20741214.848    20741214.279
        54.000          46.0004
 113850106.659 8  88714391.50246  21664944.458    21664945.249    21664944.060
        49.000          40.0004
 115068337.184 8  89663655.52946  21896764.607    21896763.051    21896764.384
        49.000          37.0004
 126840177.947 6  98836496.34543  24136880.987    24136878.097    24136879.798
        38.000          21.0004
 122312448.107 6  95308402.79844  23275282.933    23275284.670    23275282.352
        39.000          26.0004
 123554231.913 6  96276036.08643  23511580.464    23511578.860    23511579.775
        41.000          21.0004
 127122838.621 6  99056760.46644  24190672.992    24190675.808    24190672.387
        41.000          27.0004
 107789423.377 8  83991770.08447  20511631.260    20511629.145    20511630.448
        48.000          43.0004
 123406461.607 7  96160882.15244  23483468.005    23483470.608    23483468.010
        42.000          27.0004
 17  9 19  1 31  0.0000000  0 10G11G32G10G31G22G01G18G27G14G08
 117545104.013 7  91593593.59045  22368086.855    22368084.817    22368086.205
        45.000          31.0004
 109024193.791 9  84953925.27947  20746596.200    20746596.780    20746596.120
        54.000          46.0004
 113883477.081 8  88740394.42846  21671294.401    21671295.537    21671294.409
        50.000          40.0004
 114968699.368 8  89586015.71646  21877804.089    21877802.602    21877803.897
        50.000          37.0004
 126755958.998 6  98770871.24643  24120854.498    24120851.432    24120853.209
        39.000          21.0004
 122210627.020 6  95229061.72544  23255906.729    23255908.794    23255906.607
        41.000          27.0004
 123604912.513 6  96315527.44643  23521224.370    23521222.941    23521223.841
        39.000          21.0004
 127202335.578 6  99118706.08644  24205801.066    24205803.427    24205800.417
        40.000          26.0004
 107789329.206 8  83991696.70447  20511613.466    20511611.177    20511612.441
        49.000          43.0004
 123457885.782 6  96200952.91644  23493254.116    23493256.018    23493253.755
        41.000          27.0004
 17  9 19  1 31 30.0000000  0 10G11G32G10G31G22G01G18G27G14G08
 117483600.670 7  91545668.92145  22356382.699    22356381.284    22356382.614
        45.000          31.0004
 109052790.728 8  84976208.61247  20752037.893    20752038.564    20752037.897
        53.000          46.0004
 113917047.390 8  88766553.10746  21677682.828    21677683.673    21677682.464
        49.000          40.0004
 114869390.194 8  89508631.98446  21858906.289    21858904.697    21858906.085
        50.000          37.0004
 126671726.742 6  98705235.77043  24104825.497    24104822.452    24104824.375
        40.000          21.0004
 122109048.600 6  95149909.74044  23236576.740    23236579.197    23236576.656
        41.000          27.0004
 123655739.319 6  96355132.73443  23530896.525    23530895.243    23530895.967
        41.000          21.0004
 127281822.366 6  99180643.80344  24220926.383    24220929.387    24220926.118
        40.000          24.0004
 107789605.816 7  83991912.24047  20511665.922    20511663.811    20511665.083
        46.000          43.0004
 123509598.227 6  96241248.31344  23503093.701    23503096.791    23503093.827
        41.000          26.0004
 17  9 19  1 32  0.0000000  0 10G11G32G10G31G22G01G18G27G14G08
 117422644.338 7  91498170.48645  22344783.606    22344781.525    22344782.831
        46.000          31.0004
 109081700.781 9  84998735.93247  20757539.474    20757539.942    20757539.398
        54.000          46.0004
 113950817.987 8  88792867.85846  21684108.968    21684109.995    21684108.861
        49.000          40.0004
 114770412.988 8  89431506.93346  21840071.540    21840069.973    21840071.228
        51.000          37.0004
 126587481.581 6  98639590.23843  24088794.262    24088790.678    24088793.279
        40.000          21.0004
 122007715.428 6  95070948.85444  23217294.333    23217296.195    23217293.730
        40.000          28.0004
 123706712.624 6  96394852.17343  23540596.004    23540595.298    23540595.912
        39.000          21.0004
 127361296.162 6  99242571.39343  24236049.740    24236052.632    24236049.529
        40.000          23.0004
 107790251.892 7  83992415.68047  20511788.921    20511786.704    20511788.108
        47.000          43.0004
 123561596.237 7  96281766.19144  23512989.253    23512991.912    23512988.729
        42.000          26.0004
 17  9 19  1 32 30.0000000  0 10G11G32G10G31G22G01G18G27G14G08
 117362240.677 7  91451102.71145  22333288.836    22333287.261    22333288.394
        45.000          31.0004
 109110926.110 8  85021508.92147  20763100.757    20763101.425    20763100.684
        53.000          46.0004
 113984793.192 8  88819342.04146  21690574.435    21690575.184    21690574.211
        51.000          40.0004
 114671774.792 8  89354646.04646  21821301.223    21821299.717    21821300.945
        49.000          38.0004
 126503228.013 6  98573938.14743  24072761.015    24072757.972    24072759.828
        40.000          21.0004
 121906634.097 7  94992184.20744  23198058.626    23198060.787    23198058.369
        42.000          28.0004
 123757836.718 6  96434689.11343  23550325.035    23550323.385    23550324.565
        39.000          20.0004
 127440757.950 6  99304489.61644  24251170.873    24251173.892    24251170.652
        39.000          24.0004
 107791270.044 8  83993209.05847  20511982.731    20511980.435    20511981.910
        50.000          43.0004
 123613880.788 7  96322507.37444  23522939.039    23522941.161    23522938.649
        44.000          27.0004
 17  9 19  1 33  0.0000000  0 10G11G32G10G31G22G01G18G27G14G08
 117302388.097 7  91404464.34545  22321899.408    22321897.617    22321898.640
        46.000          31.0004
 109140461.903 8  85044523.82747  20768721.272    20768721.894    20768721.067
        53.000          46.0004
 114018970.308 8  88845973.55846  21697078.002    21697078.974    21697077.847
        50.000          39.0004
 114573475.768 8  89278049.44446  21802595.400    21802593.907    21802595.326
        50.000          38.0004
 126418963.005 6  98508277.13143  24056726.199    24056722.631    24056725.267
        41.000          22.0004
 121805804.146 6  94913615.44244  23178871.482    23178873.679    23178871.197
        41.000          28.0004
 123809109.084 6  96474641.57943  23560082.149    23560080.881    23560081.378
        40.000          21.0004
 127520201.717 6  99366393.78944  24266288.993    24266291.422    24266288.364
        38.000          25.0004
 107792655.758 8  83994288.84747  20512246.294    20512244.132    20512245.528
        49.000          43.0004
 123666445.723 7  96363467.06644  23532941.713    23532943.854    23532941.358
        43.000          25.0004
 17  9 19  1 33 30.0000000  0 10G11G32G10G31G22G01G18G27G14G08
 117243090.609 7  91358258.52045  22310615.362    22310613.464    22310614.941
        44.000          31.0004
 109170308.704 8  85067781.08047  20774400.966    20774401.534    20774400.798
        53.000          45.0004
 114053352.104 8  88872764.56346  21703620.805    21703621.668    21703620.506
        48.000          40.0004
 114475521.428 8  89201721.42746  21783955.493    21783953.959    21783955.193
        50.000          38.0004
 126334689.470 7  98442609.47243  24040689.993    24040685.786    24040688.310
        42.000          22.0004
 121705230.549 6  94835246.42944  23159732.755    23159735.080    23159732.641
        41.000          28.0004
 123860532.238 6  96514711.56343  23569867.221    23569866.346    23569866.717
        40.000          21.0004
 127599627.019 6  99428283.56744  24281403.162    24281406.022    24281402.707
        40.000          25.0004
 107794410.179 8  83995655.93847  20512580.045    20512577.966    20512579.428
        49.000          43.0004
 123719290.530 6  96404644.81344  23542997.577    23543000.090    23542997.218
        41.000          25.0004
 17  9 19  1 34  0.0000000  0 10G11G32G10G31G22G01G18G27G14G08
 117184348.497 7  91312485.45945  22299437.308    22299435.615    22299436.670
        44.000          31.0004
 109200463.199 9  85091278.09247  20780139.013    20780139.708    20780139.102
        54.000          46.0004
 114087937.431 8  88899714.17046  21710202.241    21710203.087    21710201.876
        50.000          40.0004
 114377912.736 8  89125662.75146  21765381.068    21765379.415    21765380.863
        49.000          38.0004
 126250406.313 6  98376934.31243  24024650.731    24024647.572    24024649.896
        41.000          23.0004
 121604914.402 6  94757078.02544  23140643.078    23140645.382    23140643.070
        39.000          28.0004
 123912105.270 6  96554898.32443  23579681.834    23579679.618    23579680.783
        40.000          21.0004
 127679029.473 6  99490155.54243  24296512.549    24296515.673    24296512.390
        37.000          23.0004
 107796530.459 8  83997308.10447  20512983.828    20512981.477    20512982.867
        49.000          43.0004
 123772411.329 7  96446037.60744  23553106.944    23553108.793    23553106.030
        44.000          26.0004
 17  9 19  1 34 30.0000000  0 10G11G32G10G31G22G01G18G27G14G08
 117126159.885 7  91267143.69745  22288364.384    22288362.478    22288363.811
        44.000          31.0004
 109230920.071 8  85115010.72147  20785934.866    20785935.458    20785934.814
        53.000          46.0004
 114122723.125 8  88926819.90046  21716821.755    21716822.477    21716821.378
        50.000          40.0004
 114280649.782 8  89049873.47846  21746872.242    21746870.852    21746872.158
        51.000          38.0004
 126166110.080 6  98311248.96243  24008610.041    24008606.702    24008608.798
        41.000          23.0004
 121504854.788 6  94679109.51744  23121602.264    23121604.632    23121602.331
        40.000          28.0004
 123963824.734 6  96595199.18843  23589523.835    23589522.206    23589522.689
        38.000          21.0004
 127758402.640 6  99552004.69743  24311616.707    24311619.657    24311616.222
        37.000          20.0004
 107799011.632 8  83999241.49347  20513455.919    20513453.601    20513455.109
        49.000          43.0004
 123825800.929 6  96487639.87744  23563266.210    23563268.319    23563265.769
        41.000          26.0004
 17  9 19  1 35  0.0000000  0 10G11G32G10G31G22G01G18G27G14G08
 117068529.222 7  91222236.69545  22277397.706    22277395.632    22277397.033
        46.000          31.0004
 109261680.722 8  85138980.06147  20791788.386    20791789.101    20791788.358
        53.000          46.0004
 114157712.762 8  88954084.55246  21723479.979    21723480.857    21723479.635
        49.000          39.0004
 114183739.025 8  88974358.64346  21728431.134    21728429.309    21728430.829
        49.000          38.0004
 126081804.544 7  98245556.36643  23992567.092    23992563.745    23992565.999
        42.000          23.0004
 121405057.555 7  94601345.45444  23102611.881    23102613.762    23102611.499
        43.000          28.0004
 124015693.762 6  96635616.59443  23599394.104    23599392.050    23599392.724
        39.000          21.0004
 127837746.827 6  99613831.27043  24326715.553    24326718.269    24326715.305
        37.000          19.0004
 107801855.543 8  84001457.53347  20513997.003    20513994.746    20513996.268
        49.000          43.0004
 123879459.694 6  96529451.87544  23573477.070    23573478.885    23573476.750
        40.000          25.0004
 17  9 19  1 35 30.0000000  0 10G11G32G10G31G22G01G18G27G14G08
 117011460.205 7  91177767.34445  22266537.779    22266535.759    22266537.040
        46.000          31.0004
 109292745.263 8  85163186.19847  20797699.793    20797700.322    20797699.724
        53.000          46.0004
 114192908.598 8  88981509.87546  21730177.421    21730178.463    21730177.241
        49.000          39.0004
 114087185.097 8  88899121.85646  21710057.285    21710055.755    21710057.052
        49.000          38.0004
 125997492.225 6  98179858.47644  23976523.002    23976519.575    23976521.789
        41.000          24.0004
 121305527.171 6  94523789.32644  23083671.696    23083673.865    23083671.656
        41.000          28.0004
 124067714.950 6  96676152.54943  23609293.457    23609292.050    23609292.224
        40.000          21.0004
 127917061.070 6  99675634.53743  24341808.803    24341811.584    24341808.138
        38.000          19.0004
 107805062.555 8  84003956.50847  20514607.235    20514605.014    20514606.452
        49.000          43.0004
 123933387.015 7  96571473.14744  23583738.817    23583740.967    23583738.703
        42.000          24.0004
 17  9 19  1 36  0.0000000  0 10G11G32G10G31G22G01G18G27G14G08
 116954946.789 7  91133730.92445  22255783.561    22255781.624    22255783.058
        45.000          31.0004
 109324104.213 8  85187621.74447  20803667.196    20803667.836    20803667.235
        53.000          46.0004
 114228303.285 8  89009090.14546  21736912.630    21736913.695    21736912.528
        49.000          40.0004
 113990983.606 8  88824159.69746  21691750.795    21691749.034    21691750.538
        50.000          38.0004
 125913165.507 6  98114149.38144  23960475.878    23960472.561    23960474.855
        41.000          24.0004
 121206258.598 7  94446437.20644  23064781.532    23064783.572    23064781.617
        42.000          28.0004
 124119880.533 6  96716801.02943  23619219.325    23619218.393    23619219.083
        38.000          22.0004
 127996334.808 6  99737406.24443  24356893.976    24356896.519    24356893.600
        36.000          18.0004
 107808623.564 8  84006731.32647  20515284.678    20515282.642    20515284.114
        49.000          43.0004
 123987571.930 7  96613695.14544  23594050.262    23594052.546    23594050.167
        42.000          26.0004
 17  9 19  1 36 30.0000000  0 10G11G32G10G31G22G01G18G27G14G08
 116898997.334 7  91090133.96045  22245136.787    22245134.906    22245135.983
        45.000          31.0004
 109355762.653 9  85212290.65747  20809691.664    20809692.229    20809691.552
        54.000          45.0004
 114263904.151 8  89036831.07546  21743687.451    21743688.463    21743687.234
        50.000          39.0004
 113895144.457 8  88749479.88246  21673512.986    21673511.436    21673512.769
        50.000          38.0004
 125828831.910 7  98048434.91244  23944427.832    23944424.550    23944426.724
        42.000          24.0004
 121107261.386 6  94369296.53444  23045942.779    23045944.906    23045942.845
        41.000          28.0004
 124172197.977 6  96757567.84943  23629175.361    23629174.315    23629174.884
        40.000          21.0004
 128075572.139 5  99799149.55542  24371972.253    24371975.124    24371972.206
        35.000          17.0004
 107812544.118 8  84009786.31047  20516031.013    20516028.745    20516030.050
        49.000          43.0004
 124042018.537 6  96656121.03344  23604411.099    23604413.603    23604410.626
        41.000          26.0004
 17  9 19  1 37  0.0000000  0 10G11G32G10G31G22G01G18G27G14G08
 116843612.865 7  91046977.23845  22234597.403    22234595.350    22234596.825
        45.000          32.0004
 109387718.460 8  85237191.28747  20815772.620    20815773.266    20815772.577
        53.000          46.0004
 114299711.204 8  89064732.67246  21750501.331    21750502.440    21750501.127
        49.000          39.0004
 113799670.358 8  88675084.52246  21655345.033    21655343.403    21655344.788
        51.000          38.0004
 125744491.230 6  97982714.93244  23928378.383    23928375.158    23928377.061
        40.000          25.0004
 121008537.728 7  94292369.01944  23027156.175    23027158.286    23027156.335
        43.000          28.0004
 124224667.305 6  96798453.02143  23639160.461    23639158.977    23639159.339
        41.000          22.0004
 128154769.920 5  99860862.03042  24387042.854    24387046.649    24387042.712
        35.000          17.0004
 107816822.591 8  84013120.19347  20516845.261    20516842.943    20516844.186
        49.000          43.0004
 124096723.243 6  96698748.03444  23614820.764    23614823.452    23614820.249
        41.000          25.0004
 17  9 19  1 37 30.0000000  0 10G11G32G10G31G22G01G18G27G14G08
 116788793.513 7  91004260.87145  22224165.640    22224163.711    22224164.968
        45.000          32.0004
 109419968.256 8  85262320.99947  20821909.438    20821910.199    20821909.392
        53.000          46.0004
 114335723.236 8  89092793.98846  21757354.231    21757355.248    21757353.883
        49.000          39.0004
 113704562.565 8  88600974.59446  21637246.596    21637244.774    21637246.361
        50.000          39.0004
 125660142.487 6  97916988.67444  23912327.688    23912324.120    23912326.175
        40.000          25.0004
 120910088.800 7  94215655.58344  23008422.332    23008423.967    23008422.321
        44.000          28.0004
 124277287.003 6  96839455.35743  23649173.399    23649172.382    23649172.919
        41.000          22.0004
 128233923.658 5  99922540.17043  24402106.066    24402108.707    24402105.291
        35.000          18.0004
 107821455.502 8  84016730.26147  20517726.618    20517724.626    20517725.877
        48.000          43.0004
 124151681.837 6  96741572.90144  23625279.518    23625281.429    23625278.868
        41.000          24.0004
 17  9 19  1 38  0.0000000  0 10G11G32G10G31G22G01G18G27G14G08
 116734539.790 7  90961985.25245  22213841.495    22213839.656    22213840.856
        46.000          32.0004
 109452509.390 8  85287677.72747  20828101.944    20828102.581    20828101.890
        53.000          45.0004
 114371939.735 8  89121014.63146  21764245.801    21764247.092    21764245.639
        50.000          39.0004
 113609823.399 8  88527151.90446  21619218.441    21619216.599    21619218.179
        50.000          38.0004
 125575785.328 6  97851255.85644  23896274.620    23896271.362    23896273.269
        41.000          25.0004
 120811916.315 7  94139157.56044  22989740.681    22989742.595    22989740.429
        42.000          28.0004
 124330056.394 6  96880574.35143  23659214.722    23659214.120    23659214.493
        41.000          22.0004
 128313029.717 6  99984181.16942  24417159.125    24417161.835    24417158.681
        37.000          17.0004
 107826441.200 8  84020615.22547  20518675.374    20518673.285    20518674.661
        50.000          43.0004
 124206890.241 6  96784592.43444  23635784.750    23635787.541    23635784.728
        40.000          25.0004
 17  9 19  1 38 30.0000000  0 10G11G32G10G31G22G01G18G27G14G08
 116680853.504 7  90920151.79545  22203625.447    22203623.466    22203624.627
        46.000          32.0004
 109485340.563 8  85313260.46247  20834349.453    20834350.074    20834349.363
        52.000          46.0004
 114408361.606 8  89149395.30746  21771176.727    21771177.802    21771176.458
        49.000          39.0004
 113515456.262 8  88453619.11546  21601260.814    21601259.085    21601260.445
        50.000          39.0004
 125491420.604 6  97785517.15244  23880220.584    23880217.399    23880219.309
        41.000          25.0004
 120714023.267 7  94062877.28144  22971112.437    22971114.438    22971112.212
        42.000          28.0004
 124382976.530 6  96921810.80243  23669285.327    23669284.285    23669284.984
        40.000          22.0004
 128392085.657 6 100045783.20242  24432203.432    24432205.517    24432203.061
        38.000          16.0004
 107831778.428 8  84024774.11147  20519690.871    20519688.914    20519690.282
        48.000          43.0004
 124262346.338 6  96827804.93244  23646336.916    23646340.948    23646337.108
        39.000          24.0004
 17  9 19  1 39  0.0000000  0 10G11G32G10G31G22G01G18G27G14G08
 116627736.152 7  90878761.66345  22193517.268    22193515.607    22193516.701
        44.000          32.0004
 109518460.020 8  85339067.83447  20840651.980    20840652.563    20840651.832
        52.000          45.0004
 114444989.218 7  89177936.29746  21778146.838    21778147.792    21778146.566
        47.000          39.0004
 113421464.403 8  88380378.74346  21583374.626    21583372.991    21583374.493
        51.000          39.0004
 125407048.804 6  97719772.92944  23864164.666    23864161.835    23864163.927
        41.000          25.0004
 120616412.486 7  93986816.95844  22952537.527    22952539.469    22952537.350
        43.000          29.0004
 124436047.445 6  96963164.73843  23679384.764    23679383.585    23679383.603
        41.000          23.0004
 128471088.810 6 100107344.11142  24447236.910    24447239.569    24447236.543
        39.000          17.0004
 107837465.801 8  84029205.83647  20520773.522    20520771.106    20520772.402
        49.000          43.0004
 124318046.937 6  96871207.91544  23656937.664    23656940.137    23656936.689
        40.000          24.0004
 17  9 19  1 39 30.0000000  0 10G11G32G10G31G22G01G18G27G14G08
 116575188.832 7  90837815.71245  22183517.755    22183516.184    22183517.294
        46.000          32.0004
 109551865.621 8  85365098.17347  20847008.780    20847009.405    20847008.691
        52.000          45.0004
 114481822.583 8  89206637.61646  21785155.992    21785156.870    21785155.716
        49.000          39.0004
 113327850.721 8  88307433.05746  21565560.428    21565558.854    21565560.249
        51.000          39.0004
 125322670.079 6  97654023.30644  23848108.002    23848105.154    23848106.962
        41.000          25.0004
 120519086.136 7  93910978.26944  22934017.127    22934018.899    22934016.789
        42.000          29.0004
 124489269.390 6  97004636.37843  23689512.707    23689511.381    23689511.980
        41.000          23.0004
 128550036.064 6 100168861.41243  24462259.947    24462263.737    24462259.783
        38.000          19.0004
 107843501.400 8  84033908.90347  20521921.977    20521919.557    20521921.113
        48.000          43.0004
 124373988.740 6  96914798.92044  23667583.115    23667584.803    23667582.450
        41.000          24.0004
 17  9 19  1 40  0.0000000  0 10G11G32G10G31G22G01G18G27G14G08
 116523212.666 7  90797314.81745  22173627.213    22173625.276    22173626.653
        46.000          32.0004
 109585555.222 8  85391349.81247  20853419.710    20853420.335    20853419.598
        52.000          45.0004
 114518861.708 8  89235499.26746  21792204.400    21792205.335    21792203.930
        49.000          39.0004
 113234617.162 8  88234783.56946  21547818.557    21547817.008    21547818.517
        51.000          39.0004
 125238284.228 7  97588268.13344  23832050.343    23832046.938    23832049.022
        42.000          26.0004
 120422046.544 7  93835363.03444  22915550.800    22915552.804    22915550.590
        42.000          29.0004
 124542641.904 7  97046225.33543  23699670.087    23699667.724    23699668.556
        42.000          23.0004
 128628924.174 6 100230332.56043  24477272.279    24477275.542    24477271.639
        38.000          20.0004
 107849883.482 8  84038881.96447  20523136.460    20523134.191    20523135.460
        50.000          43.0004
 124430168.292 6  96958575.19844  23678273.412    23678275.863    23678272.982
        40.000          24.0004
 17  9 19  1 40 30.0000000  0 10G11G32G10G31G22G01G18G27G14G08
 116471813.788 7  90757263.75445  22163846.297    22163844.447    22163845.758
        47.000          32.0004
 109619532.118 8  85417825.32047  20859885.331    20859885.857    20859885.204
        53.000          46.0004
 114556112.074 8  89264525.51846  21799292.757    21799293.760    21799292.524
        50.000          39.0004
 113141772.038 8  88162436.75546  21530150.976    21530149.014    21530150.589
        50.000          39.0004
 125153897.085 6  97522511.95344  23815992.146    23815988.344    23815990.347
        41.000          25.0004
 120325301.407 7  93759977.24044  22897140.799    22897142.930    22897140.723
        42.000          29.0004
 124596170.188 6  97087935.68643  23709855.007    23709853.998    23709854.587
        40.000          22.0004
 128707755.526 6 100291759.47943  24492273.125    24492276.615    24492272.883
        38.000          21.0004
 107856615.889 8  84044128.00547  20524417.346    20524415.229    20524416.632
        49.000          43.0004
 124486588.265 6  97002538.75743  23689009.700    23689012.546    23689008.758
        39.000          23.0004
 17  9 19  1 41  0.0000000  0 10G11G32G10G31G22G01G18G27G14G08
 116420992.187 7  90717662.51645  22154175.594    22154173.186    22154174.604
        47.000          32.0004
 109653792.924 9  85444522.05747  20866404.754    20866405.525    20866404.807
        54.000          45.0004
 114593572.408 8  89293715.38746  21806421.461    21806422.222    21806420.898
        50.000          39.0004
 113049317.019 8  88090393.92346  21512557.041    21512555.439    21512557.001
        50.000          39.0004
 125069507.588 6  97456753.94044  23799932.893    23799929.783    23799931.667
        41.000          25.0004
 120228851.774 6  93684821.71244  22878787.064    22878789.074    22878786.775
        41.000          29.0004
 124649853.065 6  97129766.49043  23720070.661    23720069.224    23720070.215
        40.000          22.0004
 128786525.637 6 100353138.73243  24507262.696    24507265.624    24507262.524
        41.000          23.0004
 107863695.495 8  84049644.58647  20525764.630    20525762.491    20525763.771
        49.000          43.0004
 124543243.711 7  97046685.79944  23699791.225    23699793.784    23699790.686
        42.000          25.0004
 17  9 19  1 41 30.0000000  0 10G11G32G10G31G22G01G18G27G14G08
 116370746.438 7  90678509.99245  22144614.150    22144611.815    22144613.401
        46.000          32.0004
 109688333.044 9  85471436.44747  20872977.597    20872978.329    20872977.463
        54.000          45.0004
 114631240.266 8  89323066.96346  21813589.337    21813590.227    21813588.946
        49.000          39.0004
 112957252.056 8  88018655.02346  21495037.641    21495036.078    21495037.457
        51.000          39.0004
 124985113.203 7  97390992.11044  23783873.457    23783870.059    23783872.103
        42.000          25.0004
 120132697.432 7  93609896.28545  22860489.226    22860491.413    22860489.201
        43.000          30.0004
 124703688.016 6  97171715.78543  23730314.909    23730313.894    23730314.180
        40.000          21.0004
 128865228.949 6 100414465.95544  24522239.670    24522242.584    24522239.439
        41.000          24.0004
 107871117.848 8  84055428.24047  20527177.206    20527174.877    20527176.175
        49.000          43.0004
 124600128.742 6  97091011.76544  23710616.115    23710618.825    23710615.885
        40.000          26.0004
 17  9 19  1 42  0.0000000  0 10G11G32G10G31G22G01G18G27G14G08
 116321076.259 7  90639805.96845  22135161.820    22135160.146    22135161.148
        45.000          32.0004
 109723149.608 8  85498566.24347  20879603.092    20879603.610    20879602.950
        52.000          46.0004
 114669114.952 8  89352579.70446  21820796.423    21820797.504    21820796.305
        49.000          39.0004
 112865579.247 8  87947221.70146  21477593.076    21477591.138    21477592.737
        51.000          39.0004
 124900713.430 6  97325226.08344  23767812.253    23767808.902    23767811.297
        41.000          25.0004
 120036839.947 7  93535202.17245  22842248.275    22842250.526    22842248.074
        43.000          30.0004
 124757674.288 6  97213782.99743  23740588.364    23740587.102    23740587.592
        41.000          21.0004
 128943861.707 6 100475738.19643  24537202.992    24537205.937    24537202.730
        40.000          23.0004
 107878880.291 8  84061476.90947  20528654.201    20528652.120    20528653.401
        49.000          43.0004
 124657239.358 6  97135513.50544  23721483.136    23721486.389    23721483.058
        40.000          25.0004
 17  9 19  1 42 30.0000000  0 10G11G32G10G31G22G01G18G27G14G08
 116271985.143 7  90601553.15745  22125820.263    22125818.261    22125819.470
        46.000          32.0004
 109758242.558 8  85525911.40547  20886280.913    20886281.593    20886280.943
        52.000          45.0004
 114707198.515 8  89382255.20546  21828043.572    21828044.518    21828043.351
        49.000          39.0004
 112774303.152 8  87876097.50546  21460223.907    21460222.023    21460223.505
        51.000          39.0004
 124816310.633 6  97259457.70544  23751751.038    23751747.601    23751749.801
        41.000          25.0004
 119941283.672 7  93460742.77145  22824064.579    22824066.736    22824064.359
        42.000          30.0004
 124811813.729 6  97255969.57043  23750890.882    23750889.252    23750890.541
        40.000          21.0004
 129022422.820 6 100536954.58343  24552152.674    24552155.973    24552152.309
        37.000          21.0004
 107886983.373 8  84067791.00747  20530196.196    20530193.940    20530195.335
        49.000          43.0004
 124714574.427 6  97180190.14643  23732393.830    23732396.378    23732393.464
        39.000          22.0004
 17  9 19  1 43  0.0000000  0 10G11G32G10G31G22G01G18G27G14G08
 116223473.334 7  90563751.75545  22116588.817    22116586.644    22116588.050
        47.000          32.0004
 109793609.373 8  85553469.96947  20893011.162    20893011.675    20893011.042
        53.000          46.0004
 114745490.599 8  89412093.19046  21835330.209    21835331.342    21835330.152
        49.000          39.0004
 112683425.935 8  87805284.12146  21442930.255    21442928.607    21442930.091
        50.000          39.0004
 124731904.513 6  97193686.72944  23735688.931    23735685.687    23735687.922
        41.000          25.0004
 119846030.515 7  93386519.56345  22805938.157    22805940.518    22805938.271
        42.000          30.0004
 124866105.746 6  97298275.02743  23761221.947    23761220.400    23761221.351
        39.000          20.0004
 129100908.902 6 100598112.48243  24567088.429    24567091.261    24567087.799
        37.000          20.0004
 107895424.671 8  84074368.64947  20531802.503    20531800.304    20531801.626
        48.000          43.0004
 124772129.835 6  97225038.48344  23743346.951    23743349.639    23743346.401
        41.000          24.0004
 17  9 19  1 43 30.0000000  0 10G11G32G10G31G22G01G18G27G14G08
 116175544.220 7  90526404.40245  22107468.155    22107465.818    22107467.419
        45.000          32.0004
 109829250.485 9  85581242.27147  20899793.429    20899793.925    20899793.310
        54.000          46.0004
 114783993.753 8  89442095.64446  21842657.039    21842658.193    21842657.127
        48.000          38.0004
 112592952.710 8  87734785.53746  21425713.774    21425712.012    21425713.585
        49.000          40.0004
 124647497.608 6  97127915.14344  23719627.233    23719623.709    23719625.844
        41.000          25.0004
 119751085.250 7  93312536.27045  22787871.071    22787872.863    22787870.657
        42.000          30.0004
 124920552.858 6  97340701.33943  23771583.421    23771581.733    23771582.302
        39.000          19.0004
 129179319.278 6 100659211.40743  24582009.496    24582012.471    24582009.179
        38.000          21.0004
 107904205.022 8  84081210.48547  20533473.331    20533471.060    20533472.441
        49.000          43.0004
 124829904.953 6  97270058.02644  23754340.979    23754344.142    23754340.982
        41.000          27.0004
 17  9 19  1 44  0.0000000  0 10G11G32G10G31G22G01G18G27G14G08
 116128198.155 7  90489511.37445  22098458.374    22098456.466    22098457.815
        47.000          32.0004
 109865162.990 8  85609226.04647  20906627.329    20906627.907    20906627.221
        53.000          45.0004
 114822707.202 8  89472261.97146  21850023.899    21850025.126    21850023.952
        49.000          39.0004
 112502885.378 8  87664603.23546  21408574.630    21408572.720    21408574.419
        51.000          40.0004
 124563089.403 6  97062142.53844  23703564.392    23703561.231    23703563.460
        41.000          24.0004
 119656449.442 7  93238794.11245  22769862.458    22769864.336    22769862.195
        43.000          30.0004
 124975154.280 6  97383247.88543  23781973.521    23781971.683    23781972.893
        40.000          19.0004
 129257650.165 6 100720248.40643  24596915.573    24596918.445    24596914.787
        38.000          23.0004
 107913321.962 7  84088314.60347  20535208.248    20535206.008    20535207.374
        47.000          43.0004
 124887896.155 6  97315245.92344  23765375.785    23765379.404    23765376.056
        41.000          27.0004
 17  9 19  1 44 30.0000000  0 10G11G32G10G31G22G01G18G27G14G08
 116081435.478 7  90453072.92945  22089559.870    22089557.824    22089559.022
        46.000          32.0004
 109901344.468 8  85637419.41347  20913512.419    20913512.907    20913512.384
        53.000          46.0004
 114861630.673 8  89502591.94546  21857430.620    21857432.056    21857430.817
        49.000          38.0004
 112413226.158 8  87594738.93946  21391512.989    21391511.218    21391512.695
        50.000          40.0004
 124478679.630 7  96996368.72344  23687501.935    23687498.221    23687500.707
        42.000          25.0004
 119562125.055 7  93165294.61745  22751912.952    22751914.972    22751912.726
        43.000          31.0004
 125029909.281 6  97425914.11143  23792392.549    23792391.259    23792391.928
        38.000          18.0004
 129335898.208 6 100781220.85143  24611805.123    24611808.402    24611804.902
        37.000          22.0004
 107922773.092 8  84095679.12747  20537006.590    20537004.468    20537005.777
        48.000          43.0004
 124946099.386 6  97360599.01944  23776452.254    23776454.696    23776451.239
        40.000          24.0004
 17  9 19  1 45  0.0000000  0 10G11G32G10G31G22G01G18G27G14G08
 116035256.977 7  90417089.68545  22080772.300    22080770.158    22080771.654
        46.000          32.0004
 109937792.996 8  85665820.86947  20920448.361    20920448.962    20920448.290
        53.000          45.0004
 114900764.345 8  89533085.72046  21864877.885    21864878.940    21864877.700
        48.000          38.0004
 112323977.623 8  87525194.66346  21374529.666    21374527.784    21374529.263
        51.000          40.0004
 124394268.850 6  96930594.11644  23671439.085    23671435.672    23671437.693
        41.000          25.0004
 119468114.542 7  93092039.70345  22734023.092    22734025.369    22734023.160
        42.000          31.0004
 125084818.004 6  97468700.12343  23802841.040    23802840.340    23802840.880
        38.000          18.0004
 129414060.495 6 100842126.45843  24626678.840    24626682.266    24626678.766
        36.000          21.0004
 107932556.764 8  84103302.77647  20538868.280    20538866.276    20538867.598
        49.000          43.0004
 125004511.512 7  97406114.95243  23787568.099    23787569.644    23787567.435
        42.000          23.0004
 17  9 19  1 45 30.0000000  0 10G11G32G10G31G22G01G18G27G14G08
 115989665.683 7  90381564.00745  22072096.677    22072094.640    22072095.908
        47.000          32.0004
 109974508.516 8  85694430.37147  20927435.075    20927435.656    20927435.022
        53.000          45.0004
 114940110.285 7  89563744.89346  21872364.912    21872366.161    21872364.983
        46.000          38.0004
 112235144.571 8  87455974.13146  21357625.233    21357623.274    21357624.841
        50.000          40.0004
 124309859.431 7  96864820.56744  23655376.939    23655372.986    23655375.295
        43.000          25.0004
 119374422.281 7  93019032.76845  22716194.265    22716196.071    22716194.266
        44.000          31.0004
 125139882.407 6  97511607.44142  23813319.737    23813318.697    23813319.741
        38.000          17.0004
 129492136.114 5 100902964.50143  24641536.779    24641539.608    24641535.699
        33.000          19.0004
 107942673.350 8  84111185.83747  20540793.648    20540791.405    20540792.720
        50.000          43.0004
 125063131.071 6  97451792.53844  23798722.925    23798725.492    23798722.646
        41.000          26.0004
 17  9 19  1 46  0.0000000  0 10G11G32G10G31G22G01G18G27G14G08
 115944662.569 7  90346496.65045  22063532.852    22063530.870    22063532.168
        47.000          33.0004
 110011489.136 8  85723246.44347  20934472.327    20934472.820    20934472.202
        53.000          45.0004
 114979668.719 7  89594569.64646  21879892.940    21879893.929    21879892.718
        46.000          38.0004
 112146729.820 8  87387079.55746  21340800.348    21340798.705    21340800.080
        51.000          40.0004
 124225451.838 7  96799048.44244  23639314.333    23639310.604    23639313.144
        42.000          25.0004
 119281050.725 7  92946275.73345  22698426.201    22698428.116    22698425.934
        44.000          31.0004
 125195102.605 6  97554636.16042  23823828.427    23823826.822    23823827.537
        39.000          17.0004
 129570122.276 5 100963732.84942  24656376.477    24656380.266    24656376.082
        33.000          16.0004
 107953121.159 8  84119326.99647  20542781.730    20542779.494    20542780.780
        48.000          43.0004
 125121955.299 6  97497629.55244  23809916.303    23809919.551    23809915.896
        40.000          26.0004
 17  9 19  1 46 30.0000000  0 10G11G32G10G31G22G01G18G27G14G08
 115900248.737 7  90311888.47045  22055081.179    22055079.110    22055080.328
        47.000          33.0004
 110048733.015 8  85752267.65347  20941559.584    20941560.084    20941559.491
        53.000          45.0004
 115019439.910 8  89625560.18246  21887460.967    21887462.114    21887460.963
        48.000          38.0004
 112058736.121 8  87318513.06646  21324055.712    21324053.840    21324055.476
        51.000          40.0004
 124141046.418 7  96733278.01144  23623252.555    23623248.922    23623251.182
        43.000          25.0004
 119188002.458 7  92873770.61745  22680719.783    22680721.650    22680719.526
        44.000          31.0004
 125250478.908 6  97597786.50342  23834365.259    23834364.641    23834365.411
        38.000          16.0004
 129648016.125 5 101024429.26442  24671200.548    24671202.996    24671198.773
        34.000          16.0004
 107963898.583 8  84127724.99647  20544832.646    20544830.353    20544831.650
        49.000          43.0004
 125180980.781 6  97543623.34544  23821148.563    23821151.680    23821147.851
        38.000          25.0004
 17  9 19  1 47  0.0000000  0 10G11G32G10G31G22G01G18G27G14G08
 115856424.077 7  90277739.39145  22046741.385    22046739.544    22046740.933
        47.000          33.0004
 110086237.413 8  85781491.86547  20948696.356    20948696.907    20948696.354
        52.000          45.0004
 115059423.236 8  89656716.02146  21895069.556    21895070.663    21895069.424
        49.000          38.0004
 111971165.074 8  87250275.91846  21307391.463    21307389.517    21307391.275
        52.000          40.0004
 124056642.504 7  96667508.75944  23607190.746    23607187.595    23607189.832
        42.000          26.0004
 119095279.109 7  92801518.68045  22663075.314    22663076.890    22663074.783
        44.000          31.0004
 125306010.234 6  97641057.66142  23844933.299    23844931.583    23844932.543
        38.000          16.0004
 129725813.978 5 101085050.90342  24686004.075    24686007.164    24686002.779
        34.000          16.0004
 107975003.124 8  84136377.89547  20546945.697    20546943.407    20546944.904
        49.000          43.0004
 125240203.784 6  97589771.09544  23832418.945    23832421.076    23832418.411
        41.000          24.0004
 17  9 19  1 47 30.0000000  0 10G11G32G10G31G22G01G18G27G14G08
 115813187.902 7  90244048.87045  22038513.707    22038512.025    22038513.254
        45.000          33.0004
 110123998.779 8  85810916.31347  20955882.217    20955882.638    20955882.074
        52.000          45.0004
 115099617.255 8  89688036.03646  21902718.042    21902719.257    21902718.152
        49.000          38.0004
 111884018.075 8  87182369.19746  21290807.805    21290806.072    21290807.526
        50.000          40.0004
 123972239.088 7  96601739.89344  23591129.575    23591125.892    23591128.383
        43.000          26.0004
 119002881.502 7  92729520.56645  22645492.780    22645494.066    22645492.222
        43.000          31.0004
 125361695.052 6  97684448.40543  23855530.205    23855528.275    23855529.066
        39.000          18.0004
 129803511.507 6 101145594.37242  24700789.041    24700792.686    24700789.096
        36.000          16.0004
 107986431.624 8  84145283.22647  20549120.415    20549118.262    20549119.655
        49.000          43.0004
 125299619.280 7  97636068.91244  23843725.087    23843726.986    23843725.257
        42.000          24.0004
 17  9 19  1 48  0.0000000  0 10G11G32G10G31G22G01G18G27G14G08
 115770541.220 7  90210817.69645  22030398.536    22030396.555    22030397.734
        47.000          33.0004
 110162015.355 8  85840539.62747  20963116.359    20963117.001    20963116.341
        51.000          45.0004
 115140022.296 8  89719520.48246  21910407.185    21910408.254    21910406.987
        48.000          38.0004
 111797297.922 8  87114795.08546  21274305.558    21274303.669    21274305.297
        51.000          40.0004
 123887836.959 7  96535972.04044  23575068.574    23575064.625    23575066.749
        44.000          26.0004
 118910812.269 7  92657778.32745  22627972.514    22627974.005    22627972.035
        44.000          31.0004
 125417533.501 6  97727958.87242  23866155.701    23866154.215    23866154.560
        38.000          17.0004
 129881105.936 5 101206057.50942  24715554.715    24715558.831    24715554.920
        35.000          16.0004
 107998182.451 7  84154439.72047  20551356.566    20551354.443    20551355.661
        47.000          43.0004
 125359224.314 6  97682514.38244  23855066.966    23855070.112    23855066.991
        39.000          24.0004
 17  9 19  1 48 30.0000000  0 10G11G32G10G31G22G01G18G27G14G08
 115728489.633 7  90178050.22445  22022396.305    22022394.251    22022395.725
        46.000          33.0004
 110200290.059 8  85870364.07747  20970399.822    20970400.378    20970399.861
        52.000          44.0004
 115180643.354 8  89751173.25445  21918137.366    21918138.088    21918136.920
        49.000          35.0004
 111711011.854 8  87047559.21746  21257885.618    21257884.146    21257885.464
        52.000          40.0004
 123803441.266 7  96470209.19244  23559008.320    23559004.710    23559007.004
        42.000          26.0004
 118819078.679 7  92586297.62745  22610516.123    22610517.682    22610515.589
        45.000          32.0004
 125473530.315 6  97771592.74542  23876810.880    23876809.374    23876810.451
        38.000          17.0004
 129958599.347 6 101266441.91642  24730301.524    24730305.111    24730301.623
        36.000          17.0004
 108010258.896 7  84163849.94847  20553654.603    20553652.491    20553653.808
        47.000          43.0004
 125419020.411 6  97729108.66243  23866445.798    23866449.450    23866445.460
        39.000          23.0004
 17  9 19  1 49  0.0000000  0 10G11G32G10G31G22G01G18G27G14G08
 115687030.079 7  90145744.08345  22014506.943    22014505.017    22014506.351
        47.000          33.0004
 110238817.035 8  85900385.10347  20977731.377    20977731.828    20977731.189
        51.000          45.0004
 115221476.668 7  89782991.41746  21925907.634    21925908.418    21925907.347
        47.000          39.0004
 111625158.672 8  86980660.66546  21241548.565    21241546.606    21241548.243
        51.000          40.0004
 123719048.252 6  96404448.44144  23542948.596    23542945.215    23542947.636
        41.000          27.0004
 118727679.222 7  92515077.29245  22593122.915    22593124.794    22593122.866
        43.000          31.0004
 125529681.982 6  97815347.27642  23887496.549    23887495.321    23887495.742
        38.000          16.0004
 130035984.960 6 101326742.33343  24745028.341    24745031.141    24745027.303
        37.000          18.0004
 108022655.008 8  84173509.26447  20556013.578    20556011.324    20556012.719
        48.000          43.0004
 125479000.901 7  97775846.62444  23877860.413    23877863.083    23877860.101
        42.000          24.0004
 17  9 19  1 49 30.0000000  0 10G11G32G10G31G22G01G18G27G14G08
 115646165.435 7  90113901.50845  22006730.515    22006728.468    22006730.105
        47.000          33.0004
 110277596.675 8  85930603.00847  20985110.907    20985111.194    20985110.635
        53.000          45.0004
 115262524.736 8  89814976.92346  21933718.896    21933719.630    21933718.526
        49.000          38.0004
 111539743.370 8  86914103.31946  21225294.452    21225292.546    21225294.124
        52.000          40.0004
 123634661.016 6  96338692.18844  23526889.927    23526886.976    23526888.970
        40.000          27.0004
 118636618.679 7  92444121.04145  22575794.976    22575796.483    22575794.479
        43.000          31.0004
 125585990.167 6  97859223.79043  23898211.447    23898210.383    23898210.909
        39.000          18.0004
 130113262.333 6 101386958.39343  24759733.048    24759737.509    24759733.177
        36.000          18.0004
 108035371.364 8  84183418.11747  20558433.362    20558431.184    20558432.473
        49.000          43.0004
 125539164.547 6  97822727.36444  23889309.556    23889311.590    23889309.159
        41.000          24.0004
 17  9 19  1 50  0.0000000  0 10G11G32G10G31G22G01G18G27G14G08
 115605894.404 7  90082521.48845  21999067.343    21999065.214    21999066.621
        46.000          33.0004
 110316624.774 8  85961014.51947  20992537.507    20992538.054    20992537.491
        52.000          44.0004
 115303785.407 8  89847128.09546  21941570.520    21941571.297    21941570.139
        49.000          38.0004
 111454766.582 8  86847887.67346  21209123.870    21209121.986    21209123.671
        51.000          41.0004
 123550277.603 7  96272938.91944  23510832.854    23510829.079    23510831.569
        42.000          27.0004
 118545897.207 7  92373429.00045  22558530.929    22558532.771    22558530.777
        44.000          32.0004
 125642453.179 6  97903220.93643  23908956.028    23908954.833    23908955.279
        39.000          18.0004
 130190426.373 6 101447086.15943  24774416.897    24774420.672    24774417.014
        38.000          18.0004
 108048404.238 8  84193573.60847  20560913.452    20560911.226    20560912.437
        49.000          43.0004
 125599506.055 6  97869746.74843  23900791.819    23900793.414    23900791.908
        38.000          21.0004
 17  9 19  1 50 30.0000000  0 10G11G32G10G31G22G01G18G27G14G08
 115566221.095 7  90051607.22345  21991517.461    21991515.589    21991517.040
        45.000          33.0004
 110355903.056 8  85991620.97847  21000011.932    21000012.528    21000011.757
        53.000          44.0004
 115345262.469 8  89879447.88146  21949463.142    21949464.183    21949463.038
        48.000          38.0004
 111370234.208 8  86782018.32546  21193037.946    21193035.935    21193037.728
        52.000          41.0004
 123465901.959 7  96207191.71144  23494776.358    23494772.859    23494775.248
        42.000          27.0004
 118455520.864 7  92303005.89445  22541333.061    22541334.785    22541332.686
        45.000          32.0004
 125699074.376 6  97947341.34243  23919731.355    23919729.415    23919730.583
        39.000          19.0004
 130267477.895 6 101507126.25942  24789079.828    24789082.711    24789079.425
        39.000          16.0004
 108061755.494 8  84203977.19547  20563454.216    20563451.879    20563453.210
        48.000          42.0004
 125660025.921 6  97916905.05943  23912307.450    23912310.491    23912307.288
        38.000          19.0004
 17  9 19  1 51  0.0000000  0 10G11G32G10G31G22G01G18G27G14G08
 115527140.545 7  90021154.84545  21984080.731    21984078.784    21984080.207
        47.000          33.0004
 110395424.100 8  86022416.60547  21007532.572    21007533.099    21007532.444
        52.000          44.0004
 115386950.560 8  89911932.11146  21957396.398    21957397.161    21957395.876
        49.000          38.0004
 111286143.501 8  86716493.13046  21177036.026    21177034.043    21177035.736
        50.000          41.0004
 123381529.215 6  96141446.75144  23478720.845    23478717.360    23478719.651
        41.000          27.0004
 118365486.525 7  92232849.27945  22524199.892    22524201.672    22524199.699
        45.000          31.0004
 125755848.435 6  97991580.85843  23930534.430    23930533.445    23930533.801
        40.000          19.0004
 130344408.630 6 101567072.26342  24803718.928    24803722.401    24803719.387
        40.000          16.0004
 108075417.984 8  84214623.30247  20566053.711    20566051.786    20566053.024
        48.000          43.0004
 125720715.559 6  97964195.60743  23923856.283    23923859.998    23923856.629
        40.000          20.0004
 17  9 19  1 51 30.0000000  0 10G11G32G10G31G22G01G18G27G14G08
 115488657.088 7  89991167.74345  21976757.742    21976755.726    21976757.037
        47.000          33.0004
 110435189.254 8  86053402.44647  21015099.633    21015100.180    21015099.525
        52.000          44.0004
 115428853.119 7  89944583.45746  21965370.214    21965370.887    21965369.607
        47.000          38.0004
 111202500.018 8  86651316.42346  21161118.912    21161117.173    21161118.842
        51.000          41.0004
 123297163.059 6  96075706.93144  23462666.311    23462663.113    23462665.291
        41.000          28.0004
 118275799.945 7  92162963.65145  22507133.206    22507135.080    22507132.977
        44.000          32.0004
 125812778.178 6  98035941.68143  23941367.980    23941367.052    23941367.564
        38.000          20.0004
 130421219.100 6 101626924.57142  24818335.197    24818338.012    24818335.632
        40.000          15.0004
 108089393.289 8  84225513.16047  20568713.266    20568711.111    20568712.447
        49.000          43.0004
 125781574.668 6  98011618.22944  23935438.660    23935441.365    23935438.124
        40.000          24.0004
 17  9 19  1 52  0.0000000  0 10G11G32G10G31G22G01G18G27G14G08
 115450773.132 7  89961647.78145  21969548.592    21969546.677    21969547.984
        47.000          33.0004
 110475198.549 8  86084578.52647  21022713.109    21022713.637    21022713.000
        51.000          44.0004
 115470972.185 8  89977403.50546  21973385.019    21973385.914    21973384.753
        48.000          38.0004
 111119308.173 8  86586491.64146  21145288.041    21145286.306    21145287.910
        50.000          41.0004
 123212805.898 7  96009974.11844  23446613.893    23446610.324    23446612.510
        42.000          28.0004
 118186465.424 7  92093352.35045  22490133.449    22490135.030    22490133.231
        42.000          32.0004
 125869865.659 6  98080425.42343  23952232.194    23952230.484    23952231.298
        41.000          21.0004
 130497908.437 6 101686682.48842  24832929.294    24832932.348    24832929.161
        39.000          16.0004
 108103681.572 8  84236646.89547  20571432.177    20571430.062    20571431.295
        48.000          43.0004
 125842602.086 6  98059172.02743  23947051.460    23947054.358    23947051.294
        40.000          23.0004
 17  9 19  1 52 30.0000000  0 10G11G32G10G31G22G01G18G27G14G08
 115413492.241 8  89932597.73845  21962454.209    21962452.279    21962453.668
        48.000          33.0004
 110515453.140 8  86115945.74547  21030373.248    21030373.835    21030373.081
        53.000          44.0004
 115513311.019 8  90010394.80746  21981441.684    21981442.856    21981441.613
        49.000          38.0004
 111036573.888 8  86522023.40146  21129544.361    21129542.481    21129544.177
        52.000          41.0004
 123128461.274 7  95944251.07844  23430563.230    23430559.890    23430562.274
        43.000          28.0004
 118097488.524 7  92024019.71745  22473201.603    22473203.388    22473201.286
        45.000          32.0004
 125927113.720 6  98125034.31243  23963124.855    23963124.135    23963124.700
        39.000          21.0004
 130574477.005 6 101746346.29242  24847499.656    24847502.888    24847499.845
        39.000          16.0004
 108118284.280 8  84248025.63347  20574211.219    20574208.903    20574210.200
        51.000          43.0004
 125903797.844 6  98106857.00542  23958695.992    23958698.969    23958695.966
        36.000          17.0004
 17  9 19  1 53  0.0000000  0 10G11G32G10G31G22G01G18G27G14G08
 115376810.401 7  89904014.49245  21955473.722    21955471.944    21955473.433
        47.000          33.0004
 110555946.300 8  86147498.85947  21038078.719    21038079.441    21038078.781
        51.000          44.0004
 115555864.963 8  90043553.72346  21989539.793    21989540.590    21989539.371
        48.000          38.0004
 110954294.912 8  86457909.95146  21113887.273    21113885.377    21113886.998
        51.000          41.0004
 123044125.132 7  95878534.64344  23414514.609    23414511.516    23414513.522
        43.000          28.0004
 118008866.844 7  91954963.88045  22456337.407    22456339.376    22456337.330
        44.000          32.0004
 125984517.869 6  98169764.78943  23974049.174    23974047.622    23974048.740
        39.000          20.0004
 130650917.259 6 101805910.07842  24862046.087    24862049.635    24862046.306
        39.000          17.0004
 108133194.519 8  84259644.01247  20577048.375    20577046.236    20577047.468
        49.000          43.0004
 125965153.731 6  98154666.74542  23970371.725    23970374.291    23970371.531
        36.000          15.0004
 17  9 19  1 53 30.0000000  0 10G11G32G10G31G22G01G18G27G14G08
 115340731.460 7  89875901.03545  21948608.311    21948606.231    21948607.807
        47.000          33.0004
 110596679.902 8  86179239.33647  21045830.231    21045830.787    21045830.111
        52.000          44.0004
 115598637.710 8  90076883.13546  21997679.060    21997679.848    21997678.601
        48.000          38.0004
 110872477.277 8  86394155.97646  21098317.799    21098315.706    21098317.507
        52.000          41.0004
 122959801.198 6  95812827.72944  23398468.390    23398465.243    23398467.289
        41.000          28.0004
 117920606.316 7  91886189.45645  22439542.264    22439543.686    22439541.806
        44.000          32.0004
 126042082.089 6  98214619.99743  23985002.962    23985002.193    23985002.174
        40.000          20.0004
 130727230.048 6 101865374.52342  24876567.829    24876571.934    24876567.649
        37.000          17.0004
 108148414.359 8  84271503.63847  20579944.708    20579942.443    20579943.830
        49.000          43.0004
 126026670.072 6  98202601.53643  23982078.635    23982081.405    23982078.180
        39.000          22.0004
 17  9 19  1 54  0.0000000  0 10G11G32G10G31G22G01G18G27G14G08
 115305255.532 7  89848257.45545  21941857.415    21941855.603    21941856.938
        47.000          33.0004
 110637651.189 8  86211165.01747  21053626.747    21053627.424    21053626.692
        53.000          44.0004
 115641628.742 8  90110382.64146  22005859.921    22005860.741    22005859.632
        48.000          38.0004
 110791122.622 8  86330762.77246  21082836.517    21082834.498    21082836.271
        52.000          41.0004
 122875489.260 6  95747130.15544  23382424.134    23382421.105    23382423.096
        41.000          28.0004
 117832708.746 7  91817697.85345  22422815.854    22422817.541    22422815.518
        44.000          32.0004
 126099805.045 6  98259598.92843  23995986.896    23995986.435    23995986.499
        37.000          20.0004
 130803412.003 6 101924737.01942  24891064.849    24891068.136    24891064.930
        37.000          17.0004
 108163941.514 8  84283602.73247  20582899.329    20582897.225    20582898.484
        48.000          43.0004
 126088343.240 6  98250658.50944  23993814.661    23993817.761    23993814.399
        40.000          24.0004
 17  9 19  1 54 30.0000000  0 10G11G32G10G31G22G01G18G27G14G08
 115270381.770 7  89821083.09845  21935221.150    21935219.274    21935220.713
        46.000          34.0004
 110678857.245 8  86243273.63547  21061468.143    21061468.608    21061468.026
        53.000          44.0004
 115684837.109 8  90144051.50046  22014082.090    22014083.083    22014081.818
        48.000          37.0004
 110710232.308 8  86267731.38846  21067443.693    21067441.597    21067443.295
        52.000          41.0004
 122791188.986 7  95681441.67244  23366382.708    23366379.104    23366381.275
        43.000          27.0004
 117745175.412 7  91749490.07945  22406158.658    22406160.472    22406158.494
        45.000          33.0004
 126157685.520 6  98304700.57043  24007001.956    24007000.160    24007001.488
        40.000          20.0004
 130879459.325 6 101983994.61243  24905536.725    24905539.985    24905535.991
        36.000          18.0004
 108179773.057 8  84295939.01147  20585911.960    20585909.837    20585911.072
        50.000          43.0004
 126150169.231 6  98298834.55043  24005579.291    24005582.575    24005579.484
        38.000          23.0004
 17  9 19  1 55  0.0000000  0 10G11G32G10G31G22G01G18G27G14G08
 115236107.279 7  89794375.70845  21928699.000    21928697.128    21928698.388
        47.000          33.0004
 110720292.606 8  86275560.93347  21069352.845    21069353.510    21069352.923
        51.000          44.0004
 115728259.350 7  90177887.00946  22022344.860    22022346.034    22022344.750
        46.000          37.0004
 110629805.491 8  86205061.16946  21052139.101    21052136.786    21052138.529
        51.000          41.0004
 122706897.234 7  95615759.83044  23350342.616    23350339.015    23350340.992
        43.000          27.0004
 117658005.109 7  91681565.18145  22389570.542    22389572.515    22389570.458
        46.000          32.0004
 126215719.886 6  98349922.14443  24018045.739    24018043.665    24018044.902
        40.000          20.0004
 130955365.632 5 102043142.29343  24919980.554    24919984.241    24919980.701
        34.000          18.0004
 108195903.610 7  84308508.28347  20588981.519    20588979.291    20588980.649
        47.000          43.0004
 126212140.774 6  98347123.96843  24017371.756    24017375.606    24017371.507
        37.000          21.0004
 17  9 19  1 55 30.0000000  0 10G11G32G10G31G22G01G18G27G14G08
 115202434.270 7  89768137.00745  21922291.148    21922289.266    21922290.603
        47.000          34.0004
 110761957.401 8  86308027.01247  21077281.401    21077282.152    21077281.333
        52.000          44.0004
 115771897.583 7  90211890.82646  22030649.079    22030649.980    22030648.734
        47.000          38.0004
 110549846.723 8  86142755.66647  21036923.059    21036921.050    21036922.904
        51.000          42.0004
 122622616.715 7  95550086.74044  23334304.231    23334300.768    23334302.817
        43.000          28.0004
 117571202.294 7  91613926.63945  22373052.517    22373054.540    22373052.282
        45.000          33.0004
 126273910.051 6  98395265.14443  24029118.935    24029117.445    24029117.998
        40.000          19.0004
 131031130.290 5 102102179.61643  24934398.426    24934401.812    24934397.946
        35.000          18.0004
 108212333.787 8  84321311.02747  20592108.045    20592105.813    20592107.214
        48.000          43.0004
 126274256.886 6  98395526.07143  24029192.523    24029195.255    24029191.785
        39.000          20.0004
 17  9 19  1 56  0.0000000  0 10G11G32G10G31G22G01G18G27G14G08
 115169366.432 8  89742369.86145  21915998.762    21915996.534    21915998.079
        48.000          34.0004
 110803852.744 8  86340672.73847  21085253.965    21085254.409    21085253.768
        53.000          44.0004
 115815754.932 7  90246065.38446  22038994.968    22038995.936    22038994.596
        47.000          37.0004
 110470361.215 8  86080818.93847  21021797.487    21021795.518    21021797.445
        51.000          42.0004
 122538350.679 7  95484424.93744  23318269.129    23318265.204    23318267.610
        43.000          28.0004
 117484772.306 7  91546578.61445  22356605.478    22356607.313    22356605.282
        46.000          33.0004
 126332259.145 6  98440732.00243  24040221.755    24040221.139    24040221.705
        38.000          18.0004
 131106753.626 5 102161106.81443  24948787.789    24948792.584    24948788.618
        34.000          18.0004
 108229064.568 8  84334348.00647  20595291.772    20595289.599    20595291.030
        49.000          43.0004
 126336517.410 7  98444040.78743  24041041.290    24041043.096    24041040.401
        42.000          22.0004
 17  9 19  1 56 30.0000000  0 10G11G32G10G31G22G01G18G27G14G08
 115136900.165 7  89717071.47745  21909820.583    21909818.450    21909819.930
        47.000          34.0004
 110845972.884 8  86373493.62847  21093269.079    21093269.580    21093268.939
        52.000          44.0004
 115859827.641 7  90280407.75346  22047381.610    22047382.621    22047381.530
        45.000          37.0004
 110391347.334 8  86019249.71246  21006761.600    21006759.739    21006761.437
        52.000          41.0004
 122454095.856 7  95418771.86144  23302236.112    23302231.891    23302234.490
        42.000          28.0004
 117398713.667 7  91479519.95045  22340229.292    22340230.836    22340229.069
        45.000          33.0004
 126390763.242 6  98486319.61642  24051354.689    24051354.298    24051354.250
        36.000          16.0004
 131182229.158 5 102219918.84543  24963151.094    24963155.596    24963151.043
        35.000          18.0004
 108246090.485 7  84347614.95647  20598531.788    20598529.572    20598530.911
        46.000          43.0004
 126398915.071 6  98492662.34444  24052914.811    24052917.603    24052914.520
        40.000          24.0004
 17  9 19  1 57  0.0000000  0 10G11G32G10G31G22G01G18G27G14G08
 115105036.875 7  89692242.94445  21903757.309    21903755.319    21903756.618
        47.000          34.0004
 110888316.668 8  86406488.78947  21101326.966    21101327.337    21101326.741
        51.000          44.0004
 115904116.542 7  90314918.58846  22055809.654    22055810.600    22055809.380
        45.000          37.0004
 110312808.518 8  85958050.66047  20991816.278    20991814.158    20991815.892
        51.000          42.0004
 122369853.860 7  95353128.78444  23286205.332    23286201.502    23286203.890
        44.000          28.0004
 117313029.464 7  91412753.05745  22323924.062    22323925.795    22323923.597
        45.000          33.0004
 126449422.935 6  98532028.45942  24062517.100    24062515.738    24062516.839
        36.000          15.0004
 131257554.875 5 102278614.13643  24977485.178    24977489.278    24977485.390
        35.000          18.0004
 108263410.608 8  84361111.16047  20601827.640    20601825.382    20601826.825
        49.000          43.0004
 126461447.614 6  98541388.95944  24064814.160    24064817.674    24064813.883
        39.000          24.0004
 17  9 19  1 57 30.0000000  0 10G11G32G10G31G22G01G18G27G14G08
 115073779.249 8  89667886.35445  21897809.038    21897806.912    21897808.499
        48.000          34.0004
 110930885.062 8  86439658.97147  21109427.386    21109427.919    21109427.236
        53.000          44.0004
 115948624.593 8  90349600.18346  22064279.145    22064280.268    22064279.067
        48.000          37.0004
 110234749.837 8  85897225.74447  20976961.991    20976960.040    20976961.863
        52.000          42.0004
 122285627.830 7  95287498.13844  23270177.625    23270173.724    23270176.346
        44.000          28.0004
 117227724.908 7  91346281.99345  22307691.163    22307692.758    22307690.728
        46.000          33.0004
 126508241.024 6  98577860.70642  24073710.158    24073710.168    24073709.266
        36.000          15.0004
 131332730.927 5 102337192.79142  24991791.058    24991794.950    24991790.531
        35.000          17.0004
 108281025.760 8  84374837.25747  20605179.588    20605177.467    20605178.865
        51.000          42.0004
 126524114.765 6  98590220.41343  24076738.700    24076742.887    24076738.564
        39.000          23.0004
 17  9 19  1 58  0.0000000  0 11G11G32G10G31G22G01G18G27G03G14G08
 115043125.706 8  89644000.47945  21891975.876    21891973.864    21891975.326
        48.000          34.0004
 110973674.505 8  86473001.39947  21117569.825    21117570.479    21117569.809
        53.000          44.0004
 115993350.130 7  90384451.24746  22072790.157    22072791.073    22072789.898
        47.000          37.0004
 110157171.856 8  85836775.39847  20962199.554    20962197.483    20962199.216
        51.000          42.0004
 122201416.549 7  95221878.97944  23254152.573    23254148.809    23254151.134
        42.000          29.0004
 117142800.596 7  91280107.22645  22291530.484    22291532.167    22291530.333
        46.000          33.0004
 126567215.473 6  98623814.81642  24084932.680    24084931.315    24084931.276
        36.000          15.0004
 131407752.883 5 102395651.37743  25006068.558    25006071.066    25006066.736
        35.000          18.0004
 131998258.149 6 102855785.98042  25118431.385    25118437.152    25118432.659
        36.000          13.0004
 108298932.549 8  84388790.60547  20608587.075    20608585.009    20608586.282
        49.000          43.0004
 126586911.363 6  98639152.75344  24088689.265    24088692.269    24088688.479
        39.000          24.0004
 17  9 19  1 58 30.0000000  0 11G11G32G10G31G22G01G18G27G03G14G08
 115013075.899 8  89620585.05445  21886257.767    21886255.457    21886257.085
        49.000          34.0004
 111016681.983 8  86506513.72547  21125754.157    21125754.493    21125753.908
        51.000          44.0004
 116038292.203 8  90419471.04346  22081342.483    22081343.228    22081341.958
        48.000          37.0004
 110080075.826 8  85776700.60247  20947528.270    20947526.365    20947528.244
        51.000          42.0004
 122117219.490 7  95156270.90744  23238130.287    23238126.551    23238129.214
        44.000          29.0004
 117058257.864 7  91214229.79145  22275442.541    22275444.313    22275442.136
        44.000          34.0004
 126626344.794 6  98669889.58442  24096184.813    24096183.150    24096183.636
        37.000          14.0004
 131482617.094 5 102453987.05443  25020313.286    25020317.290    25020313.151
        35.000          18.0004
 131905704.975 6 102783666.61442  25100819.787    25100822.283    25100819.760
        36.000          14.0004
 108317127.992 8  84402968.87947  20612049.705    20612047.509    20612048.872
        50.000          43.0004
 126649833.444 6  98688182.90044  24100662.884    24100665.676    24100662.775
        40.000          24.0004
 17  9 19  1 59  0.0000000  0 11G11G32G10G31G22G01G18G27G03G14G08
 114983631.058 7  89597641.02245  21880654.422    21880652.337    21880653.758
        47.000          34.0004
 111059906.715 8  86540195.34247  21133979.324    21133979.915    21133979.227
        53.000          44.0004
 116083451.869 7  90454660.39246  22089935.825    22089936.909    22089935.669
        47.000          36.0004
 110003465.315 8  85717004.12647  20932950.137    20932947.921    20932949.671
        52.000          42.0004
 122033038.293 7  95090675.18444  23222111.304    23222107.453    23222110.024
        45.000          29.0004
 116974099.999 7  91148652.25845  22259427.790    22259429.583    22259427.736
        43.000          34.0004
 126685630.583 6  98716086.28942  24107465.666    24107465.594    24107464.543
        36.000          15.0004
 131557321.951 6 102512198.55943  25034529.678    25034533.384    25034529.060
        36.000          18.0004
 131813089.707 6 102711498.88242  25083194.957    25083198.614    25083196.170
        36.000          16.0004
 108335611.540 8  84417371.65047  20615567.013    20615564.854    20615566.126
        49.000          43.0004
 126712878.321 7  98737308.78943  24112660.207    24112662.459    24112659.844
        42.000          23.0004
 17  9 19  1 59 30.0000000  0 11G11G32G10G31G22G01G18G27G03G14G08
 114954796.787 7  89575172.76045  21875167.215    21875165.500    21875166.827
        47.000          34.0004
 111103352.378 8  86574049.11347  21142246.771    21142247.245    21142246.743
        52.000          43.0004
 116128834.810 7  90490023.72246  22098571.947    22098572.889    22098571.816
        46.000          37.0004
 109927348.287 8  85657692.18047  20918465.403    20918463.396    20918465.038
        52.000          42.0004
 121948879.256 7  95025096.73944  23206096.330    23206092.478    23206095.006
        44.000          29.0004
 116890334.923 7  91083380.79145  22243487.943    22243489.557    22243487.576
        45.000          33.0004
 126745077.860 5  98762408.84942  24118778.048    24118777.325    24118777.966
        35.000          14.0004
 131631870.342 5 102570288.16343  25048715.714    25048719.163    25048715.339
        35.000          19.0004
 131720418.156 6 102639287.30542  25065561.094    25065563.946    25065561.502
        36.000          16.0004
 108354386.954 8  84432001.85147  20619139.712    20619137.612    20619138.961
        49.000          43.0004
 126776048.655 6  98786532.42643  24124680.608    24124683.649    24124680.638
        40.000          22.0004
 17  9 19  2  0  0.0000000  0 11G11G32G10G31G22G01G18G27G03G14G08
 114926571.707 8  89553179.19245  21869796.458    21869794.399    21869795.670
        48.000          34.0004
 111147015.613 8  86608072.42047  21150555.698    21150556.124    21150555.540
        52.000          44.0004
 116174439.601 8  90525559.91546  22107250.528    22107251.216    22107250.085
        48.000          36.0004
 109851725.129 8  85598765.07747  20904074.775    20904072.886    20904074.400
        52.000          42.0004
 121864741.114 7  94959534.57444  23190085.400    23190081.376    23190084.023
        43.000          29.0004
 116806963.486 7  91018416.05545  22227622.533    22227624.336    22227622.466
        46.000          34.0004
 126804684.836 6  98808855.82342  24130120.353    24130119.851    24130120.923
        36.000          13.0004
 131706258.101 6 102628252.57343  25062870.447    25062874.624    25062871.132
        36.000          18.0004
 131627688.891 6 102567030.75742  25047914.548    25047916.554    25047915.021
        36.000          17.0004
 108373450.901 8  84446856.88347  20622767.463    20622765.374    20622766.735
        49.000          42.0004
 126839339.988 6  98835850.30043  24136725.084    24136727.908    24136724.300
        40.000          22.0004
 17  9 19  2  0 30.0000000  0 11G11G32G10G31G22G01G18G27G03G14G08
 114898952.480 7  89531657.71945  21864540.485    21864538.776    21864540.082
        47.000          34.0004
 111190890.808 8  86642260.88847  21158904.764    21158905.221    21158904.753
        52.000          44.0004
 116220262.548 8  90561266.10846  22115970.028    22115971.037    22115969.955
        48.000          36.0004
 109776594.417 8  85540221.69146  20889777.746    20889775.877    20889777.514
        52.000          41.0004
 121780621.187 7  94893986.60244  23174077.823    23174074.046    23174076.382
        43.000          29.0004
 116723984.218 7  90953756.90745  22211832.031    22211834.021    22211832.064
        45.000          34.0004
 126864447.768 6  98855424.32942  24141494.294    24141492.937    24141492.907
        36.000          13.0004
 131780501.925 5 102686106.90342  25076995.731    25076999.213    25076994.557
        35.000          14.0004
 131534898.406 5 102494726.49942  25030257.927    25030260.426    25030258.035
        35.000          16.0004
 108392798.295 8  84461932.77947  20626449.066    20626446.975    20626448.418
        49.000          43.0004
 126902745.372 6  98885257.01843  24148790.506    24148793.795    24148790.188
        39.000          23.0004
 17  9 19  2  1  0.0000000  0 11G11G32G10G31G22G01G18G27G03G14G08
 114871943.300 8  89510611.60745  21859401.002    21859398.979    21859400.352
        48.000          34.0004
 111234980.280 8  86676616.32847  21167294.760    21167295.255    21167294.653
        53.000          44.0004
 116266307.880 8  90597145.58446  22124732.397    22124733.264    22124731.995
        49.000          37.0004
 109701962.840 8  85482067.24547  20875575.859    20875574.071    20875575.593
        52.000          42.0004
 121696524.168 7  94828456.48244  23158074.534    23158070.847    23158073.243
        44.000          29.0004
 116641403.598 7  90889408.39345  22196117.702    22196119.295    22196117.449
        43.000          33.0004
 126924370.716 6  98902117.52142  24152897.142    24152896.266    24152896.796
        37.000          13.0004
 131854557.305 5 102743812.34542  25091087.080    25091091.741    25091086.669
        34.000          14.0004
 131442050.913 5 102422377.83342  25012589.521    25012591.743    25012590.374
        35.000          16.0004
 108412431.175 8  84477231.13247  20630185.162    20630183.056    20630184.466
        50.000          43.0004
 126966265.245 6  98934752.95644  24160877.787    24160881.477    24160877.591
        40.000          24.0004
 17  9 19  2  1 30.0000000  0 11G11G32G10G31G22G01G18G27G03G14G08
 114845541.710 7  89490038.93945  21854376.905    21854374.972    21854376.323
        47.000          34.0004
 111279279.740 8  86711135.39447  21175724.750    21175725.150    21175724.523
        53.000          43.0004
 116312573.206 7  90633196.48546  22133536.515    22133537.298    22133536.139
        47.000          36.0004
 109627830.242 8  85424301.61246  20861468.694    20861466.937    20861468.602
        52.000          41.0004
 121612447.967 7  94762942.57744  23142075.099    23142071.775    23142074.046
        44.000          29.0004
 116559221.482 7  90825370.40445  22180478.788    22180480.639    22180478.730
        45.000          34.0004
 126984450.978 6  98948933.33942  24164330.154    24164329.946    24164329.888
        37.000          13.0004
 131928442.230 5 102801384.98642  25105146.730    25105151.421    25105146.908
        34.000          15.0004
 131349144.305 5 102349983.11042  24994910.606    24994912.870    24994909.887
        33.000          14.0004
 108432345.213 8  84492748.57047  20633974.822    20633972.575    20633973.910
        49.000          43.0004
 127029894.180 6  98984333.88544  24172986.444    24172989.486    24172985.992
        40.000          24.0004
 17  9 19  2  2  0.0000000  0 11G11G32G10G31G22G01G18G27G03G14G08
 114819747.839 7  89469939.82145  21849468.412    21849466.429    21849468.135
        46.000          35.0004
 111323787.225 8  86745816.55447  21184194.102    21184194.690    21184194.186
        52.000          44.0004
 116359058.480 7  90669418.77746  22142382.045    22142383.302    22142381.962
        47.000          36.0004
 109554198.314 8  85366926.11347  20847457.235    20847455.201    20847456.916
        52.000          42.0004
 121528393.088 7  94697445.28844  23126080.246    23126076.301    23126078.878
        44.000          29.0004
 116477440.069 7  90761644.64545  22164916.357    22164918.076    22164916.222
        45.000          34.0004
 127044688.503 6  98995871.65042  24175792.728    24175792.001    24175791.814
        37.000          13.0004
 132002154.051 5 102858822.70742  25119173.083    25119178.350    25119174.616
        33.000          13.0004
 131256178.600 5 102277542.33142  24977217.684    24977221.275    24977218.736
        32.000          13.0004
 108452538.791 8  84508483.83747  20637817.443    20637815.276    20637816.626
        48.000          43.0004
 127093628.927 6  99033997.28043  24185115.056    24185117.770    24185114.513
        39.000          22.0004
 17  9 19  2  2 30.0000000  0 10G11G32G10G31G22G01G18G03G14G08
 114794564.399 7  89450316.35645  21844676.196    21844674.261    21844675.719
        45.000          34.0004
 111368503.624 8  86780660.50747  21192703.316    21192703.862    21192703.279
        52.000          44.0004
 116405766.492 7  90705814.62546  22151270.228    22151271.348    22151270.259
        47.000          36.0004
 109481072.281 8  85309944.81447  20833541.748    20833539.739    20833541.509
        50.000          42.0004
 121444362.974 7  94631967.29744  23110089.436    23110086.058    23110088.522
        43.000          29.0004
 116396064.350 7  90698235.01345  22149431.367    22149432.729    22149430.881
        46.000          34.0004
 127105085.748 6  99042934.44542  24187285.673    24187284.380    24187285.866
        37.000          14.0004
 131163156.690 5 102205057.76642  24959515.091    24959520.580    24959518.031
        30.000          13.0004
 108473012.693 8  84524437.53747  20641713.600    20641711.353    20641712.626
        48.000          42.0004
 127157468.906 6  99083742.68043  24197263.017    24197266.207    24197262.650
        38.000          21.0004
 17  9 19  2  3  0.0000000  0 10G11G32G10G31G22G01G18G03G14G08
 114769989.482 7  89431167.06845  21839999.894    21839997.804    21839999.237
        47.000          34.0004
 111413425.202 8  86815664.34347  21201251.674    21201252.136    21201251.605
        53.000          44.0004
 116452695.338 7  90742382.55946  22160200.362    22160201.563    22160200.356
        47.000          36.0004
 109408452.212 8  85253357.77547  20819722.744    20819720.627    20819722.421
        52.000          42.0004
 121360356.421 7  94566507.66144  23094103.822    23094100.200    23094102.595
        45.000          29.0004
 116315094.688 7  90635141.78645  22134023.375    22134024.816    22134022.770
        46.000          34.0004
 127165640.469 6  99090119.95742  24198808.977    24198808.202    24198808.404
        37.000          15.0004
 131070076.815 4 102132528.01942  24941801.968    24941807.714    24941804.708
        28.000          13.0004
 108493763.233 8  84540606.80047  20645662.222    20645660.015    20645661.312
        51.000          43.0004
 127221409.182 6  99133566.24343  24209430.161    24209432.972    24209429.708
        38.000          18.0004
 17  9 19  2  3 30.0000000  0 10G11G32G10G31G22G01G18G03G14G08
 114746021.757 8  89412490.91845  21835439.041    21835436.959    21835438.296
        48.000          34.0004
 111458548.715 8  86850825.52347  21209838.332    21209838.935    21209838.194
        52.000          43.0004
 116499843.678 7  90779121.52146  22169172.723    22169173.579    22169172.368
        47.000          36.0004
 109336339.116 8  85197165.78147  20805999.799    20805997.935    20805999.825
        52.000          42.0004
 121276372.768 7  94501065.87845  23078122.266    23078118.545    23078120.923
        44.000          30.0004
 116234531.980 7  90572365.66845  22118692.657    22118694.053    22118692.289
        45.000          34.0004
 127226351.071 6  99137426.90842  24210361.909    24210361.227    24210361.355
        37.000          16.0004
 130976938.005 4 102059952.41041  24924081.514    24924084.122    24924082.226
        27.000          11.0004
 108514787.451 8  84556989.31647  20649662.790    20649660.831    20649662.175
        50.000          43.0004
 127285445.281 6  99183464.45442  24221615.471    24221618.825    24221615.718
        38.000          17.0004
 17  9 19  2  4  0.0000000  0 10G11G32G10G31G22G01G18G03G14G08
 114722664.981 8  89394290.83345  21830994.074    21830992.213    21830993.556
        48.000          34.0004
 111503875.870 8  86886145.39047  21218463.912    21218464.374    21218463.671
        52.000          43.0004
 116547215.114 7  90816034.32646  22178187.101    22178188.142    22178186.844
        47.000          36.0004
 109264738.450 8  85141373.08247  20792374.832    20792372.639    20792374.490
        52.000          42.0004
 121192415.957 7  94435645.00945  23062145.896    23062142.158    23062144.771
        44.000          30.0004
 116154382.025 7  90509911.17445  22103440.471    22103442.087    22103440.371
        47.000          34.0004
 127287220.990 6  99184857.99442  24221945.622    24221944.497    24221944.346
        37.000          17.0004
 130883743.877 5 101987333.70041  24906344.987    24906349.588    24906347.497
        30.000          11.0004
 108536087.144 8  84573586.49147  20653716.102    20653714.025    20653715.346
        50.000          43.0004
 127349577.235 6  99233437.35043  24233819.427    24233823.117    24233820.018
        37.000          19.0004
 17  9 19  2  4 30.0000000  0 10G11G32G10G31G22G01G18G03G14G08
 114699915.505 7  89376563.96845  21826665.300    21826663.156    21826664.686
        46.000          34.0004
 111549401.798 8  86921620.14247  21227127.155    21227127.697    21227127.006
        52.000          43.0004
 116594806.563 7  90853118.56846  22187243.613    22187244.603    22187243.183
        47.000          36.0004
 109193649.341 8  85085979.00047  20778847.045    20778844.649    20778846.686
        51.000          43.0004
 121108483.520 7  94370243.13745  23046173.760    23046170.295    23046172.711
        43.000          30.0004
 116074643.964 7  90447777.63645  22088266.506    22088268.381    22088266.572
        44.000          34.0004
 127348247.046 6  99232410.76142  24233558.272    24233556.823    24233557.731
        38.000          17.0004
 130790491.579 5 101914669.64041  24888601.227    24888604.410    24888602.092
        31.000          11.0004
 108557657.275 8  84590394.39647  20657820.858    20657818.714    20657820.046
        50.000          43.0004
 127413799.028 6  99283480.23943  24246041.214    24246044.278    24246040.769
        37.000          20.0004
